     3.03           OBSERVATION DATA    M: Mixed            RINEX VERSION / TYPE
sbp2rinex v2.2 (RTKL                    20210504 171522 UTC PGM / RUN BY / DATE 
log: 2020-05-14-US-MTV-1.sbp                                COMMENT             
format: Swift Navigation SBP, option: CONVBASE,EPHALL,OBSALLCOMMENT             
                                                            MARKER NAME         
                                                            MARKER NUMBER       
                                                            MARKER TYPE         
                                                            OBSERVER / AGENCY   
                                                            REC # / TYPE / VERS 
                                                            ANT # / TYPE        
 -2726442.2395 -4347315.8851  3775193.6898                  APPROX POSITION XYZ 
        0.0000        0.0000        0.0000                  ANTENNA: DELTA H/E/N
G    6 C1C L1C S1C C5I L5I S5I                              SYS / # / OBS TYPES 
E    6 C1B L1B S1B C5I L5I S5I                              SYS / # / OBS TYPES 
  2020     5    14    22     4   52.0000000     GPS         TIME OF FIRST OBS   
  2020     5    14    22    40   21.0000000     GPS         TIME OF LAST OBS    
G                                                           SYS / PHASE SHIFT   
E                                                           SYS / PHASE SHIFT   
  0                                                         GLONASS SLOT / FRQ #
 C1C    0.000 C1P    0.000 C2C    0.000 C2P    0.000        GLONASS COD/PHS/BIS 
                                                            END OF HEADER       
> 2020  5 14 22  4 52.0000000  0  5       0.000000000000
E 1  25533451.700   134179182.973          50.000    25533455.460   100198730.883          50.000  
E13  23476788.400   123371346.281          50.000    23476791.960    92127944.777          50.000  
E15  26880119.140   141255935.504          50.000    26880125.080   105483312.793          50.000  
E21  23446821.660   123213864.102          50.000    23446825.820    92010344.051          50.000  
E27  25666159.960   134876542.055          50.000    25666165.140   100719479.715          50.000  
> 2020  5 14 22  4 53.0000000  0 13       0.000000000000
G 2  20975635.180   110227743.953          50.000                                                  
G 5  23195979.220   121895670.160          50.000                                                  
G 6  22189374.700   116605904.102          50.000    22189377.200    87075838.590          50.000  
G12  20179101.340   106041898.855          50.000                                                  
G19  23962443.420   125923490.730          50.000                                                  
G24  22905260.520   120367890.371          50.000    22905263.880    89885107.324          50.000  
G25  21529690.480   113139233.316          50.000    21529692.560    84487090.719          50.000  
G29  23556610.840   123790795.629          50.000                                                  
E 1  25533038.940   134177013.926          50.000    25533042.700   100197111.141          50.000  
E13  23476995.620   123372435.207          50.000    23476999.180    92128757.938          50.000  
E15  26880609.720   141258513.574          50.000    26880615.680   105485237.973          50.000  
E21  23446882.000   123214181.191          50.000    23446886.160    92010580.836          50.000  
E27  25666648.920   134879111.578          50.000    25666654.120   100721398.512          50.000  
> 2020  5 14 22  4 54.0000000  0 13       0.000000000000
G 2  20975839.620   110228818.254          50.000                                                  
G 5  23195388.460   121892565.758          50.000                                                  
G 6  22189890.500   116608614.672          50.000    22189893.000    87077862.715          50.000  
G12  20178956.560   106041138.055          50.000                                                  
G19  23962974.100   125926279.488          50.000                                                  
G24  22905811.260   120370784.477          50.000    22905814.600    89887268.508          50.000  
G25  21529228.220   113136804.172          50.000    21529230.320    84485276.750          50.000  
G29  23556162.280   123788438.430          50.000                                                  
E 1  25532626.240   134174845.105          50.000    25532629.980   100195491.566          50.000  
E13  23477202.880   123373524.395          50.000    23477206.440    92129571.293          50.000  
E15  26881100.320   141261091.637          50.000    26881106.260   105487163.152          50.000  
E21  23446942.420   123214498.711          50.000    23446946.580    92010817.945          50.000  
E27  25667137.920   134881681.336          50.000    25667143.120   100723317.488          50.000  
> 2020  5 14 22  4 55.0000000  0 13       0.000000000000
G 2  20976044.140   110229892.980          50.000                                                  
G 5  23194797.760   121889461.547          50.000                                                  
G 6  22190406.360   116611325.570          50.000    22190408.880    87079887.086          50.000  
G12  20178811.880   106040377.742          50.000                                                  
G19  23963504.800   125929068.277          50.000                                                  
G24  22906362.020   120373678.828          50.000    22906365.380    89889429.871          50.000  
G25  21528766.040   113134375.352          50.000    21528768.120    84483463.020          50.000  
G29  23555713.740   123786081.355          50.000                                                  
E 1  25532213.560   134172676.512          50.000    25532217.320   100193872.164          50.000  
E13  23477410.200   123374613.832          50.000    23477413.760    92130384.832          50.000  
E15  26881590.900   141263669.707          50.000    26881596.860   105489088.332          50.000  
E21  23447002.920   123214816.652          50.000    23447007.080    92011055.367          50.000  
E27  25667626.980   134884251.332          50.000    25667632.180   100725236.641          50.000  
> 2020  5 14 22  4 56.0000000  0 13       0.000000000000
G 2  20976248.740   110230968.145          50.000                                                  
G 5  23194207.080   121886357.523          50.000                                                  
G 6  22190922.300   116614036.773          50.000    22190924.800    87081911.688          50.000  
G12  20178667.280   106039617.910          50.000                                                  
G19  23964035.480   125931857.078          50.000                                                  
G24  22906912.860   120376573.406          50.000    22906916.200    89891591.406          50.000  
G25  21528303.900   113131946.859          50.000    21528306.000    84481649.539          50.000  
G29  23555265.220   123783724.410          50.000                                                  
E 1  25531800.940   134170508.137          50.000    25531804.680   100192252.922          50.000  
E13  23477617.560   123375703.512          50.000    23477621.120    92131198.555          50.000  
E15  26882081.500   141266247.758          50.000    26882087.440   105491013.500          50.000  
E21  23447063.500   123215135.008          50.000    23447067.660    92011293.102          50.000  
E27  25668116.080   134886821.551          50.000    25668121.280   100727155.957          50.000  
> 2020  5 14 22  4 57.0000000  0 13       0.000000000000
G 2  20976453.420   110232043.742          50.000                                                  
G 5  23193616.440   121883253.680          50.000                                                  
G 6  22191438.280   116616748.309          50.000    22191440.780    87083936.531          50.000  
G12  20178522.780   106038858.566          50.000                                                  
G19  23964566.180   125934645.906          50.000                                                  
G24  22907463.720   120379468.234          50.000    22907467.080    89893753.125          50.000  
G25  21527841.840   113129518.684          50.000    21527843.940    84479836.289          50.000  
G29  23554816.740   123781367.570          50.000                                                  
E 1  25531388.360   134168339.996          50.000    25531392.100   100190633.855          50.000  
E13  23477824.960   123376793.461          50.000    23477828.520    92132012.477          50.000  
E15  26882572.080   141268825.824          50.000    26882578.040   105492938.676          50.000  
E21  23447124.160   123215453.785          50.000    23447128.320    92011531.148          50.000  
E27  25668605.220   134889392.004          50.000    25668610.420   100729075.453          50.000  
> 2020  5 14 22  4 58.0000000  0 13       0.000000000000
G 2  20976658.180   110233119.766          50.000                                                  
G 5  23193025.840   121880150.031          50.000                                                  
G 6  22191954.320   116619460.152          50.000    22191956.840    87085961.609          50.000  
G12  20178378.380   106038099.719          50.000                                                  
G19  23965096.880   125937434.766          50.000                                                  
G24  22908014.620   120382363.277          50.000    22908017.980    89895915.008          50.000  
G25  21527379.820   113127090.828          50.000    21527381.920    84478023.281          50.000  
G29  23554368.260   123779010.852          50.000                                                  
E 1  25530975.800   134166172.066          50.000    25530979.560   100189014.949          50.000  
E13  23478032.420   123377883.668          50.000    23478035.980    92132826.594          50.000  
E15  26883062.660   141271403.871          50.000    26883068.620   105494863.840          50.000  
E21  23447184.900   123215772.980          50.000    23447189.060    92011769.508          50.000  
E27  25669094.420   134891962.699          50.000    25669099.600   100730995.125          50.000  
> 2020  5 14 22  4 59.0000000  0 13       0.000000000000
G 2  20976863.020   110234196.223          50.000                                                  
G 5  23192435.260   121877046.566          50.000                                                  
G 6  22192470.440   116622172.313          50.000    22192472.940    87087986.926          50.000  
G12  20178234.060   106037341.344          50.000                                                  
G19  23965627.580   125940223.637          50.000                                                  
G24  22908565.580   120385258.539          50.000    22908568.940    89898077.055          50.000  
G25  21526917.880   113124663.305          50.000    21526919.980    84476210.520          50.000  
G29  23553919.820   123776654.258          50.000                                                  
E 1  25530563.300   134164004.363          50.000    25530567.060   100187396.211          50.000  
E13  23478239.940   123378974.129          50.000    23478243.480    92133640.898          50.000  
E15  26883553.260   141273981.918          50.000    26883559.220   105496789.004          50.000  
E21  23447245.720   123216092.590          50.000    23447249.880    92012008.180          50.000  
E27  25669583.640   134894533.621          50.000    25669588.840   100732914.965          50.000  
> 2020  5 14 22  5  0.0000000  0 13       0.000000000000
G 2  20977067.940   110235273.117          50.000                                                  
G 5  23191844.720   121873943.289          50.000                                                  
G 6  22192986.600   116624884.809          50.000    22192989.120    87090012.488          50.000  
G12  20178089.840   106036583.465          50.000                                                  
G19  23966158.300   125943012.539          50.000                                                  
G24  22909116.580   120388154.027          50.000    22909119.920    89900239.266          50.000  
G25  21526456.000   113122236.098          50.000    21526458.100    84474397.996          50.000  
G29  23553471.400   123774297.785          50.000                                                  
E 1  25530150.860   134161836.898          50.000    25530154.600   100185777.648          50.000  
E13  23478447.480   123380064.832          50.000    23478451.040    92134455.383          50.000  
E15  26884043.840   141276559.969          50.000    26884049.800   105498714.168          50.000  
E21  23447306.620   123216412.621          50.000    23447310.780    92012247.164          50.000  
E27  25670072.920   134897104.781          50.000    25670078.120   100734834.988          50.000  
> 2020  5 14 22  5  1.0000000  0 13       0.000000000000
G 2  20977272.940   110236350.441          50.000                                                  
G 5  23191254.220   121870840.195          50.000                                                  
G 6  22193502.840   116627597.602          50.000    22193505.340    87092038.273          50.000  
G12  20177945.720   106035826.078          50.000                                                  
G19  23966689.020   125945801.445          50.000                                                  
G24  22909667.620   120391049.746          50.000    22909670.960    89902401.656          50.000  
G25  21525994.180   113119809.211          50.000    21525996.280    84472585.711          50.000  
G29  23553023.000   123771941.426          50.000                                                  
E 1  25529738.440   134159669.648          50.000    25529742.180   100184159.250          50.000  
E13  23478655.100   123381155.797          50.000    23478658.640    92135270.066          50.000  
E15  26884534.420   141279138.004          50.000    26884540.380   105500639.324          50.000  
E21  23447367.600   123216733.074          50.000    23447371.760    92012486.461          50.000  
E27  25670562.240   134899676.176          50.000    25670567.440   100736755.184          50.000  
> 2020  5 14 22  5  2.0000000  0 13       0.000000000000
G 2  20977478.040   110237428.199          50.000                                                  
G 5  23190663.760   121867737.289          50.000                                                  
G 6  22194019.120   116630310.727          50.000    22194021.640    87094064.309          50.000  
G12  20177801.680   106035069.180          50.000                                                  
G19  23967219.740   125948590.391          50.000                                                  
G24  22910218.700   120393945.699          50.000    22910222.040    89904564.215          50.000  
G25  21525532.420   113117382.641          50.000    21525534.520    84470773.664          50.000  
G29  23552574.620   123769585.199          50.000                                                  
E 1  25529326.060   134157502.629          50.000    25529329.820   100182541.020          50.000  
E13  23478862.740   123382247.020          50.000    23478866.300    92136084.941          50.000  
E15  26885025.020   141281716.047          50.000    26885030.960   105502564.484          50.000  
E21  23447428.660   123217053.945          50.000    23447432.820    92012726.074          50.000  
E27  25671051.600   134902247.797          50.000    25671056.800   100738675.551          50.000  
> 2020  5 14 22  5  3.0000000  0 13       0.000000000000
G 2  20977683.220   110238506.391          50.000                                                  
G 5  23190073.340   121864634.574          50.000                                                  
G 6  22194535.480   116633024.168          50.000    22194537.980    87096090.578          50.000  
G12  20177657.740   106034312.766          50.000                                                  
G19  23967750.460   125951379.340          50.000                                                  
G24  22910769.820   120396841.895          50.000    22910773.180    89906726.957          50.000  
G25  21525070.720   113114956.410          50.000    21525072.820    84468961.867          50.000  
G29  23552126.260   123767229.090          50.000                                                  
E 1  25528913.740   134155335.828          50.000    25528917.480   100180922.957          50.000  
E13  23479070.440   123383338.504          50.000    23479074.000    92136900.008          50.000  
E15  26885515.600   141284294.078          50.000    26885521.560   105504489.637          50.000  
E21  23447489.800   123217375.234          50.000    23447493.960    92012965.996          50.000  
E27  25671541.020   134904819.648          50.000    25671546.200   100740596.086          50.000  
> 2020  5 14 22  5  4.0000000  0 13       0.000000000000
G 2  20977888.460   110239585.008          50.000                                                  
G 5  23189482.940   121861532.035          50.000                                                  
G 6  22195051.880   116635737.934          50.000    22195054.400    87098117.090          50.000  
G12  20177513.900   106033556.832          50.000                                                  
G19  23968281.180   125954168.332          50.000                                                  
G24  22911321.000   120399738.332          50.000    22911324.360    89908889.879          50.000  
G25  21524609.080   113112530.484          50.000    21524611.180    84467150.301          50.000  
G29  23551677.940   123764873.090          50.000                                                  
E 1  25528501.460   134153169.250          50.000    25528505.200   100179305.059          50.000  
E13  23479278.200   123384430.230          50.000    23479281.760    92137715.262          50.000  
E15  26886006.180   141286872.113          50.000    26886012.140   105506414.793          50.000  
E21  23447551.020   123217696.945          50.000    23447555.180    92013206.238          50.000  
E27  25672030.460   134907391.746          50.000    25672035.660   100742516.809          50.000  
> 2020  5 14 22  5  5.0000000  0 13       0.000000000000
G 2  20978093.800   110240664.066          50.000                                                  
G 5  23188892.580   121858429.695          50.000                                                  
G 6  22195568.360   116638452.016          50.000    22195570.880    87100143.840          50.000  
G12  20177370.140   106032801.395          50.000                                                  
G19  23968811.920   125956957.332          50.000                                                  
G24  22911872.220   120402634.992          50.000    22911875.560    89911052.969          50.000  
G25  21524147.520   113110104.898          50.000    21524149.600    84465338.988          50.000  
G29  23551229.620   123762517.207          50.000                                                  
E 1  25528089.200   134151002.906          50.000    25528092.960   100177687.332          50.000  
E13  23479486.000   123385522.215          50.000    23479489.540    92138530.703          50.000  
E15  26886496.760   141289450.141          50.000    26886502.720   105508339.941          50.000  
E21  23447612.320   123218019.082          50.000    23447616.480    92013446.793          50.000  
E27  25672519.960   134909964.066          50.000    25672525.160   100744437.695          50.000  
> 2020  5 14 22  5  6.0000000  0 13       0.000000000000
G 2  20978299.220   110241743.551          50.000                                                  
G 5  23188302.260   121855327.531          50.000                                                  
G 6  22196084.900   116641166.414          50.000    22196087.400    87102170.824          50.000  
G12  20177226.480   106032046.438          50.000                                                  
G19  23969342.640   125959746.355          50.000                                                  
G24  22912423.480   120405531.910          50.000    22912426.840    89913216.250          50.000  
G25  21523686.000   113107679.637          50.000    21523688.100    84463527.918          50.000  
G29  23550781.340   123760161.453          50.000                                                  
E 1  25527677.000   134148836.777          50.000    25527680.760   100176069.773          50.000  
E13  23479693.840   123386614.457          50.000    23479697.400    92139346.336          50.000  
E15  26886987.340   141292028.160          50.000    26886993.300   105510265.086          50.000  
E21  23447673.700   123218341.621          50.000    23447677.860    92013687.648          50.000  
E27  25673009.500   134912536.621          50.000    25673014.700   100746358.758          50.000  
> 2020  5 14 22  5  7.0000000  0 13       0.000000000000
G 2  20978504.720   110242823.465          50.000                                                  
G 5  23187711.980   121852225.559          50.000                                                  
G 6  22196601.480   116643881.133          50.000    22196604.000    87104198.051          50.000  
G12  20177082.920   106031291.973          50.000                                                  
G19  23969873.380   125962535.395          50.000                                                  
G24  22912974.780   120408429.055          50.000    22912978.140    89915379.703          50.000  
G25  21523224.540   113105254.695          50.000    21523226.640    84461717.082          50.000  
G29  23550333.080   123757805.820          50.000                                                  
E 1  25527264.860   134146670.887          50.000    25527268.600   100174452.387          50.000  
E13  23479901.740   123387706.953          50.000    23479905.300    92140162.164          50.000  
E15  26887477.920   141294606.176          50.000    26887483.880   105512190.227          50.000  
E21  23447735.160   123218664.586          50.000    23447739.320    92013928.824          50.000  
E27  25673499.080   134915109.410          50.000    25673504.280   100748279.996          50.000  
> 2020  5 14 22  5  8.0000000  0 13       0.000000000000
G 2  20978710.300   110243903.809          50.000                                                  
G 5  23187121.720   121849123.773          50.000                                                  
G 6  22197118.140   116646596.160          50.000    22197120.660    87106225.504          50.000  
G12  20176939.440   106030538.000          50.000                                                  
G19  23970404.120   125965324.457          50.000                                                  
G24  22913526.140   120411326.426          50.000    22913529.500    89917543.324          50.000  
G25  21522763.160   113102830.078          50.000    21522765.260    84459906.496          50.000  
G29  23549884.840   123755450.309          50.000                                                  
E 1  25526852.740   134144505.207          50.000    25526856.480   100172835.160          50.000  
E13  23480109.680   123388799.695          50.000    23480113.240    92140978.172          50.000  
E15  26887968.500   141297184.191          50.000    26887974.460   105514115.367          50.000  
E21  23447796.700   123218987.969          50.000    23447800.860    92014170.309          50.000  
E27  25673988.720   134917682.426          50.000    25673993.920   100750201.402          50.000  
> 2020  5 14 22  5  9.0000000  0 13       0.000000000000
G 2  20978915.980   110244984.582          50.000                                                  
G 5  23186531.500   121846022.172          50.000                                                  
G 6  22197634.860   116649311.512          50.000    22197637.360    87108253.203          50.000  
G12  20176796.040   106029784.512          50.000                                                  
G19  23970934.880   125968113.543          50.000                                                  
G24  22914077.540   120414224.020          50.000    22914080.900    89919707.109          50.000  
G25  21522301.840   113100405.789          50.000    21522303.920    84458096.148          50.000  
G29  23549436.620   123753094.918          50.000                                                  
E 1  25526440.660   134142339.754          50.000    25526444.420   100171218.102          50.000  
E13  23480317.660   123389892.699          50.000    23480321.220    92141794.375          50.000  
E15  26888459.080   141299762.199          50.000    26888465.040   105516040.500          50.000  
E21  23447858.320   123219311.770          50.000    23447862.480    92014412.109          50.000  
E27  25674478.400   134920255.684          50.000    25674483.600   100752122.988          50.000  
> 2020  5 14 22  5 10.0000000  0 13       0.000000000000
G 2  20979121.720   110246065.789          50.000                                                  
G 5  23185941.320   121842920.750          50.000                                                  
G 6  22198151.640   116652027.188          50.000    22198154.140    87110281.141          50.000  
G12  20176652.760   106029031.512          50.000                                                  
G19  23971465.620   125970902.660          50.000                                                  
G24  22914628.980   120417121.883          50.000    22914632.340    89921871.094          50.000  
G25  21521840.560   113097981.809          50.000    21521842.660    84456286.035          50.000  
G29  23548988.420   123750739.641          50.000                                                  
E 1  25526028.640   134140174.539          50.000    25526032.380   100169601.219          50.000  
E13  23480525.700   123390985.953          50.000    23480529.260    92142610.766          50.000  
E15  26888949.660   141302340.219          50.000    26888955.620   105517965.641          50.000  
E21  23447920.020   123219635.992          50.000    23447924.180    92014654.223          50.000  
E27  25674968.120   134922829.172          50.000    25674973.320   100754044.750          50.000  
> 2020  5 14 22  5 11.0000000  0 13       0.000000000000
G 2  20979327.540   110247147.418          50.000                                                  
G 5  23185351.180   121839819.516          50.000                                                  
G 6  22198668.460   116654743.172          50.000    22198670.980    87112309.309          50.000  
G12  20176509.560   106028279.004          50.000                                                  
G19  23971996.380   125973691.797          50.000                                                  
G24  22915180.480   120420019.984          50.000    22915183.820    89924035.262          50.000  
G25  21521379.360   113095558.152          50.000    21521381.440    84454476.164          50.000  
G29  23548540.240   123748384.488          50.000                                                  
E 1  25525616.660   134138009.539          50.000    25525620.400   100167984.500          50.000  
E13  23480733.800   123392079.465          50.000    23480737.360    92143427.348          50.000  
E15  26889440.240   141304918.211          50.000    26889446.200   105519890.766          50.000  
E21  23447981.800   123219960.637          50.000    23447985.960    92014896.652          50.000  
E27  25675457.880   134925402.895          50.000    25675463.080   100755966.684          50.000  
> 2020  5 14 22  5 12.0000000  0 13       0.000000000000
G 2  20979533.460   110248229.492          50.000                                                  
G 5  23184761.060   121836718.477          50.000                                                  
G 6  22199185.360   116657459.480          50.000    22199187.880    87114337.723          50.000  
G12  20176366.460   106027526.977          50.000                                                  
G19  23972527.140   125976480.953          50.000                                                  
G24  22915732.000   120422918.305          50.000    22915735.360    89926199.590          50.000  
G25  21520918.220   113093134.848          50.000    21520920.300    84452666.551          50.000  
G29  23548092.100   123746029.457          50.000                                                  
E 1  25525204.700   134135844.770          50.000    25525208.460   100166367.949          50.000  
E13  23480941.940   123393173.234          50.000    23480945.500    92144244.125          50.000  
E15  26889930.820   141307496.219          50.000    26889936.780   105521815.898          50.000  
E21  23448043.640   123220285.699          50.000    23448047.820    92015139.395          50.000  
E27  25675947.680   134927976.848          50.000    25675952.880   100757888.789          50.000  
> 2020  5 14 22  5 13.0000000  0 13       0.000000000000
G 2  20979739.440   110249311.992          50.000                                                  
G 5  23184171.000   121833617.625          50.000                                                  
G 6  22199702.320   116660176.105          50.000    22199704.840    87116366.371          50.000  
G12  20176223.440   106026775.449          50.000                                                  
G19  23973057.900   125979270.133          50.000                                                  
G24  22916283.580   120425816.848          50.000    22916286.940    89928364.086          50.000  
G25  21520457.140   113090711.836          50.000    21520459.220    84450857.164          50.000  
G29  23547643.980   123743674.535          50.000                                                  
E 1  25524792.800   134133680.223          50.000    25524796.560   100164751.570          50.000  
E13  23481150.120   123394267.254          50.000    23481153.680    92145061.090          50.000  
E15  26890421.400   141310074.207          50.000    26890427.360   105523741.020          50.000  
E21  23448105.580   123220611.176          50.000    23448109.740    92015382.445          50.000  
E27  25676437.540   134930551.027          50.000    25676442.740   100759811.066          50.000  
> 2020  5 14 22  5 14.0000000  0 13       0.000000000000
G 2  20979945.520   110250394.918          50.000                                                  
G 5  23183580.960   121830516.965          50.000                                                  
G 6  22200219.340   116662893.047          50.000    22200221.860    87118395.254          50.000  
G12  20176080.520   106026024.402          50.000                                                  
G19  23973588.660   125982059.332          50.000                                                  
G24  22916835.200   120428715.602          50.000    22916838.560    89930528.738          50.000  
G25  21519996.120   113088289.164          50.000    21519998.200    84449048.023          50.000  
G29  23547195.880   123741319.742          50.000                                                  
E 1  25524380.960   134131515.898          50.000    25524384.700   100163135.355          50.000  
E13  23481358.360   123395361.527          50.000    23481361.900    92145878.242          50.000  
E15  26890911.980   141312652.191          50.000    26890917.940   105525666.137          50.000  
E21  23448167.600   123220937.074          50.000    23448171.760    92015625.813          50.000  
E27  25676927.440   134933125.438          50.000    25676932.640   100761733.516          50.000  
> 2020  5 14 22  5 15.0000000  0 13       0.000000000000
G 2  20980151.680   110251478.277          50.000                                                  
G 5  23182990.960   121827416.496          50.000                                                  
G 6  22200736.420   116665610.313          50.000    22200738.920    87120424.379          50.000  
G12  20175937.700   106025273.836          50.000                                                  
G19  23974119.440   125984848.551          50.000                                                  
G24  22917386.860   120431614.586          50.000    22917390.220    89932693.563          50.000  
G25  21519535.160   113085866.805          50.000    21519537.240    84447239.117          50.000  
G29  23546747.780   123738965.070          50.000                                                  
E 1  25523969.140   134129351.801          50.000    25523972.880   100161519.309          50.000  
E13  23481566.640   123396456.051          50.000    23481570.200    92146695.578          50.000  
E15  26891402.540   141315230.176          50.000    26891408.520   105527591.254          50.000  
E21  23448229.700   123221263.391          50.000    23448233.860    92015869.488          50.000  
E27  25677417.380   134935700.086          50.000    25677422.580   100763656.141          50.000  
> 2020  5 14 22  5 16.0000000  0 13       0.000000000000
G 2  20980357.920   110252562.063          50.000                                                  
G 5  23182401.000   121824316.215          50.000                                                  
G 6  22201253.560   116668327.883          50.000    22201256.060    87122453.734          50.000  
G12  20175794.960   106024523.766          50.000                                                  
G19  23974650.220   125987637.789          50.000                                                  
G24  22917938.560   120434513.813          50.000    22917941.920    89934858.566          50.000  
G25  21519074.260   113083444.785          50.000    21519076.340    84445430.469          50.000  
G29  23546299.740   123736610.508          50.000                                                  
E 1  25523557.360   134127187.930          50.000    25523561.120   100159903.434          50.000  
E13  23481774.960   123397550.836          50.000    23481778.520    92147513.113          50.000  
E15  26891893.120   141317808.156          50.000    26891899.080   105529516.371          50.000  
E21  23448291.880   123221590.129          50.000    23448296.040    92016113.480          50.000  
E27  25677907.360   134938274.957          50.000    25677912.560   100765578.930          50.000  
> 2020  5 14 22  5 17.0000000  0 13       0.000000000000
G 2  20980564.240   110253646.289          50.000                                                  
G 5  23181811.060   121821216.105          50.000                                                  
G 6  22201770.760   116671045.781          50.000    22201773.260    87124483.332          50.000  
G12  20175652.320   106023774.184          50.000                                                  
G19  23975181.000   125990427.051          50.000                                                  
G24  22918490.300   120437413.250          50.000    22918493.660    89937023.730          50.000  
G25  21518613.420   113081023.082          50.000    21518615.520    84443622.059          50.000  
G29  23545851.700   123734256.055          50.000                                                  
E 1  25523145.640   134125024.289          50.000    25523149.380   100158287.727          50.000  
E13  23481983.340   123398645.867          50.000    23481986.900    92148330.832          50.000  
E15  26892383.700   141320386.129          50.000    26892389.660   105531441.477          50.000  
E21  23448354.120   123221917.277          50.000    23448358.300    92016357.781          50.000  
E27  25678397.380   134940850.078          50.000    25678402.580   100767501.910          50.000  
> 2020  5 14 22  5 18.0000000  0 13       0.000000000000
G 2  20980770.640   110254730.941          50.000                                                  
G 5  23181221.160   121818116.199          50.000                                                  
G 6  22202288.020   116673763.984          50.000    22202290.520    87126513.160          50.000  
G12  20175509.780   106023025.086          50.000                                                  
G19  23975711.780   125993216.336          50.000                                                  
G24  22919042.100   120440312.910          50.000    22919045.460    89939189.059          50.000  
G25  21518152.640   113078601.699          50.000    21518154.740    84441813.879          50.000  
G29  23545403.680   123731901.738          50.000                                                  
E 1  25522733.960   134122860.867          50.000    25522737.700   100156672.184          50.000  
E13  23482191.760   123399741.152          50.000    23482195.320    92149148.738          50.000  
E15  26892874.260   141322964.094          50.000    26892880.220   105533366.578          50.000  
E21  23448416.460   123222244.848          50.000    23448420.620    92016602.395          50.000  
E27  25678887.460   134943425.422          50.000    25678892.660   100769425.055          50.000  
> 2020  5 14 22  5 19.0000000  0 13       0.000000000000
G 2  20980977.120   110255816.023          50.000                                                  
G 5  23180631.300   121815016.480          50.000                                                  
G 6  22202805.340   116676482.516          50.000    22202807.840    87128543.227          50.000  
G12  20175367.320   106022276.477          50.000                                                  
G19  23976242.560   125996005.645          50.000                                                  
G24  22919593.920   120443212.809          50.000    22919597.280    89941354.570          50.000  
G25  21517691.940   113076180.641          50.000    21517694.020    84440005.949          50.000  
G29  23544955.700   123729547.535          50.000                                                  
E 1  25522322.300   134120697.676          50.000    25522326.060   100155056.816          50.000  
E13  23482400.240   123400836.691          50.000    23482403.800    92149966.836          50.000  
E15  26893364.840   141325542.059          50.000    26893370.800   105535291.684          50.000  
E21  23448478.880   123222572.840          50.000    23448483.040    92016847.324          50.000  
E27  25679377.580   134946000.992          50.000    25679382.780   100771348.367          50.000  
> 2020  5 14 22  5 20.0000000  0 13       0.000000000000
G 2  20981183.700   110256901.539          50.000                                                  
G 5  23180041.480   121811916.949          50.000                                                  
G 6  22203322.720   116679201.359          50.000    22203325.220    87130573.535          50.000  
G12  20175224.960   106021528.355          50.000                                                  
G19  23976773.360   125998794.969          50.000                                                  
G24  22920145.800   120446112.949          50.000    22920149.160    89943520.258          50.000  
G25  21517231.280   113073759.910          50.000    21517233.380    84438198.258          50.000  
G29  23544507.720   123727193.457          50.000                                                  
E 1  25521910.720   134118534.715          50.000    25521914.460   100153441.617          50.000  
E13  23482608.760   123401932.492          50.000    23482612.320    92150785.129          50.000  
E15  26893855.400   141328120.020          50.000    26893861.380   105537216.781          50.000  
E21  23448541.380   123222901.254          50.000    23448545.540    92017092.566          50.000  
E27  25679867.740   134948576.805          50.000    25679872.940   100773271.867          50.000  
> 2020  5 14 22  5 21.0000000  0 13       0.000000000000
G 2  20981390.340   110257987.484          50.000                                                  
G 5  23179451.700   121808817.613          50.000                                                  
G 6  22203840.160   116681920.523          50.000    22203842.660    87132604.078          50.000  
G12  20175082.680   106020780.723          50.000                                                  
G19  23977304.160   126001584.305          50.000                                                  
G24  22920697.720   120449013.328          50.000    22920701.080    89945686.125          50.000  
G25  21516770.700   113071339.504          50.000    21516772.780    84436390.816          50.000  
G29  23544059.780   123724839.492          50.000                                                  
E 1  25521499.160   134116371.969          50.000    25521502.900   100151826.582          50.000  
E13  23482817.340   123403028.543          50.000    23482820.900    92151603.609          50.000  
E15  26894345.980   141330697.980          50.000    26894351.940   105539141.883          50.000  
E21  23448603.940   123223230.094          50.000    23448608.120    92017338.129          50.000  
E27  25680357.940   134951152.848          50.000    25680363.140   100775195.531          50.000  
> 2020  5 14 22  5 22.0000000  0 13       0.000000000000
G 2  20981597.080   110259073.855          50.000                                                  
G 5  23178861.960   121805718.461          50.000                                                  
G 6  22204357.660   116684639.996          50.000    22204360.160    87134634.855          50.000  
G12  20174940.500   106020033.574          50.000                                                  
G19  23977834.960   126004373.676          50.000                                                  
G24  22921249.700   120451913.945          50.000    22921253.060    89947852.168          50.000  
G25  21516310.160   113068919.422          50.000    21516312.260    84434583.613          50.000  
G29  23543611.860   123722485.660          50.000                                                  
E 1  25521087.640   134114209.453          50.000    25521091.380   100150211.715          50.000  
E13  23483025.960   123404124.844          50.000    23483029.520    92152422.273          50.000  
E15  26894836.540   141333275.930          50.000    26894842.520   105541066.973          50.000  
E21  23448666.600   123223559.344          50.000    23448670.760    92017583.996          50.000  
E27  25680848.180   134953729.133          50.000    25680853.400   100777119.379          50.000  
> 2020  5 14 22  5 23.0000000  0 13       0.000000000000
G 2  20981803.880   110260160.656          50.000                                                  
G 5  23178272.240   121802619.488          50.000                                                  
G 6  22204875.220   116687359.793          50.000    22204877.720    87136665.867          50.000  
G12  20174798.420   106019286.918          50.000                                                  
G19  23978365.760   126007163.066          50.000                                                  
G24  22921801.700   120454814.781          50.000    22921805.080    89950018.375          50.000  
G25  21515849.700   113066499.664          50.000    21515851.800    84432776.648          50.000  
G29  23543163.960   123720131.930          50.000                                                  
E 1  25520676.160   134112047.160          50.000    25520679.920   100148597.020          50.000  
E13  23483234.620   123405221.402          50.000    23483238.180    92153241.133          50.000  
E15  26895327.120   141335853.875          50.000    26895333.080   105542992.063          50.000  
E21  23448729.340   123223889.012          50.000    23448733.500    92017830.176          50.000  
E27  25681338.480   134956305.629          50.000    25681343.680   100779043.387          50.000  
> 2020  5 14 22  5 24.0000000  0 13       0.000000000000
G 2  20982010.780   110261247.891          50.000                                                  
G 5  23177682.560   121799520.711          50.000                                                  
G 6  22205392.840   116690079.906          50.000    22205395.340    87138697.125          50.000  
G12  20174656.440   106018540.750          50.000                                                  
G19  23978896.560   126009952.484          50.000                                                  
G24  22922353.760   120457715.855          50.000    22922357.120    89952184.762          50.000  
G25  21515389.300   113064080.234          50.000    21515391.400    84430969.934          50.000  
G29  23542716.080   123717778.328          50.000                                                  
E 1  25520264.740   134109885.105          50.000    25520268.500   100146982.496          50.000  
E13  23483443.340   123406318.211          50.000    23483446.900    92154060.180          50.000  
E15  26895817.680   141338431.816          50.000    26895823.640   105544917.145          50.000  
E21  23448792.160   123224219.098          50.000    23448796.320    92018076.672          50.000  
E27  25681828.820   134958882.367          50.000    25681834.020   100780967.574          50.000  
> 2020  5 14 22  5 25.0000000  0 13       0.000000000000
G 2  20982217.760   110262335.555          50.000                                                  
G 5  23177092.920   121796422.113          50.000                                                  
G 6  22205910.520   116692800.344          50.000    22205913.020    87140728.617          50.000  
G12  20174514.540   106017795.066          50.000                                                  
G19  23979427.380   126012741.918          50.000                                                  
G24  22922905.860   120460617.160          50.000    22922909.220    89954351.316          50.000  
G25  21514928.960   113061661.125          50.000    21514931.040    84429163.457          50.000  
G29  23542268.220   123715424.844          50.000                                                  
E 1  25519853.360   134107723.262          50.000    25519857.100   100145368.133          50.000  
E13  23483652.100   123407415.285          50.000    23483655.660    92154879.422          50.000  
E15  26896308.240   141341009.758          50.000    26896314.220   105546842.230          50.000  
E21  23448855.040   123224549.609          50.000    23448859.200    92018323.480          50.000  
E27  25682319.200   134961459.352          50.000    25682324.400   100782891.941          50.000  
> 2020  5 14 22  5 26.0000000  0 13       0.000000000000
G 2  20982424.800   110263423.645          50.000                                                  
G 5  23176503.300   121793323.707          50.000                                                  
G 6  22206428.260   116695521.090          50.000    22206430.760    87142760.344          50.000  
G12  20174372.720   106017049.883          50.000                                                  
G19  23979958.200   126015531.375          50.000                                                  
G24  22923458.020   120463518.715          50.000    22923461.380    89956518.063          50.000  
G25  21514468.680   113059242.348          50.000    21514470.780    84427357.227          50.000  
G29  23541820.400   123713071.480          50.000                                                  
E 1  25519442.020   134105561.656          50.000    25519445.760   100143753.949          50.000  
E13  23483860.920   123408512.598          50.000    23483864.480    92155698.844          50.000  
E15  26896798.820   141343587.691          50.000    26896804.780   105548767.309          50.000  
E21  23448918.020   123224880.539          50.000    23448922.180    92018570.602          50.000  
E27  25682809.620   134964036.551          50.000    25682814.840   100784816.473          50.000  
> 2020  5 14 22  5 27.0000000  0 13       0.000000000000
G 2  20982631.940   110264512.172          50.000                                                  
G 5  23175913.740   121790225.496          50.000                                                  
G 6  22206946.060   116698242.152          50.000    22206948.560    87144792.305          50.000  
G12  20174231.020   106016305.172          50.000                                                  
G19  23980489.020   126018320.840          50.000                                                  
G24  22924010.200   120466420.496          50.000    22924013.560    89958684.973          50.000  
G25  21514008.460   113056823.895          50.000    21514010.560    84425551.238          50.000  
G29  23541372.580   123710718.230          50.000                                                  
E 1  25519030.720   134103400.270          50.000    25519034.460   100142139.926          50.000  
E13  23484069.780   123409610.168          50.000    23484073.340    92156518.457          50.000  
E15  26897289.380   141346165.617          50.000    26897295.340   105550692.383          50.000  
E21  23448981.080   123225211.879          50.000    23448985.240    92018818.031          50.000  
E27  25683300.100   134966613.984          50.000    25683305.300   100786741.180          50.000  
> 2020  5 14 22  5 28.0000000  0 13       0.000000000000
G 2  20982839.160   110265601.117          50.000                                                  
G 5  23175324.200   121787127.484          50.000                                                  
G 6  22207463.920   116700963.527          50.000    22207466.440    87146824.500          50.000  
G12  20174089.400   106015560.957          50.000                                                  
G19  23981019.840   126021110.348          50.000                                                  
G24  22924562.440   120469322.516          50.000    22924565.800    89960852.066          50.000  
G25  21513548.300   113054405.766          50.000    21513550.400    84423745.496          50.000  
G29  23540924.800   123708365.105          50.000                                                  
E 1  25518619.460   134101239.113          50.000    25518623.220   100140526.078          50.000  
E13  23484278.680   123410707.988          50.000    23484282.240    92157338.258          50.000  
E15  26897779.940   141348743.531          50.000    26897785.900   105552617.449          50.000  
E21  23449044.200   123225543.648          50.000    23449048.360    92019065.781          50.000  
E27  25683790.620   134969191.652          50.000    25683795.820   100788666.059          50.000  
> 2020  5 14 22  5 29.0000000  0 13       0.000000000000
G 2  20983046.480   110266690.504          50.000                                                  
G 5  23174734.700   121784029.680          50.000                                                  
G 6  22207981.840   116703685.227          50.000    22207984.360    87148856.934          50.000  
G12  20173947.880   106014817.230          50.000                                                  
G19  23981550.680   126023899.863          50.000                                                  
G24  22925114.720   120472224.758          50.000    22925118.080    89963019.324          50.000  
G25  21513088.220   113051987.961          50.000    21513090.300    84421939.992          50.000  
G29  23540477.040   123706012.102          50.000                                                  
E 1  25518208.260   134099078.188          50.000    25518212.000   100138912.398          50.000  
E13  23484487.640   123411806.074          50.000    23484491.200    92158158.258          50.000  
E15  26898270.500   141351321.461          50.000    26898276.460   105554542.523          50.000  
E21  23449107.420   123225875.840          50.000    23449111.580    92019313.848          50.000  
E27  25684281.180   134971769.551          50.000    25684286.380   100790591.109          50.000  
> 2020  5 14 22  5 30.0000000  0 13       0.000000000000
G 2  20983253.860   110267780.316          50.000                                                  
G 5  23174145.240   121780932.059          50.000                                                  
G 6  22208499.820   116706407.238          50.000    22208502.340    87150889.609          50.000  
G12  20173806.440   106014073.996          50.000                                                  
G19  23982081.500   126026689.406          50.000                                                  
G24  22925667.040   120475127.238          50.000    22925670.420    89965186.758          50.000  
G25  21512628.180   113049570.484          50.000    21512630.280    84420134.734          50.000  
G29  23540029.300   123703659.215          50.000                                                  
E 1  25517797.080   134096917.484          50.000    25517800.840   100137298.887          50.000  
E13  23484696.660   123412904.402          50.000    23484700.200    92158978.438          50.000  
E15  26898761.060   141353899.371          50.000    26898767.020   105556467.586          50.000  
E21  23449170.720   123226208.445          50.000    23449174.880    92019562.223          50.000  
E27  25684771.780   134974347.684          50.000    25684776.980   100792516.340          50.000  
> 2020  5 14 22  5 31.0000000  0 13       0.000000000000
G 2  20983461.320   110268870.563          50.000                                                  
G 5  23173555.820   121777834.633          50.000                                                  
G 6  22209017.860   116709129.570          50.000    22209020.380    87152922.516          50.000  
G12  20173665.100   106013331.238          50.000                                                  
G19  23982612.340   126029478.961          50.000                                                  
G24  22926219.420   120478029.957          50.000    22926222.780    89967354.375          50.000  
G25  21512168.220   113047153.324          50.000    21512170.300    84418329.711          50.000  
G29  23539581.580   123701306.441          50.000                                                  
E 1  25517385.960   134094757.004          50.000    25517389.700   100135685.543          50.000  
E13  23484905.700   123414002.988          50.000    23484909.260    92159798.809          50.000  
E15  26899251.620   141356477.285          50.000    26899257.600   105558392.648          50.000  
E21  23449234.080   123226541.473          50.000    23449238.240    92019810.910          50.000  
E27  25685262.420   134976926.055          50.000    25685267.640   100794441.746          50.000  
> 2020  5 14 22  5 32.0000000  0 13       0.000000000000
G 2  20983668.880   110269961.234          50.000                                                  
G 5  23172966.440   121774737.387          50.000                                                  
G 6  22209535.960   116711852.211          50.000    22209538.480    87154955.656          50.000  
G12  20173523.840   106012588.977          50.000                                                  
G19  23983143.180   126032268.551          50.000                                                  
G24  22926771.840   120480932.922          50.000    22926775.200    89969522.168          50.000  
G25  21511708.300   113044736.496          50.000    21511710.400    84416524.938          50.000  
G29  23539133.880   123698953.797          50.000                                                  
E 1  25516974.880   134092596.754          50.000    25516978.620   100134072.371          50.000  
E13  23485114.800   123415101.824          50.000    23485118.360    92160619.371          50.000  
E15  26899742.180   141359055.188          50.000    26899748.160   105560317.707          50.000  
E21  23449297.540   123226874.918          50.000    23449301.700    92020059.910          50.000  
E27  25685753.120   134979504.648          50.000    25685758.320   100796367.316          50.000  
> 2020  5 14 22  5 33.0000000  0 13       0.000000000000
G 2  20983876.500   110271052.344          50.000                                                  
G 5  23172377.080   121771640.332          50.000                                                  
G 6  22210054.140   116714575.176          50.000    22210056.640    87156989.039          50.000  
G12  20173382.700   106011847.207          50.000                                                  
G19  23983674.020   126035058.152          50.000                                                  
G24  22927324.300   120483836.117          50.000    22927327.660    89971690.141          50.000  
G25  21511248.460   113042319.988          50.000    21511250.540    84414720.406          50.000  
G29  23538686.220   123696601.266          50.000                                                  
E 1  25516563.840   134090436.734          50.000    25516567.580   100132459.371          50.000  
E13  23485323.960   123416200.922          50.000    23485327.520    92161440.121          50.000  
E15  26900232.740   141361633.090          50.000    26900238.700   105562242.762          50.000  
E21  23449361.060   123227208.781          50.000    23449365.240    92020309.227          50.000  
E27  25686243.860   134982083.480          50.000    25686249.060   100798293.066          50.000  
> 2020  5 14 22  5 34.0000000  0 13       0.000000000000
G 2  20984084.220   110272143.875          50.000                                                  
G 5  23171787.780   121768543.461          50.000                                                  
G 6  22210572.360   116717298.453          50.000    22210574.860    87159022.652          50.000  
G12  20173241.640   106011105.922          50.000                                                  
G19  23984204.880   126037847.781          50.000                                                  
G24  22927876.800   120486739.523          50.000    22927880.160    89973858.266          50.000  
G25  21510788.680   113039903.813          50.000    21510790.760    84412916.117          50.000  
G29  23538238.560   123694248.852          50.000                                                  
E 1  25516152.840   134088276.941          50.000    25516156.580   100130846.539          50.000  
E13  23485533.160   123417300.262          50.000    23485536.720    92162261.059          50.000  
E15  26900723.300   141364210.977          50.000    26900729.260   105564167.805          50.000  
E21  23449424.680   123227543.063          50.000    23449428.840    92020558.852          50.000  
E27  25686734.620   134984662.520          50.000    25686739.840   100800218.973          50.000  
> 2020  5 14 22  5 35.0000000  0 13       0.000000000000
G 2  20984292.000   110273235.840          50.000                                                  
G 5  23171198.500   121765446.785          50.000                                                  
G 6  22211090.640   116720022.043          50.000    22211093.140    87161056.504          50.000  
G12  20173100.660   106010365.129          50.000                                                  
G19  23984735.740   126040637.438          50.000                                                  
G24  22928429.340   120489643.164          50.000    22928432.700    89976026.570          50.000  
