     3.03           OBSERVATION DATA    M: Mixed            RINEX VERSION / TYPE
sbp2rinex v2.2 (RTKL                    20210504 171522 UTC PGM / RUN BY / DATE 
log: 2020-05-14-US-MTV-2.sbp                                COMMENT             
format: Swift Navigation SBP, option: CONVBASE,EPHALL,OBSALLCOMMENT             
                                                            MARKER NAME         
                                                            MARKER NUMBER       
                                                            MARKER TYPE         
                                                            OBSERVER / AGENCY   
                                                            REC # / TYPE / VERS 
                                                            ANT # / TYPE        
 -2739568.5596 -4318147.4236  3798928.6359                  APPROX POSITION XYZ 
        0.0000        0.0000        0.0000                  ANTENNA: DELTA H/E/N
G    6 C1C L1C S1C C5I L5I S5I                              SYS / # / OBS TYPES 
E    6 C1B L1B S1B C5I L5I S5I                              SYS / # / OBS TYPES 
  2020     5    15     0    46   26.0000000     GPS         TIME OF FIRST OBS   
  2020     5    15     1    16   52.0000000     GPS         TIME OF LAST OBS    
G                                                           SYS / PHASE SHIFT   
E                                                           SYS / PHASE SHIFT   
  0                                                         GLONASS SLOT / FRQ #
 C1C    0.000 C1P    0.000 C2C    0.000 C2P    0.000        GLONASS COD/PHS/BIS 
                                                            END OF HEADER       
> 2020  5 15  0 46 26.0000000  0 15       0.000000000000
G 2  24944334.760   131083377.953          50.000                                                  
G 5  21823911.300   114685422.395          50.000                                                  
G12  23491500.180   123448637.676          50.000                                                  
G15  24370005.100   128065195.574          50.000                                                  
G21  22268672.520   117022643.883          50.000                                                  
G25  21702065.040   114045055.180          50.000    21702068.080    85163512.406          50.000  
G26  23742304.260   124766582.371          50.000    23742305.960    93169846.809          50.000  
G29  20473257.660   107587691.234          50.000                                                  
E 1  24911678.620   130911735.023          50.000    24911682.980    97758751.063          50.000  
E 7  26111640.740   137217554.352          50.000    26111646.540   102467638.488          50.000  
E 8  25347272.060   133200803.367          50.000    25347275.680    99468121.660          50.000  
E13  26584111.980   139700426.855          50.000    26584116.660   104321734.258          50.000  
E21  27307569.740   143502188.039          50.000    27307577.240   107160702.703          50.000  
E31  25833686.000   135756902.605          50.000    25833691.120   101376894.547          50.000  
E33  25147261.920   132149748.172          50.000    25147265.200    98683244.594          50.000  
> 2020  5 15  0 46 27.0000000  0 15       0.000000000000
G 2  24944796.840   131085806.164          50.000                                                  
G 5  21824331.300   114687629.520          50.000                                                  
G12  23492210.720   123452371.582          50.000                                                  
G15  24369434.600   128062197.602          50.000                                                  
G21  22268403.100   117021228.105          50.000                                                  
G25  21702601.740   114047875.512          50.000    21702604.780    85165618.496          50.000  
G26  23741800.560   124763935.395          50.000    23741802.260    93167870.172          50.000  
G29  20473142.620   107587086.680          50.000                                                  
E 1  24912024.100   130913550.508          50.000    24912028.460    97760106.781          50.000  
E 7  26111314.160   137215838.219          50.000    26111319.980   102466356.961          50.000  
E 8  25347367.940   133201307.223          50.000    25347371.560    99468497.918          50.000  
E13  26584464.240   139702278.070          50.000    26584468.920   104323116.656          50.000  
E21  27308166.960   143505326.449          50.000    27308174.460   107163046.320          50.000  
E31  25833518.400   135756021.852          50.000    25833523.520   101376236.840          50.000  
E33  25147026.680   132148511.980          50.000    25147029.960    98682321.465          50.000  
> 2020  5 15  0 46 28.0000000  0 15       0.000000000000
G 2  24945258.900   131088234.328          50.000                                                  
G 5  21824751.400   114689837.156          50.000                                                  
G12  23492921.300   123456105.637          50.000                                                  
G15  24368864.120   128059199.652          50.000                                                  
G21  22268133.740   117019812.566          50.000                                                  
G25  21703138.500   114050696.246          50.000    21703141.540    85167724.887          50.000  
G26  23741296.920   124761288.828          50.000    23741298.640    93165893.840          50.000  
G29  20473027.640   107586482.461          50.000                                                  
E 1  24912369.640   130915366.375          50.000    24912374.000    97761462.785          50.000  
E 7  26110987.660   137214122.410          50.000    26110993.480   102465075.676          50.000  
E 8  25347463.900   133201811.523          50.000    25347467.540    99468874.504          50.000  
E13  26584816.520   139704129.273          50.000    26584821.200   104324499.047          50.000  
E21  27308764.200   143508464.875          50.000    27308771.680   107165389.949          50.000  
E31  25833350.900   135755141.559          50.000    25833356.000   101375579.477          50.000  
E33  25146791.460   132147275.883          50.000    25146794.740    98681398.406          50.000  
> 2020  5 15  0 46 29.0000000  0 15       0.000000000000
G 2  24945720.960   131090662.441          50.000                                                  
G 5  21825171.600   114692045.313          50.000                                                  
G12  23493631.900   123459839.844          50.000                                                  
G15  24368293.620   128056201.719          50.000                                                  
G21  22267864.420   117018397.254          50.000                                                  
G25  21703675.360   114053517.398          50.000    21703678.380    85169831.590          50.000  
G26  23740793.380   124758642.656          50.000    23740795.080    93163917.805          50.000  
G29  20472912.720   107585878.586          50.000                                                  
E 1  24912715.260   130917182.621          50.000    24912719.620    97762819.074          50.000  
E 7  26110661.220   137212406.914          50.000    26110667.020   102463794.625          50.000  
E 8  25347559.960   133202316.277          50.000    25347563.580    99469251.434          50.000  
E13  26585168.800   139705980.477          50.000    26585173.480   104325881.441          50.000  
E21  27309361.420   143511603.313          50.000    27309368.900   107167733.586          50.000  
E31  25833183.460   135754261.750          50.000    25833188.580   101374922.480          50.000  
E33  25146556.240   132146039.887          50.000    25146559.540    98680475.422          50.000  
> 2020  5 15  0 46 30.0000000  0 15       0.000000000000
G 2  24946183.000   131093090.520          50.000                                                  
G 5  21825591.880   114694253.984          50.000                                                  
G12  23494342.520   123463574.203          50.000                                                  
G15  24367723.140   128053203.805          50.000                                                  
G21  22267595.140   117016982.180          50.000                                                  
G25  21704212.280   114056338.961          50.000    21704215.320    85171938.602          50.000  
G26  23740289.900   124755996.887          50.000    23740291.620    93161942.070          50.000  
G29  20472797.880   107585275.051          50.000                                                  
E 1  24913060.960   130918999.254          50.000    24913065.320    97764175.648          50.000  
E 7  26110334.820   137210691.738          50.000    26110340.640   102462513.816          50.000  
E 8  25347656.100   133202821.480          50.000    25347659.720    99469628.695          50.000  
E13  26585521.060   139707831.668          50.000    26585525.740   104327263.824          50.000  
E21  27309958.640   143514741.773          50.000    27309966.140   107170077.238          50.000  
E31  25833016.140   135753382.383          50.000    25833021.240   101374265.809          50.000  
E33  25146321.060   132144803.984          50.000    25146324.360    98679552.508          50.000  
> 2020  5 15  0 46 31.0000000  0 15       0.000000000000
G 2  24946645.040   131095518.555          50.000                                                  
G 5  21826012.280   114696463.188          50.000                                                  
G12  23495053.180   123467308.703          50.000                                                  
G15  24367152.660   128050205.906          50.000                                                  
G21  22267325.900   117015567.340          50.000                                                  
G25  21704749.280   114059160.938          50.000    21704752.320    85174045.922          50.000  
G26  23739786.500   124753351.512          50.000    23739788.220    93159966.629          50.000  
G29  20472683.100   107584671.848          50.000                                                  
E 1  24913406.720   130920816.270          50.000    24913411.080    97765532.512          50.000  
E 7  26110008.500   137208976.879          50.000    26110014.300   102461233.242          50.000  
E 8  25347752.320   133203327.145          50.000    25347755.940    99470006.297          50.000  
E13  26585873.340   139709682.859          50.000    26585878.020   104328646.207          50.000  
E21  27310555.880   143517880.234          50.000    27310563.380   107172420.895          50.000  
E31  25832848.880   135752503.492          50.000    25832854.000   101373609.496          50.000  
E33  25146085.900   132143568.176          50.000    25146089.200    98678629.664          50.000  
> 2020  5 15  0 46 32.0000000  0 15       0.000000000000
G 2  24947107.080   131097946.543          50.000                                                  
G 5  21826432.780   114698672.910          50.000                                                  
G12  23495763.860   123471043.367          50.000                                                  
G15  24366582.180   128047208.023          50.000                                                  
G21  22267056.700   117014152.730          50.000                                                  
G25  21705286.360   114061983.324          50.000    21705289.400    85176153.547          50.000  
G26  23739283.180   124750706.535          50.000    23739284.880    93157991.488          50.000  
G29  20472568.380   107584068.988          50.000                                                  
E 1  24913752.560   130922633.660          50.000    24913756.920    97766889.652          50.000  
E 7  26109682.220   137207262.328          50.000    26109688.040   102459952.895          50.000  
E 8  25347848.640   133203833.254          50.000    25347852.260    99470384.238          50.000  
E13  26586225.600   139711534.035          50.000    26586230.280   104330028.578          50.000  
E21  27311153.120   143521018.715          50.000    27311160.600   107174764.559          50.000  
E31  25832681.720   135751625.066          50.000    25832686.840   101372953.527          50.000  
E33  25145850.740   132142332.465          50.000    25145854.040    98677706.895          50.000  
> 2020  5 15  0 46 33.0000000  0 15       0.000000000000
G 2  24947569.100   131100374.500          50.000                                                  
G 5  21826853.380   114700883.145          50.000                                                  
G12  23496474.560   123474778.176          50.000                                                  
G15  24366011.700   128044210.168          50.000                                                  
G21  22266787.560   117012738.359          50.000                                                  
G25  21705823.520   114064806.137          50.000    21705826.560    85178261.488          50.000  
G26  23738779.940   124748061.965          50.000    23738781.640    93156016.645          50.000  
G29  20472453.720   107583466.469          50.000                                                  
E 1  24914098.480   130924451.441          50.000    24914102.840    97768247.086          50.000  
E 7  26109356.020   137205548.113          50.000    26109361.840   102458672.801          50.000  
E 8  25347945.020   133204339.816          50.000    25347948.640    99470762.516          50.000  
E13  26586577.860   139713385.215          50.000    26586582.540   104331410.953          50.000  
E21  27311750.360   143524157.207          50.000    27311757.840   107177108.238          50.000  
E31  25832514.660   135750747.102          50.000    25832519.780   101372297.906          50.000  
E33  25145615.620   132141096.855          50.000    25145618.920    98676784.199          50.000  
> 2020  5 15  0 46 34.0000000  0 15       0.000000000000
G 2  24948031.120   131102802.410          50.000                                                  
G 5  21827274.060   114703093.906          50.000                                                  
G12  23497185.300   123478513.125          50.000                                                  
G15  24365441.220   128041212.316          50.000                                                  
G21  22266518.460   117011324.215          50.000                                                  
G25  21706360.780   114067629.355          50.000    21706363.800    85180369.734          50.000  
G26  23738276.760   124745417.797          50.000    23738278.480    93154042.109          50.000  
G29  20472339.120   107582864.277          50.000                                                  
E 1  24914444.460   130926269.602          50.000    24914448.820    97769604.801          50.000  
E 7  26109029.880   137203834.207          50.000    26109035.680   102457392.934          50.000  
E 8  25348041.500   133204846.820          50.000    25348045.120    99471141.121          50.000  
E13  26586930.140   139715236.395          50.000    26586934.820   104332793.324          50.000  
E21  27312347.580   143527295.699          50.000    27312355.080   107179451.914          50.000  
E31  25832347.680   135749869.605          50.000    25832352.780   101371642.633          50.000  
E33  25145380.500   132139861.324          50.000    25145383.800    98675861.563          50.000  
> 2020  5 15  0 46 35.0000000  0 15       0.000000000000
G 2  24948493.120   131105230.277          50.000                                                  
G 5  21827694.860   114705305.176          50.000                                                  
G12  23497896.080   123482248.238          50.000                                                  
G15  24364870.760   128038214.492          50.000                                                  
G21  22266249.400   117009910.309          50.000                                                  
G25  21706898.080   114070452.973          50.000    21706901.120    85182478.281          50.000  
G26  23737773.680   124742774.027          50.000    23737775.380    93152067.867          50.000  
G29  20472224.600   107582262.434          50.000                                                  
E 1  24914790.520   130928088.145          50.000    24914794.880    97770962.805          50.000  
E 7  26108703.780   137202120.617          50.000    26108709.600   102456113.309          50.000  
E 8  25348138.080   133205354.293          50.000    25348141.700    99471520.078          50.000  
E13  26587282.400   139717087.563          50.000    26587287.080   104334175.688          50.000  
E21  27312944.820   143530434.223          50.000    27312952.320   107181795.617          50.000  
E31  25832180.780   135748992.566          50.000    25832185.900   101370987.699          50.000  
E33  25145145.420   132138625.902          50.000    25145148.700    98674939.008          50.000  
> 2020  5 15  0 46 36.0000000  0 15       0.000000000000
G 2  24948955.120   131107658.102          50.000                                                  
G 5  21828115.740   114707516.965          50.000                                                  
G12  23498606.880   123485983.484          50.000                                                  
G15  24364300.300   128035216.688          50.000                                                  
G21  22265980.380   117008496.637          50.000                                                  
G25  21707435.480   114073277.016          50.000    21707438.520    85184587.145          50.000  
G26  23737270.660   124740130.645          50.000    23737272.360    93150093.914          50.000  
G29  20472110.140   107581660.926          50.000                                                  
E 1  24915136.640   130929907.066          50.000    24915141.020    97772321.090          50.000  
E 7  26108377.760   137200407.340          50.000    26108383.580   102454833.914          50.000  
E 8  25348234.720   133205862.203          50.000    25348238.360    99471899.359          50.000  
E13  26587634.680   139718938.738          50.000    26587639.360   104335558.063          50.000  
E21  27313542.060   143533572.734          50.000    27313549.560   107184139.309          50.000  
E31  25832013.980   135748116.000          50.000    25832019.080   101370333.121          50.000  
E33  25144910.340   132137390.566          50.000    25144913.620    98674016.520          50.000  
> 2020  5 15  0 46 37.0000000  0 15       0.000000000000
G 2  24949417.120   131110085.891          50.000                                                  
G 5  21828536.740   114709729.285          50.000                                                  
G12  23499317.700   123489718.891          50.000                                                  
G15  24363729.840   128032218.891          50.000                                                  
G21  22265711.420   117007083.207          50.000                                                  
G25  21707972.960   114076101.445          50.000    21707976.000    85186696.297          50.000  
G26  23736767.720   124737487.680          50.000    23736769.420    93148120.273          50.000  
G29  20471995.740   107581059.750          50.000                                                  
E 1  24915482.840   130931726.355          50.000    24915487.220    97773679.648          50.000  
E 7  26108051.800   137198694.379          50.000    26108057.600   102453554.754          50.000  
E 8  25348331.460   133206370.563          50.000    25348335.080    99472278.980          50.000  
E13  26587986.940   139720789.887          50.000    26587991.620   104336940.410          50.000  
E21  27314139.320   143536711.266          50.000    27314146.800   107186483.016          50.000  
E31  25831847.260   135747239.883          50.000    25831852.360   101369678.879          50.000  
E33  25144675.280   132136155.324          50.000    25144678.560    98673094.098          50.000  
> 2020  5 15  0 46 38.0000000  0 15       0.000000000000
G 2  24949879.100   131112513.633          50.000                                                  
G 5  21828957.820   114711942.121          50.000                                                  
G12  23500028.560   123493454.457          50.000                                                  
G15  24363159.380   128029221.121          50.000                                                  
G21  22265442.500   117005670.000          50.000                                                  
G25  21708510.520   114078926.301          50.000    21708513.540    85188805.766          50.000  
G26  23736264.840   124734845.102          50.000    23736266.540    93146146.918          50.000  
G29  20471881.400   107580458.926          50.000                                                  
E 1  24915829.120   130933546.055          50.000    24915833.480    97775038.516          50.000  
E 7  26107725.900   137196981.746          50.000    26107731.700   102452275.844          50.000  
E 8  25348428.300   133206879.375          50.000    25348431.920    99472658.938          50.000  
E13  26588339.200   139722641.043          50.000    26588343.880   104338322.766          50.000  
E21  27314736.560   143539849.816          50.000    27314744.060   107188826.734          50.000  
E31  25831680.620   135746364.246          50.000    25831685.740   101369024.992          50.000  
E33  25144440.240   132134920.184          50.000    25144443.520    98672171.754          50.000  
> 2020  5 15  0 46 39.0000000  0 15       0.000000000000
G 2  24950341.080   131114941.328          50.000                                                  
G 5  21829379.020   114714155.477          50.000                                                  
G12  23500739.440   123497190.160          50.000                                                  
G15  24362588.920   128026223.367          50.000                                                  
G21  22265173.620   117004257.043          50.000                                                  
G25  21709048.140   114081751.563          50.000    21709051.180    85190915.535          50.000  
G26  23735762.060   124732202.930          50.000    23735763.760    93144173.871          50.000  
G29  20471767.120   107579858.426          50.000                                                  
E 1  24916175.460   130935366.113          50.000    24916179.840    97776397.652          50.000  
E 7  26107400.040   137195269.422          50.000    26107405.860   102450997.160          50.000  
E 8  25348525.200   133207388.645          50.000    25348528.820    99473039.234          50.000  
E13  26588691.460   139724492.188          50.000    26588696.140   104339705.113          50.000  
E21  27315333.820   143542988.371          50.000    27315341.300   107191170.461          50.000  
E31  25831514.080   135745489.070          50.000    25831519.200   101368371.453          50.000  
E33  25144205.220   132133685.137          50.000    25144208.500    98671249.477          50.000  
> 2020  5 15  0 46 40.0000000  0 15       0.000000000000
G 2  24950803.060   131117368.996          50.000                                                  
G 5  21829800.300   114716369.348          50.000                                                  
G12  23501450.340   123500926.016          50.000                                                  
G15  24362018.460   128023225.621          50.000                                                  
G21  22264904.780   117002844.305          50.000                                                  
G25  21709585.840   114084577.234          50.000    21709588.880    85193025.613          50.000  
G26  23735259.340   124729561.160          50.000    23735261.040    93142201.121          50.000  
G29  20471652.920   107579258.266          50.000                                                  
E 1  24916521.880   130937186.551          50.000    24916526.260    97777757.066          50.000  
E 7  26107074.260   137193557.418          50.000    26107080.080   102449718.719          50.000  
E 8  25348622.200   133207898.355          50.000    25348625.820    99473419.867          50.000  
E13  26589043.720   139726343.336          50.000    26589048.400   104341087.465          50.000  
E21  27315931.060   143546126.957          50.000    27315938.560   107193514.207          50.000  
E31  25831347.620   135744614.352          50.000    25831352.740   101367718.254          50.000  
E33  25143970.200   132132450.180          50.000    25143973.500    98670327.273          50.000  
> 2020  5 15  0 46 41.0000000  0 15       0.000000000000
G 2  24951265.020   131119796.609          50.000                                                  
G 5  21830221.680   114718583.734          50.000                                                  
G12  23502161.280   123504662.020          50.000                                                  
G15  24361448.020   128020227.902          50.000                                                  
G21  22264635.980   117001431.809          50.000                                                  
G25  21710123.640   114087403.316          50.000    21710126.680    85195136.000          50.000  
G26  23734756.700   124726919.789          50.000    23734758.400    93140228.672          50.000  
G29  20471538.780   107578658.445          50.000                                                  
E 1  24916868.380   130939007.375          50.000    24916872.740    97779116.773          50.000  
E 7  26106748.540   137191845.734          50.000    26106754.340   102448440.512          50.000  
E 8  25348719.280   133208408.520          50.000    25348722.900    99473800.832          50.000  
E13  26589395.980   139728194.480          50.000    26589400.660   104342469.813          50.000  
E21  27316528.320   143549265.523          50.000    27316535.820   107195857.941          50.000  
E31  25831181.260   135743740.102          50.000    25831186.380   101367065.406          50.000  
E33  25143735.220   132131215.324          50.000    25143738.520    98669405.141          50.000  
> 2020  5 15  0 46 42.0000000  0 15       0.000000000000
G 2  24951726.960   131122224.188          50.000                                                  
G 5  21830643.180   114720798.648          50.000                                                  
G12  23502872.260   123508398.176          50.000                                                  
G15  24360877.580   128017230.199          50.000                                                  
G21  22264367.240   117000019.539          50.000                                                  
G25  21710661.500   114090229.813          50.000    21710664.540    85197246.691          50.000  
G26  23734254.140   124724278.824          50.000    23734255.840    93138256.523          50.000  
G29  20471424.700   107578058.969          50.000                                                  
E 1  24917214.940   130940828.586          50.000    24917219.320    97780476.766          50.000  
E 7  26106422.880   137190134.355          50.000    26106428.680   102447162.539          50.000  
E 8  25348816.440   133208919.141          50.000    25348820.060    99474182.141          50.000  
E13  26589748.240   139730045.605          50.000    26589752.920   104343852.145          50.000  
E21  27317125.560   143552404.113          50.000    27317133.060   107198201.691          50.000  
E31  25831014.980   135742866.320          50.000    25831020.100   101366412.906          50.000  
E33  25143500.260   132129980.559          50.000    25143503.540    98668483.074          50.000  
> 2020  5 15  0 46 43.0000000  0 15       0.000000000000
G 2  24952188.920   131124651.727          50.000                                                  
G 5  21831064.760   114723014.074          50.000                                                  
G12  23503583.260   123512134.477          50.000                                                  
G15  24360307.140   128014232.527          50.000                                                  
G21  22264098.540   116998607.508          50.000                                                  
G25  21711199.440   114093056.730          50.000    21711202.480    85199357.703          50.000  
G26  23733751.660   124721638.254          50.000    23733753.360    93136284.672          50.000  
G29  20471310.700   107577459.828          50.000                                                  
E 1  24917561.580   130942650.172          50.000    24917565.940    97781837.043          50.000  
E 7  26106097.280   137188423.320          50.000    26106103.080   102445884.816          50.000  
E 8  25348913.700   133209430.207          50.000    25348917.320    99474563.781          50.000  
E13  26590100.500   139731896.742          50.000    26590105.180   104345234.488          50.000  
E21  27317722.820   143555542.723          50.000    27317730.320   107200545.453          50.000  
E31  25830848.800   135741992.996          50.000    25830853.920   101365760.750          50.000  
E33  25143265.300   132128745.883          50.000    25143268.600    98667561.078          50.000  
> 2020  5 15  0 46 44.0000000  0 15       0.000000000000
G 2  24952650.860   131127079.219          50.000                                                  
G 5  21831486.440   114725230.012          50.000                                                  
G12  23504294.280   123515870.941          50.000                                                  
G15  24359736.700   128011234.871          50.000                                                  
G21  22263829.880   116997195.703          50.000                                                  
G25  21711737.460   114095884.047          50.000    21711740.500    85201469.008          50.000  
G26  23733249.260   124718998.082          50.000    23733250.960    93134313.113          50.000  
G29  20471196.740   107576861.027          50.000                                                  
E 1  24917908.280   130944472.137          50.000    24917912.660    97783197.598          50.000  
E 7  26105771.740   137186712.582          50.000    26105777.540   102444607.316          50.000  
E 8  25349011.040   133209941.723          50.000    25349014.660    99474945.754          50.000  
E13  26590452.760   139733747.863          50.000    26590457.440   104346616.816          50.000  
E21  27318320.080   143558681.332          50.000    27318327.580   107202889.219          50.000  
E31  25830682.700   135741120.141          50.000    25830687.820   101365108.941          50.000  
E33  25143030.380   132127511.309          50.000    25143033.660    98666639.156          50.000  
> 2020  5 15  0 46 45.0000000  0 15       0.000000000000
G 2  24953112.780   131129506.676          50.000                                                  
G 5  21831908.220   114727446.500          50.000                                                  
G12  23505005.340   123519607.547          50.000                                                  
G15  24359166.260   128008237.230          50.000                                                  
G21  22263561.280   116995784.148          50.000                                                  
G25  21712275.560   114098711.770          50.000    21712278.600    85203580.621          50.000  
G26  23732746.920   124716358.316          50.000    23732748.620    93132341.863          50.000  
G29  20471082.860   107576262.566          50.000                                                  
E 1  24918255.080   130946294.492          50.000    24918259.440    97784558.449          50.000  
E 7  26105446.260   137185002.168          50.000    26105452.060   102443330.063          50.000  
E 8  25349108.460   133210453.699          50.000    25349112.080    99475328.074          50.000  
E13  26590805.020   139735598.980          50.000    26590809.700   104347999.145          50.000  
E21  27318917.360   143561819.965          50.000    27318924.840   107205233.000          50.000  
E31  25830516.700   135740247.754          50.000    25830521.800   101364457.484          50.000  
E33  25142795.460   132126276.828          50.000    25142798.740    98665717.305          50.000  
> 2020  5 15  0 46 46.0000000  0 15       0.000000000000
G 2  24953574.700   131131934.090          50.000                                                  
G 5  21832330.100   114729663.504          50.000                                                  
G12  23505716.420   123523344.301          50.000                                                  
G15  24358595.840   128005239.605          50.000                                                  
G21  22263292.700   116994372.824          50.000                                                  
G25  21712813.740   114101539.910          50.000    21712816.780    85205692.543          50.000  
G26  23732244.660   124713718.945          50.000    23732246.360    93130370.902          50.000  
G29  20470969.040   107575664.438          50.000                                                  
E 1  24918601.920   130948117.215          50.000    24918606.300    97785919.574          50.000  
E 7  26105120.820   137183292.070          50.000    26105126.640   102442053.043          50.000  
E 8  25349205.980   133210966.117          50.000    25349209.600    99475710.727          50.000  
E13  26591157.260   139737450.102          50.000    26591161.960   104349381.473          50.000  
E21  27319514.620   143564958.602          50.000    27319522.120   107207576.785          50.000  
E31  25830350.760   135739375.828          50.000    25830355.880   101363806.371          50.000  
E33  25142560.560   132125042.445          50.000    25142563.860    98664795.523          50.000  
> 2020  5 15  0 46 47.0000000  0 15       0.000000000000
G 2  24954036.620   131134361.457          50.000                                                  
G 5  21832752.080   114731881.031          50.000                                                  
G12  23506427.520   123527081.203          50.000                                                  
G15  24358025.400   128002242.008          50.000                                                  
G21  22263024.180   116992961.734          50.000                                                  
G25  21713352.000   114104368.457          50.000    21713355.040    85207804.766          50.000  
G26  23731742.480   124711079.988          50.000    23731744.180    93128400.258          50.000  
G29  20470855.280   107575066.652          50.000                                                  
E 1  24918948.860   130949940.324          50.000    24918953.220    97787280.984          50.000  
E 7  26104795.460   137181582.293          50.000    26104801.280   102440776.262          50.000  
E 8  25349303.560   133211478.992          50.000    25349307.200    99476093.719          50.000  
E13  26591509.520   139739301.199          50.000    26591514.200   104350763.789          50.000  
E21  27320111.880   143568097.254          50.000    27320119.380   107209920.582          50.000  
E31  25830184.940   135738504.367          50.000    25830190.060   101363155.605          50.000  
E33  25142325.680   132123808.156          50.000    25142328.980    98663873.816          50.000  
> 2020  5 15  0 46 48.0000000  0 15       0.000000000000
G 2  24954498.520   131136788.781          50.000                                                  
G 5  21833174.160   114734099.051          50.000                                                  
G12  23507138.660   123530818.250          50.000                                                  
G15  24357454.980   127999244.426          50.000                                                  
G21  22262755.700   116991550.887          50.000                                                  
G25  21713890.340   114107197.414          50.000    21713893.380    85209917.301          50.000  
G26  23731240.380   124708441.426          50.000    23731242.080    93126429.902          50.000  
G29  20470741.600   107574469.203          50.000                                                  
E 1  24919295.860   130951763.820          50.000    24919300.220    97788642.688          50.000  
E 7  26104470.160   137179872.828          50.000    26104475.980   102439499.715          50.000  
E 8  25349401.240   133211992.305          50.000    25349404.880    99476477.035          50.000  
E13  26591861.780   139741152.289          50.000    26591866.460   104352146.094          50.000  
E21  27320709.160   143571235.918          50.000    27320716.660   107212264.387          50.000  
E31  25830019.200   135737633.367          50.000    25830024.300   101362505.184          50.000  
E33  25142090.820   132122573.957          50.000    25142094.120    98662952.176          50.000  
> 2020  5 15  0 46 49.0000000  0 15       0.000000000000
G 2  24954960.420   131139216.070          50.000                                                  
G 5  21833596.340   114736317.605          50.000                                                  
G12  23507849.840   123534555.449          50.000                                                  
G15  24356884.560   127996246.859          50.000                                                  
G21  22262487.280   116990140.262          50.000                                                  
G25  21714428.740   114110026.785          50.000    21714431.780    85212030.141          50.000  
G26  23730738.360   124705803.254          50.000    23730740.060    93124459.844          50.000  
G29  20470627.960   107573872.098          50.000                                                  
E 1  24919642.920   130953587.695          50.000    24919647.300    97790004.668          50.000  
E 7  26104144.920   137178163.688          50.000    26104150.740   102438223.410          50.000  
E 8  25349499.020   133212506.082          50.000    25349502.640    99476860.699          50.000  
E13  26592214.020   139743003.395          50.000    26592218.700   104353528.410          50.000  
E21  27321306.420   143574374.586          50.000    27321313.920   107214608.199          50.000  
E31  25829853.540   135736762.840          50.000    25829858.660   101361855.117          50.000  
E33  25141855.980   132121339.859          50.000    25141859.280    98662030.609          50.000  
> 2020  5 15  0 46 50.0000000  0 15       0.000000000000
G 2  24955422.320   131141643.313          50.000                                                  
G 5  21834018.600   114738536.668          50.000                                                  
G12  23508561.040   123538292.805          50.000                                                  
G15  24356314.140   127993249.320          50.000                                                  
G21  22262218.880   116988729.883          50.000                                                  
G25  21714967.240   114112856.559          50.000    21714970.280    85214143.285          50.000  
G26  23730236.400   124703165.492          50.000    23730238.100    93122490.086          50.000  
G29  20470514.400   107573275.328          50.000                                                  
E 1  24919990.060   130955411.945          50.000    24919994.440    97791366.934          50.000  
E 7  26103819.740   137176454.855          50.000    26103825.560   102436947.336          50.000  
E 8  25349596.880   133213020.305          50.000    25349600.500    99477244.695          50.000  
E13  26592566.280   139744854.484          50.000    26592570.960   104354910.719          50.000  
E21  27321903.700   143577513.277          50.000    27321911.200   107216952.023          50.000  
E31  25829687.960   135735892.766          50.000    25829693.080   101361205.383          50.000  
E33  25141621.160   132120105.848          50.000    25141624.440    98661109.109          50.000  
> 2020  5 15  0 46 51.0000000  0 15       0.000000000000
G 2  24955884.200   131144070.508          50.000                                                  
G 5  21834440.980   114740756.246          50.000                                                  
G12  23509272.260   123542030.305          50.000                                                  
G15  24355743.740   127990251.801          50.000                                                  
G21  22261950.540   116987319.719          50.000                                                  
G25  21715505.800   114115686.754          50.000    21715508.840    85216256.738          50.000  
G26  23729734.540   124700528.133          50.000    23729736.240    93120520.629          50.000  
G29  20470400.900   107572678.895          50.000                                                  
E 1  24920337.280   130957236.574          50.000    24920341.660    97792729.480          50.000  
E 7  26103494.620   137174746.355          50.000    26103500.440   102435671.508          50.000  
E 8  25349694.820   133213534.984          50.000    25349698.440    99477629.035          50.000  
E13  26592918.520   139746705.570          50.000    26592923.220   104356293.023          50.000  
E21  27322500.960   143580651.965          50.000    27322508.480   107219295.848          50.000  
E31  25829522.480   135735023.160          50.000    25829527.600   101360556.004          50.000  
E33  25141386.360   132118871.934          50.000    25141389.640    98660187.676          50.000  
> 2020  5 15  0 46 52.0000000  0 15       0.000000000000
G 2  24956346.080   131146497.668          50.000                                                  
G 5  21834863.460   114742976.355          50.000                                                  
G12  23509983.500   123545767.957          50.000                                                  
G15  24355173.340   127987254.297          50.000                                                  
G21  22261682.240   116985909.805          50.000                                                  
G25  21716044.440   114118517.352          50.000    21716047.480    85218370.496          50.000  
G26  23729232.740   124697891.172          50.000    23729234.440    93118551.473          50.000  
G29  20470287.480   107572082.805          50.000                                                  
E 1  24920684.580   130959061.590          50.000    24920688.940    97794092.316          50.000  
E 7  26103169.580   137173038.176          50.000    26103175.380   102434395.918          50.000  
E 8  25349792.840   133214050.105          50.000    25349796.460    99478013.703          50.000  
E13  26593270.780   139748556.656          50.000    26593275.460   104357675.324          50.000  
E21  27323098.240   143583790.668          50.000    27323105.740   107221639.680          50.000  
E31  25829357.100   135734154.016          50.000    25829362.200   101359906.969          50.000  
E33  25141151.560   132117638.121          50.000    25141154.860    98659266.328          50.000  
> 2020  5 15  0 46 53.0000000  0 15       0.000000000000
G 2  24956807.940   131148924.789          50.000                                                  
G 5  21835286.020   114745196.973          50.000                                                  
G12  23510694.800   123549505.762          50.000                                                  
G15  24354602.920   127984256.809          50.000                                                  
G21  22261413.980   116984500.121          50.000                                                  
G25  21716583.160   114121348.352          50.000    21716586.200    85220484.551          50.000  
G26  23728731.020   124695254.617          50.000    23728732.720    93116582.617          50.000  
G29  20470174.100   107571487.047          50.000                                                  
E 1  24921031.940   130960886.980          50.000    24921036.300    97795455.434          50.000  
E 7  26102844.580   137171330.301          50.000    26102850.380   102433120.559          50.000  
E 8  25349890.940   133214565.680          50.000    25349894.560    99478398.711          50.000  
E13  26593623.020   139750407.727          50.000    26593627.720   104359057.621          50.000  
E21  27323695.520   143586929.371          50.000    27323703.020   107223983.516          50.000  
E31  25829191.780   135733285.340          50.000    25829196.900   101359258.281          50.000  
E33  25140916.800   132116404.402          50.000    25140920.080    98658345.043          50.000  
> 2020  5 15  0 46 54.0000000  0 15       0.000000000000
G 2  24957269.800   131151351.863          50.000                                                  
G 5  21835708.680   114747418.102          50.000                                                  
G12  23511406.100   123553243.703          50.000                                                  
G15  24354032.520   127981259.344          50.000                                                  
G21  22261145.780   116983090.668          50.000                                                  
G25  21717121.980   114124179.777          50.000    21717125.020    85222598.930          50.000  
G26  23728229.360   124692618.473          50.000    23728231.060    93114614.070          50.000  
G29  20470060.800   107570891.625          50.000                                                  
E 1  24921379.360   130962712.762          50.000    24921383.740    97796818.840          50.000  
E 7  26102519.640   137169622.750          50.000    26102525.440   102431845.445          50.000  
E 8  25349989.140   133215081.707          50.000    25349992.760    99478784.055          50.000  
E13  26593975.280   139752258.801          50.000    26593979.960   104360439.914          50.000  
E21  27324292.800   143590068.098          50.000    27324300.300   107226327.367          50.000  
E31  25829026.580   135732417.125          50.000    25829031.680   101358609.941          50.000  
E33  25140682.040   132115170.770          50.000    25140685.340    98657423.824          50.000  
> 2020  5 15  0 46 55.0000000  0 15       0.000000000000
G 2  24957731.640   131153778.895          50.000                                                  
G 5  21836131.460   114749639.750          50.000                                                  
G12  23512117.440   123556981.801          50.000                                                  
G15  24353462.140   127978261.895          50.000                                                  
G21  22260877.620   116981681.449          50.000                                                  
G25  21717660.840   114127011.598          50.000    21717663.900    85224713.602          50.000  
G26  23727727.800   124689982.719          50.000    23727729.500    93112645.813          50.000  
G29  20469947.560   107570296.555          50.000                                                  
E 1  24921726.880   130964538.914          50.000    24921731.240    97798182.523          50.000  
E 7  26102194.760   137167915.523          50.000    26102200.560   102430570.566          50.000  
E 8  25350087.420   133215598.184          50.000    25350091.040    99479169.734          50.000  
E13  26594327.520   139754109.867          50.000    26594332.200   104361822.203          50.000  
E21  27324890.080   143593206.840          50.000    27324897.600   107228671.230          50.000  
E31  25828861.440   135731549.379          50.000    25828866.560   101357961.949          50.000  
E33  25140447.300   132113937.234          50.000    25140450.600    98656502.676          50.000  
> 2020  5 15  0 46 56.0000000  0 15       0.000000000000
G 2  24958193.480   131156205.883          50.000                                                  
G 5  21836554.320   114751861.918          50.000                                                  
G12  23512828.800   123560720.055          50.000                                                  
G15  24352891.740   127975264.469          50.000                                                  
G21  22260609.500   116980272.465          50.000                                                  
G25  21718199.800   114129843.832          50.000    21718202.840    85226828.578          50.000  
G26  23727226.300   124687347.363          50.000    23727228.000    93110677.855          50.000  
G29  20469834.380   107569701.816          50.000                                                  
E 1  24922074.460   130966365.449          50.000    24922078.820    97799546.496          50.000  
E 7  26101869.940   137166208.621          50.000    26101875.760   102429295.934          50.000  
E 8  25350185.800   133216115.113          50.000    25350189.420    99479555.754          50.000  
E13  26594679.760   139755960.930          50.000    26594684.460   104363204.488          50.000  
E21  27325487.360   143596345.574          50.000    27325494.880   107231015.090          50.000  
E31  25828696.400   135730682.102          50.000    25828701.520   101357314.309          50.000  
E33  25140212.600   132112703.797          50.000    25140215.880    98655581.605          50.000  
> 2020  5 15  0 46 57.0000000  0 15       0.000000000000
G 2  24958655.320   131158632.836          50.000                                                  
G 5  21836977.280   114754084.598          50.000                                                  
G12  23513540.200   123564458.457          50.000                                                  
G15  24352321.340   127972267.063          50.000                                                  
G21  22260341.420   116978863.723          50.000                                                  
G25  21718738.840   114132676.484          50.000    21718741.880    85228943.867          50.000  
G26  23726724.900   124684712.422          50.000    23726726.600    93108710.207          50.000  
G29  20469721.280   107569107.414          50.000                                                  
E 1  24922422.100   130968192.375          50.000    24922426.480    97800910.758          50.000  
E 7  26101545.200   137164502.027          50.000    26101551.000   102428021.527          50.000  
E 8  25350284.240   133216632.492          50.000    25350287.880    99479942.109          50.000  
E13  26595032.020   139757811.984          50.000    26595036.700   104364586.770          50.000  
E21  27326084.660   143599484.340          50.000    27326092.160   107233358.969          50.000  
E31  25828531.460   135729815.293          50.000    25828536.580   101356667.016          50.000  
E33  25139977.900   132111470.453          50.000    25139981.180    98654660.602          50.000  
> 2020  5 15  0 46 58.0000000  0 15       0.000000000000
G 2  24959117.140   131161059.738          50.000                                                  
G 5  21837400.340   114756307.793          50.000                                                  
G12  23514251.620   123568196.992          50.000                                                  
G15  24351750.960   127969269.676          50.000                                                  
G21  22260073.380   116977455.203          50.000                                                  
G25  21719277.960   114135509.527          50.000    21719281.000    85231059.453          50.000  
G26  23726223.560   124682077.879          50.000    23726225.260    93106742.855          50.000  
G29  20469608.240   107568513.352          50.000                                                  
E 1  24922769.820   130970019.664          50.000    24922774.200    97802275.293          50.000  
E 7  26101220.500   137162795.754          50.000    26101226.300   102426747.367          50.000  
E 8  25350382.780   133217150.320          50.000    25350386.420    99480328.797          50.000  
E13  26595384.260   139759663.039          50.000    26595388.940   104365969.051          50.000  
E21  27326681.940   143602623.098          50.000    27326689.460   107235702.848          50.000  
E31  25828366.600   135728948.945          50.000    25828371.720   101356020.066          50.000  
E33  25139743.220   132110237.199          50.000    25139746.500    98653739.668          50.000  
> 2020  5 15  0 46 59.0000000  0 15       0.000000000000
G 2  24959578.960   131163486.605          50.000                                                  
G 5  21837823.500   114758531.520          50.000                                                  
G12  23514963.080   123571935.688          50.000                                                  
G15  24351180.580   127966272.316          50.000                                                  
G21  22259805.400   116976046.922          50.000                                                  
G25  21719817.140   114138342.988          50.000    21719820.180    85233175.348          50.000  
G26  23725722.300   124679443.738          50.000    23725724.000    93104775.801          50.000  
G29  20469495.260   107567919.637          50.000                                                  
E 1  24923117.620   130971847.336          50.000    24923122.000    97803640.109          50.000  
E 7  26100895.860   137161089.793          50.000    26100901.660   102425473.438          50.000  
E 8  25350481.420   133217668.605          50.000    25350485.040    99480715.828          50.000  
E13  26595736.500   139761514.094          50.000    26595741.180   104367351.328          50.000  
E21  27327279.240   143605761.871          50.000    27327286.740   107238046.734          50.000  
E31  25828201.820   135728083.059          50.000    25828206.940   101355373.465          50.000  
E33  25139508.560   132109004.043          50.000    25139511.840    98652818.805          50.000  
> 2020  5 15  0 47  0.0000000  0 15       0.000000000000
G 2  24960040.780   131165913.426          50.000                                                  
G 5  21838246.760   114760755.762          50.000                                                  
G12  23515674.560   123575674.520          50.000                                                  
G15  24350610.200   127963274.973          50.000                                                  
G21  22259537.460   116974638.883          50.000                                                  
G25  21720356.420   114141176.855          50.000    21720359.460    85235291.547          50.000  
G26  23725221.120   124676809.996          50.000    23725222.800    93102809.047          50.000  
G29  20469382.340   107567326.254          50.000                                                  
E 1  24923465.500   130973675.395          50.000    24923469.860    97805005.219          50.000  
E 7  26100571.300   137159384.164          50.000    26100577.100   102424199.754          50.000  
E 8  25350580.120   133218187.336          50.000    25350583.740    99481103.191          50.000  
E13  26596088.740   139763365.121          50.000    26596093.420   104368733.590          50.000  
E21  27327876.520   143608900.660          50.000    27327884.040   107240390.633          50.000  
E31  25828037.140   135727217.637          50.000    25828042.260   101354727.207          50.000  
E33  25139273.900   132107770.988          50.000    25139277.200    98651898.016          50.000  
> 2020  5 15  0 47  1.0000000  0 15       0.000000000000
G 2  24960502.580   131168340.203          50.000                                                  
G 5  21838670.120   114762980.516          50.000                                                  
G12  23516386.060   123579413.504          50.000                                                  
G15  24350039.840   127960277.645          50.000                                                  
G21  22259269.560   116973231.074          50.000                                                  
G25  21720895.760   114144011.141          50.000    21720898.800    85237408.059          50.000  
G26  23724720.000   124674176.660          50.000    23724721.700    93100842.598          50.000  
G29  20469269.480   107566733.219          50.000                                                  
E 1  24923813.440   130975503.828          50.000    24923817.800    97806370.605          50.000  
E 7  26100246.780   137157678.848          50.000    26100252.580   102422926.301          50.000  
E 8  25350678.920   133218706.516          50.000    25350682.540    99481490.891          50.000  
E13  26596440.980   139765216.156          50.000    26596445.660   104370115.855          50.000  
E21  27328473.820   143612039.449          50.000    27328481.320   107242734.531          50.000  
E31  25827872.540   135726352.691          50.000    25827877.660   101354081.309          50.000  
E33  25139039.280   132106538.016          50.000    25139042.560    98650977.289          50.000  
> 2020  5 15  0 47  2.0000000  0 15       0.000000000000
G 2  24960964.360   131170766.926          50.000                                                  
G 5  21839093.580   114765205.789          50.000                                                  
G12  23517097.600   123583152.637          50.000                                                  
G15  24349469.460   127957280.340          50.000                                                  
G21  22259001.700   116971823.504          50.000                                                  
G25  21721435.180   114146845.824          50.000    21721438.220    85239524.867          50.000  
G26  23724218.980   124671543.723          50.000    23724220.660    93098876.445          50.000  
G29  20469156.700   107566140.516          50.000                                                  
E 1  24924161.440   130977332.648          50.000    24924165.820    97807736.281          50.000  
E 7  26099922.340   137155973.848          50.000    26099928.140   102421653.090          50.000  
E 8  25350777.800   133219226.148          50.000    25350781.420    99481878.930          50.000  
E13  26596793.220   139767067.180          50.000    26596797.900   104371498.113          50.000  
E21  27329071.120   143615178.262          50.000    27329078.620   107245078.449          50.000  
E31  25827708.040   135725488.199          50.000    25827713.160   101353435.742          50.000  
E33  25138804.680   132105305.145          50.000    25138807.960    98650056.641          50.000  
> 2020  5 15  0 47  3.0000000  0 15       0.000000000000
G 2  24961426.160   131173193.629          50.000                                                  
G 5  21839517.120   114767431.574          50.000                                                  
G12  23517809.160   123586891.914          50.000                                                  
G15  24348899.100   127954283.066          50.000                                                  
G21  22258733.900   116970416.160          50.000                                                  
G25  21721974.680   114149680.918          50.000    21721977.720    85241641.980          50.000  
