     3.03           OBSERVATION DATA    M: Mixed            RINEX VERSION / TYPE
sbp2rinex v2.2 (RTKL                    20210504 171527 UTC PGM / RUN BY / DATE 
log: 2020-07-08-US-MTV-2.sbp                                COMMENT             
format: Swift Navigation SBP, option: CONVBASE,EPHALL,OBSALLCOMMENT             
                                                            MARKER NAME         
                                                            MARKER NUMBER       
                                                            MARKER TYPE         
                                                            OBSERVER / AGENCY   
                                                            REC # / TYPE / VERS 
                                                            ANT # / TYPE        
 -2743996.9171 -4320100.6815  3793542.1646                  APPROX POSITION XYZ 
        0.0000        0.0000        0.0000                  ANTENNA: DELTA H/E/N
G    6 C1C L1C S1C C5I L5I S5I                              SYS / # / OBS TYPES 
E    6 C1B L1B S1B C5I L5I S5I                              SYS / # / OBS TYPES 
  2020     7     8    23    25   15.0000000     GPS         TIME OF FIRST OBS   
  2020     7     9     0     2    3.0000000     GPS         TIME OF LAST OBS    
G                                                           SYS / PHASE SHIFT   
E                                                           SYS / PHASE SHIFT   
  0                                                         GLONASS SLOT / FRQ #
 C1C    0.000 C1P    0.000 C2C    0.000 C2P    0.000        GLONASS COD/PHS/BIS 
                                                            END OF HEADER       
> 2020  7  8 23 25 15.0000000  0 16       0.000000000000
G10  21950899.180   115352709.090          50.000    21950898.940    86140010.891          50.000  
G13  23901448.740   125603009.145          50.000                                                  
G15  21821975.020   114675073.379          50.000                                                  
G16  23163263.700   121723777.977          50.000                                                  
G20  20211587.180   106212612.910          50.000                                                  
G21  22096600.840   116118445.875          50.000                                                  
G26  23232755.760   122088864.895          50.000    23232757.400    91170247.051          50.000  
G27  23707840.540   124585494.172          50.000    23707841.900    93034622.406          50.000  
G29  22709508.300   119339258.258          50.000                                                  
E 3  25885443.500   136028890.980          50.000    25885448.300   101580002.656          50.000  
E 5  24019872.980   126225259.422          50.000    24019876.980    94259111.609          50.000  
E 9  24226806.920   127312711.848          50.000    24226810.720    95071171.262          50.000  
E15  25837508.140   135776987.035          50.000    25837513.300   101391893.043          50.000  
E27  27489458.700   144458038.703          50.000    27489463.860   107874492.711          50.000  
E30  26128952.120   137308519.316          50.000    26128957.560   102535563.020          50.000  
E36  25168065.620   132259039.285          50.000    25168070.520    98764853.172          50.000  
> 2020  7  8 23 25 16.0000000  0 16       0.000000000000
G10  21950484.640   115350530.668          50.000    21950484.400    86138384.148          50.000  
G13  23901798.280   125604845.953          50.000                                                  
G15  21822158.640   114676038.320          50.000                                                  
G16  23163303.700   121723988.199          50.000                                                  
G20  20211490.780   106212106.359          50.000                                                  
G21  22096328.100   116117012.648          50.000                                                  
G26  23233141.260   122090890.699          50.000    23233142.900    91171759.828          50.000  
G27  23707222.100   124582244.199          50.000    23707223.460    93032195.480          50.000  
G29  22710114.080   119342441.645          50.000                                                  
E 3  25884898.360   136026026.273          50.000    25884903.160   101577863.426          50.000  
E 5  24019732.060   126224518.914          50.000    24019736.060    94258558.633          50.000  
E 9  24227160.180   127314568.160          50.000    24227163.980    95072557.469          50.000  
E15  25837123.720   135774966.930          50.000    25837128.900   101390384.523          50.000  
E27  27489585.880   144458706.992          50.000    27489591.040   107874991.758          50.000  
E30  26129400.780   137310876.969          50.000    26129406.200   102537323.602          50.000  
E36  25168344.220   132260503.324          50.000    25168349.120    98765946.449          50.000  
> 2020  7  8 23 25 17.0000000  0 16       0.000000000000
G10  21950070.160   115348352.594          50.000    21950069.920    86136757.664          50.000  
G13  23902147.920   125606683.340          50.000                                                  
G15  21822342.380   114677003.938          50.000                                                  
G16  23163343.820   121724199.047          50.000                                                  
G20  20211394.460   106211600.234          50.000                                                  
G21  22096055.380   116115579.512          50.000                                                  
G26  23233526.820   122092916.855          50.000    23233528.460    91173272.867          50.000  
G27  23706603.680   124578994.434          50.000    23706605.040    93029768.707          50.000  
G29  22710719.920   119345625.336          50.000                                                  
E 3  25884353.260   136023161.738          50.000    25884358.060   101575724.324          50.000  
E 5  24019591.240   126223778.855          50.000    24019595.220    94258005.992          50.000  
E 9  24227513.480   127316424.816          50.000    24227517.280    95073943.930          50.000  
E15  25836739.300   135772946.809          50.000    25836744.480   101388875.992          50.000  
E27  27489713.120   144459375.691          50.000    27489718.280   107875491.113          50.000  
E30  26129849.440   137313234.750          50.000    26129854.880   102539084.281          50.000  
E36  25168622.840   132261967.523          50.000    25168627.740    98767039.848          50.000  
> 2020  7  8 23 25 18.0000000  0 16       0.000000000000
G10  21949655.760   115346174.883          50.000    21949655.520    86135131.449          50.000  
G13  23902497.680   125608521.281          50.000                                                  
G15  21822526.280   114677970.246          50.000                                                  
G16  23163384.080   121724410.520          50.000                                                  
G20  20211298.240   106211094.547          50.000                                                  
G21  22095782.680   116114146.465          50.000                                                  
G26  23233912.460   122094943.371          50.000    23233914.100    91174786.172          50.000  
G27  23705985.320   124575744.883          50.000    23705986.680    93027342.098          50.000  
G29  22711325.820   119348809.355          50.000                                                  
E 3  25883808.180   136020297.375          50.000    25883812.980   101573585.352          50.000  
E 5  24019450.500   126223039.254          50.000    24019454.480    94257453.695          50.000  
E 9  24227866.860   127318281.813          50.000    24227870.660    95075330.648          50.000  
E15  25836354.880   135770926.699          50.000    25836360.060   101387367.465          50.000  
E27  27489840.460   144460044.816          50.000    27489845.620   107875990.781          50.000  
E30  26130298.140   137315592.656          50.000    26130303.580   102540845.055          50.000  
E36  25168901.500   132263431.887          50.000    25168906.400    98768133.363          50.000  
> 2020  7  8 23 25 19.0000000  0 16       0.000000000000
G10  21949241.420   115343997.551          50.000    21949241.180    86133505.523          50.000  
G13  23902847.520   125610359.781          50.000                                                  
G15  21822710.280   114678937.238          50.000                                                  
G16  23163424.440   121724622.617          50.000                                                  
G20  20211202.080   106210589.293          50.000                                                  
G21  22095510.000   116112713.500          50.000                                                  
G26  23234298.160   122096970.242          50.000    23234299.800    91176299.742          50.000  
G27  23705366.980   124572495.535          50.000    23705368.340    93024915.637          50.000  
G29  22711931.780   119351993.695          50.000                                                  
E 3  25883263.140   136017433.188          50.000    25883267.940   101571446.512          50.000  
E 5  24019309.840   126222300.109          50.000    24019313.840    94256901.734          50.000  
E 9  24228220.300   127320139.160          50.000    24228224.100    95076717.629          50.000  
E15  25835970.460   135768906.574          50.000    25835975.640   101385858.934          50.000  
E27  27489967.860   144460714.363          50.000    27489973.020   107876490.766          50.000  
E30  26130746.860   137317950.695          50.000    26130752.300   102542605.926          50.000  
E36  25169180.200   132264896.422          50.000    25169185.100    98769227.008          50.000  
> 2020  7  8 23 25 20.0000000  0 16       0.000000000000
G10  21948827.160   115341820.586          50.000    21948826.920    86131879.867          50.000  
G13  23903197.500   125612198.848          50.000                                                  
G15  21822894.420   114679904.914          50.000                                                  
G16  23163464.920   121724835.348          50.000                                                  
G20  20211106.020   106210084.484          50.000                                                  
G21  22095237.340   116111280.629          50.000                                                  
G26  23234683.920   122098997.461          50.000    23234685.560    91177813.574          50.000  
G27  23704748.700   124569246.410          50.000    23704750.060    93022489.344          50.000  
G29  22712537.800   119355178.352          50.000                                                  
E 3  25882718.140   136014569.160          50.000    25882722.940   101569307.793          50.000  
E 5  24019169.280   126221561.426          50.000    24019173.260    94256350.121          50.000  
E 9  24228573.800   127321996.848          50.000    24228577.600    95078104.863          50.000  
E15  25835586.060   135766886.453          50.000    25835591.220   101384350.398          50.000  
E27  27490095.360   144461384.336          50.000    27490100.520   107876991.074          50.000  
E30  26131195.600   137320308.867          50.000    26131201.040   102544366.898          50.000  
E36  25169458.920   132266361.117          50.000    25169463.820    98770320.773          50.000  
> 2020  7  8 23 25 21.0000000  0 16       0.000000000000
G10  21948412.960   115339643.984          50.000    21948412.720    86130254.484          50.000  
G13  23903547.560   125614038.477          50.000                                                  
G15  21823078.700   114680873.270          50.000                                                  
G16  23163505.520   121725048.684          50.000                                                  
G20  20211010.040   106209580.098          50.000                                                  
G21  22094964.680   116109847.832          50.000                                                  
G26  23235069.760   122101025.051          50.000    23235071.400    91179327.684          50.000  
G27  23704130.440   124565997.477          50.000    23704131.800    93020063.195          50.000  
G29  22713143.880   119358363.320          50.000                                                  
E 3  25882173.160   136011705.316          50.000    25882177.960   101567169.207          50.000  
E 5  24019028.800   126220823.188          50.000    24019032.780    94255798.840          50.000  
E 9  24228927.380   127323854.875          50.000    24228931.180    95079492.352          50.000  
E15  25835201.640   135764866.320          50.000    25835206.800   101382841.859          50.000  
E27  27490222.940   144462054.742          50.000    27490228.100   107877491.699          50.000  
E30  26131644.380   137322667.172          50.000    26131649.820   102546127.969          50.000  
E36  25169737.680   132267825.973          50.000    25169742.560    98771414.656          50.000  
> 2020  7  8 23 25 22.0000000  0 16       0.000000000000
G10  21947998.840   115337467.758          50.000    21947998.600    86128629.379          50.000  
G13  23903897.740   125615878.664          50.000                                                  
G15  21823263.100   114681842.313          50.000                                                  
G16  23163546.240   121725262.672          50.000                                                  
G20  20210914.140   106209076.156          50.000                                                  
G21  22094692.040   116108415.137          50.000                                                  
G26  23235455.660   122103052.984          50.000    23235457.300    91180842.047          50.000  
G27  23703512.240   124562748.781          50.000    23703513.600    93017637.219          50.000  
G29  22713750.020   119361548.613          50.000                                                  
E 3  25881628.220   136008841.641          50.000    25881633.020   101565030.750          50.000  
E 5  24018888.400   126220085.410          50.000    24018892.380    94255247.902          50.000  
E 9  24229281.020   127325713.254          50.000    24229284.820    95080880.102          50.000  
E15  25834817.220   135762846.191          50.000    25834822.400   101381333.324          50.000  
E27  27490350.580   144462725.555          50.000    27490355.740   107877992.629          50.000  
E30  26132093.180   137325025.605          50.000    26132098.600   102547889.133          50.000  
E36  25170016.460   132269291.012          50.000    25170021.360    98772508.680          50.000  
> 2020  7  8 23 25 23.0000000  0 16       0.000000000000
G10  21947584.780   115335291.879          50.000    21947584.540    86127004.535          50.000  
G13  23904248.020   125617719.418          50.000                                                  
G15  21823447.640   114682812.023          50.000                                                  
G16  23163587.080   121725477.277          50.000                                                  
G20  20210818.340   106208572.637          50.000                                                  
G21  22094419.420   116106982.516          50.000                                                  
G26  23235841.640   122105081.277          50.000    23235843.280    91182356.680          50.000  
G27  23702894.080   124559500.285          50.000    23702895.420    93015211.395          50.000  
G29  22714356.220   119364734.227          50.000                                                  
E 3  25881083.320   136005978.125          50.000    25881088.120   101562892.410          50.000  
E 5  24018748.080   126219348.082          50.000    24018752.080    94254697.297          50.000  
E 9  24229634.720   127327571.969          50.000    24229638.520    95082268.102          50.000  
E15  25834432.800   135760826.055          50.000    25834437.980   101379824.781          50.000  
E27  27490478.320   144463396.816          50.000    27490483.480   107878493.895          50.000  
E30  26132542.000   137327384.168          50.000    26132547.440   102549650.398          50.000  
E36  25170295.280   132270756.191          50.000    25170300.160    98773602.805          50.000  
> 2020  7  8 23 25 24.0000000  0 16       0.000000000000
G10  21947170.800   115333116.363          50.000    21947170.560    86125379.965          50.000  
G13  23904598.420   125619560.734          50.000                                                  
G15  21823632.300   114683782.434          50.000                                                  
G16  23163628.020   121725692.512          50.000                                                  
G20  20210722.600   106208069.559          50.000                                                  
G21  22094146.820   116105549.992          50.000                                                  
G26  23236227.680   122107109.922          50.000    23236229.320    91183871.574          50.000  
G27  23702275.940   124556251.996          50.000    23702277.300    93012785.727          50.000  
G29  22714962.480   119367920.160          50.000                                                  
E 3  25880538.440   136003114.793          50.000    25880543.240   101560754.211          50.000  
E 5  24018607.860   126218611.211          50.000    24018611.860    94254147.039          50.000  
E 9  24229988.480   127329431.031          50.000    24229992.280    95083656.359          50.000  
E15  25834048.380   135758805.914          50.000    25834053.540   101378316.234          50.000  
E27  27490606.140   144464068.488          50.000    27490611.300   107878995.469          50.000  
E30  26132990.840   137329742.859          50.000    26132996.280   102551411.754          50.000  
E36  25170574.120   132272221.543          50.000    25170579.020    98774697.063          50.000  
> 2020  7  8 23 25 25.0000000  0 16       0.000000000000
G10  21946756.880   115330941.234          50.000    21946756.640    86123755.680          50.000  
G13  23904948.920   125621402.609          50.000                                                  
G15  21823817.080   114684753.516          50.000                                                  
G16  23163669.100   121725908.371          50.000                                                  
G20  20210626.940   106207566.918          50.000                                                  
G21  22093874.240   116104117.547          50.000                                                  
G26  23236613.780   122109138.922          50.000    23236615.420    91185386.738          50.000  
G27  23701657.860   124553003.930          50.000    23701659.220    93010360.223          50.000  
G29  22715568.800   119371106.410          50.000                                                  
E 3  25879993.600   136000251.621          50.000    25879998.400   101558616.125          50.000  
E 5  24018467.740   126217874.793          50.000    24018471.720    94253597.117          50.000  
E 9  24230342.320   127331290.434          50.000    24230346.120    95085044.875          50.000  
E15  25833663.960   135756785.770          50.000    25833669.120   101376807.688          50.000  
E27  27490734.040   144464740.586          50.000    27490739.200   107879497.359          50.000  
E30  26133439.700   137332101.676          50.000    26133445.140   102553173.207          50.000  
E36  25170853.000   132273687.063          50.000    25170857.900    98775791.441          50.000  
> 2020  7  8 23 25 26.0000000  0 16       0.000000000000
G10  21946343.040   115328766.465          50.000    21946342.800    86122131.664          50.000  
G13  23905299.520   125623245.055          50.000                                                  
G15  21824002.000   114685725.289          50.000                                                  
G16  23163710.300   121726124.859          50.000                                                  
G20  20210531.380   106207064.707          50.000                                                  
G21  22093601.680   116102685.199          50.000                                                  
G26  23236999.960   122111168.281          50.000    23237001.600    91186902.168          50.000  
G27  23701039.800   124549756.070          50.000    23701041.160    93007934.875          50.000  
G29  22716175.200   119374292.980          50.000                                                  
E 3  25879448.800   135997388.637          50.000    25879453.580   101556478.184          50.000  
E 5  24018327.680   126217138.828          50.000    24018331.680    94253047.531          50.000  
E 9  24230696.220   127333150.188          50.000    24230700.020    95086433.652          50.000  
E15  25833279.540   135754765.617          50.000    25833284.700   101375299.133          50.000  
E27  27490862.020   144465413.105          50.000    27490867.180   107879999.563          50.000  
E30  26133888.600   137334460.617          50.000    26133894.040   102554934.754          50.000  
E36  25171131.920   132275152.746          50.000    25171136.800    98776885.949          50.000  
> 2020  7  8 23 25 27.0000000  0 16       0.000000000000
G10  21945929.260   115326592.070          50.000    21945929.020    86120507.930          50.000  
G13  23905650.240   125625088.066          50.000                                                  
G15  21824187.060   114686697.730          50.000                                                  
G16  23163751.620   121726341.977          50.000                                                  
G20  20210435.900   106206562.938          50.000                                                  
G21  22093329.120   116101252.945          50.000                                                  
G26  23237386.200   122113198.000          50.000    23237387.840    91188417.863          50.000  
G27  23700421.800   124546508.414          50.000    23700423.160    93005509.676          50.000  
G29  22716781.640   119377479.875          50.000                                                  
E 3  25878904.020   135994525.809          50.000    25878908.800   101554340.359          50.000  
E 5  24018187.720   126216403.324          50.000    24018191.720    94252498.293          50.000  
E 9  24231050.180   127335010.273          50.000    24231053.980    95087822.676          50.000  
E15  25832895.120   135752745.473          50.000    25832900.280   101373790.582          50.000  
E27  27490990.060   144466086.039          50.000    27490995.220   107880502.078          50.000  
E30  26134337.520   137336819.691          50.000    26134342.960   102556696.398          50.000  
E36  25171410.860   132276618.594          50.000    25171415.760    98777980.570          50.000  
> 2020  7  8 23 25 28.0000000  0 16       0.000000000000
G10  21945515.560   115324418.027          50.000    21945515.320    86118884.457          50.000  
G13  23906001.060   125626931.633          50.000                                                  
G15  21824372.240   114687670.871          50.000                                                  
G16  23163793.060   121726559.727          50.000                                                  
G20  20210340.500   106206061.590          50.000                                                  
G21  22093056.600   116099820.762          50.000                                                  
G26  23237772.500   122115228.063          50.000    23237774.160    91189933.820          50.000  
G27  23699803.820   124543260.977          50.000    23699805.180    93003084.645          50.000  
G29  22717388.140   119380667.086          50.000                                                  
E 3  25878359.260   135991663.168          50.000    25878364.060   101552202.676          50.000  
E 5  24018047.840   126215668.277          50.000    24018051.840    94251949.395          50.000  
E 9  24231404.220   127336870.719          50.000    24231408.020    95089211.969          50.000  
E15  25832510.680   135750725.320          50.000    25832515.860   101372282.027          50.000  
E27  27491118.200   144466759.414          50.000    27491123.360   107881004.922          50.000  
E30  26134786.460   137339178.906          50.000    26134791.900   102558458.148          50.000  
E36  25171689.840   132278084.605          50.000    25171694.720    98779075.324          50.000  
> 2020  7  8 23 25 29.0000000  0 16       0.000000000000
G10  21945101.920   115322244.359          50.000    21945101.680    86117261.262          50.000  
G13  23906351.980   125628775.762          50.000                                                  
G15  21824557.540   114688644.676          50.000                                                  
G16  23163834.600   121726778.094          50.000                                                  
G20  20210245.180   106205560.684          50.000                                                  
G21  22092784.080   116098388.664          50.000                                                  
G26  23238158.880   122117258.480          50.000    23238160.540    91191450.039          50.000  
G27  23699185.900   124540013.738          50.000    23699187.260    93000659.758          50.000  
G29  22717994.720   119383854.617          50.000                                                  
E 3  25877814.560   135988800.688          50.000    25877819.360   101550065.105          50.000  
E 5  24017908.060   126214933.680          50.000    24017912.040    94251400.832          50.000  
E 9  24231758.300   127338731.496          50.000    24231762.100    95090601.508          50.000  
E15  25832126.260   135748705.168          50.000    25832131.440   101370773.473          50.000  
E27  27491246.420   144467433.199          50.000    27491251.580   107881508.074          50.000  
E30  26135235.420   137341538.242          50.000    26135240.860   102560219.988          50.000  
E36  25171968.840   132279550.797          50.000    25171973.740    98780170.203          50.000  
> 2020  7  8 23 25 30.0000000  0 16       0.000000000000
G10  21944688.360   115320071.051          50.000    21944688.120    86115638.336          50.000  
G13  23906703.020   125630620.457          50.000                                                  
G15  21824742.980   114689619.168          50.000                                                  
G16  23163876.280   121726997.094          50.000                                                  
G20  20210149.940   106205060.199          50.000                                                  
G21  22092511.580   116096956.660          50.000                                                  
G26  23238545.320   122119289.250          50.000    23238546.980    91192966.523          50.000  
G27  23698568.020   124536766.719          50.000    23698569.360    92998235.039          50.000  
G29  22718601.340   119387042.465          50.000                                                  
E 3  25877269.880   135985938.375          50.000    25877274.680   101547927.668          50.000  
E 5  24017768.360   126214199.547          50.000    24017772.340    94250852.613          50.000  
E 9  24232112.460   127340592.625          50.000    24232116.280    95091991.313          50.000  
E15  25831741.840   135746685.000          50.000    25831747.020   101369264.906          50.000  
E27  27491374.720   144468107.422          50.000    27491379.880   107882011.551          50.000  
E30  26135684.420   137343897.703          50.000    26135689.860   102561981.926          50.000  
E36  25172247.880   132281017.141          50.000    25172252.760    98781265.199          50.000  
> 2020  7  8 23 25 31.0000000  0 16       0.000000000000
G10  21944274.860   115317898.125          50.000    21944274.620    86114015.699          50.000  
G13  23907054.160   125632465.711          50.000                                                  
G15  21824928.560   114690594.348          50.000                                                  
G16  23163918.080   121727216.727          50.000                                                  
G20  20210054.780   106204560.156          50.000                                                  
G21  22092239.080   116095524.742          50.000                                                  
G26  23238931.840   122121320.387          50.000    23238933.480    91194483.277          50.000  
G27  23697950.160   124533519.914          50.000    23697951.520    92995810.477          50.000  
G29  22719208.020   119390230.633          50.000                                                  
E 3  25876725.240   135983076.242          50.000    25876730.020   101545790.359          50.000  
E 5  24017628.740   126213465.859          50.000    24017632.740    94250304.730          50.000  
E 9  24232466.700   127342454.086          50.000    24232470.500    95093381.367          50.000  
E15  25831357.420   135744664.832          50.000    25831362.580   101367756.336          50.000  
E27  27491503.100   144468782.059          50.000    27491508.260   107882515.336          50.000  
E30  26136133.440   137346257.293          50.000    26136138.880   102563743.957          50.000  
E36  25172526.940   132282483.645          50.000    25172531.840    98782360.316          50.000  
> 2020  7  8 23 25 32.0000000  0 16       0.000000000000
G10  21943861.440   115315725.551          50.000    21943861.200    86112393.320          50.000  
G13  23907405.400   125634311.527          50.000                                                  
G15  21825114.260   114691570.203          50.000                                                  
G16  23163960.000   121727436.977          50.000                                                  
G20  20209959.700   106204060.535          50.000                                                  
G21  22091966.620   116094092.918          50.000                                                  
G26  23239318.420   122123351.871          50.000    23239320.060    91196000.293          50.000  
G27  23697332.360   124530273.316          50.000    23697333.720    92993386.070          50.000  
G29  22719814.780   119393419.117          50.000                                                  
E 3  25876180.620   135980214.266          50.000    25876185.400   101543653.172          50.000  
E 5  24017489.220   126212732.629          50.000    24017493.200    94249757.188          50.000  
E 9  24232820.980   127344315.898          50.000    24232824.780    95094771.680          50.000  
E15  25830972.980   135742644.660          50.000    25830978.160   101366247.770          50.000  
E27  27491631.560   144469457.117          50.000    27491636.720   107883019.441          50.000  
E30  26136582.480   137348617.008          50.000    26136587.920   102565506.078          50.000  
E36  25172806.040   132283950.324          50.000    25172810.940    98783455.563          50.000  
> 2020  7  8 23 25 33.0000000  0 16       0.000000000000
G10  21943448.080   115313553.332          50.000    21943447.840    86110771.211          50.000  
G13  23907756.760   125636157.906          50.000                                                  
G15  21825300.080   114692546.738          50.000                                                  
G16  23164002.020   121727657.859          50.000                                                  
G20  20209864.720   106203561.348          50.000                                                  
G21  22091694.160   116092661.176          50.000                                                  
G26  23239705.060   122125383.711          50.000    23239706.720    91197517.578          50.000  
G27  23696714.600   124527026.938          50.000    23696715.940    92990961.828          50.000  
G29  22720421.600   119396607.934          50.000                                                  
E 3  25875636.040   135977352.469          50.000    25875640.820   101541516.117          50.000  
E 5  24017349.760   126211999.848          50.000    24017353.760    94249209.980          50.000  
E 9  24233175.340   127346178.047          50.000    24233179.140    95096162.246          50.000  
E15  25830588.560   135740624.477          50.000    25830593.740   101364739.191          50.000  
E27  27491760.100   144470132.613          50.000    27491765.260   107883523.867          50.000  
E30  26137031.540   137350976.863          50.000    26137036.980   102567268.305          50.000  
E36  25173085.180   132285417.156          50.000    25173090.060    98784550.926          50.000  
> 2020  7  8 23 25 34.0000000  0 16       0.000000000000
G10  21943034.800   115311381.500          50.000    21943034.540    86109149.387          50.000  
G13  23908108.220   125638004.840          50.000                                                  
G15  21825486.040   114693523.953          50.000                                                  
G16  23164044.180   121727879.367          50.000                                                  
G20  20209769.800   106203062.594          50.000                                                  
G21  22091421.740   116091229.516          50.000                                                  
G26  23240091.780   122127415.902          50.000    23240093.420    91199035.121          50.000  
G27  23696096.860   124523780.773          50.000    23696098.220    92988537.746          50.000  
G29  22721028.460   119399797.059          50.000                                                  
E 3  25875091.480   135974490.848          50.000    25875096.280   101539379.191          50.000  
E 5  24017210.420   126211267.527          50.000    24017214.400    94248663.117          50.000  
E 9  24233529.760   127348040.543          50.000    24233533.560    95097553.070          50.000  
E15  25830204.140   135738604.309          50.000    25830209.300   101363230.625          50.000  
E27  27491888.720   144470808.516          50.000    27491893.880   107884028.598          50.000  
E30  26137480.620   137353336.836          50.000    26137486.080   102569030.625          50.000  
E36  25173364.340   132286884.160          50.000    25173369.220    98785646.414          50.000  
> 2020  7  8 23 25 35.0000000  0 16       0.000000000000
G10  21942621.580   115309210.016          50.000    21942621.320    86107527.824          50.000  
G13  23908459.780   125639852.344          50.000                                                  
G15  21825672.140   114694501.855          50.000                                                  
G16  23164086.440   121728101.504          50.000                                                  
G20  20209674.980   106202564.277          50.000                                                  
G21  22091149.320   116089797.953          50.000                                                  
G26  23240478.560   122129448.453          50.000    23240480.220    91200552.934          50.000  
G27  23695479.180   124520534.816          50.000    23695480.540    92986113.820          50.000  
G29  22721635.400   119402986.508          50.000                                                  
E 3  25874546.960   135971629.387          50.000    25874551.760   101537242.391          50.000  
E 5  24017071.140   126210535.660          50.000    24017075.140    94248116.594          50.000  
E 9  24233884.240   127349903.379          50.000    24233888.060    95098944.148          50.000  
E15  25829819.700   135736584.117          50.000    25829824.880   101361722.039          50.000  
E27  27492017.420   144471484.828          50.000    27492022.580   107884533.637          50.000  
E30  26137929.740   137355696.934          50.000    26137935.180   102570793.031          50.000  
E36  25173643.520   132288351.332          50.000    25173648.420    98786742.027          50.000  
> 2020  7  8 23 25 36.0000000  0 16       0.000000000000
G10  21942208.420   115307038.910          50.000    21942208.180    86105906.547          50.000  
G13  23908811.460   125641700.410          50.000                                                  
G15  21825858.360   114695480.441          50.000                                                  
G16  23164128.840   121728324.254          50.000                                                  
G20  20209580.240   106202066.387          50.000                                                  
G21  22090876.920   116088366.477          50.000                                                  
G26  23240865.420   122131481.344          50.000    23240867.060    91202071.000          50.000  
G27  23694861.540   124517289.063          50.000    23694862.880    92983690.043          50.000  
G29  22722242.380   119406176.277          50.000                                                  
E 3  25874002.480   135968768.109          50.000    25874007.280   101535105.719          50.000  
E 5  24016931.960   126209804.238          50.000    24016935.940    94247570.402          50.000  
E 9  24234238.800   127351766.555          50.000    24234242.600    95100335.480          50.000  
E15  25829435.280   135734563.922          50.000    25829440.440   101360213.453          50.000  
E27  27492146.200   144472161.586          50.000    27492151.380   107885039.008          50.000  
E30  26138378.880   137358057.160          50.000    26138384.320   102572555.539          50.000  
E36  25173922.760   132289818.656          50.000    25173927.640    98787837.758          50.000  
> 2020  7  8 23 25 37.0000000  0 16       0.000000000000
G10  21941795.340   115304868.172          50.000    21941795.100    86104285.543          50.000  
G13  23909163.240   125643549.035          50.000                                                  
G15  21826044.700   114696459.703          50.000                                                  
G16  23164171.340   121728547.645          50.000                                                  
G20  20209485.580   106201568.934          50.000                                                  
G21  22090604.520   116086935.090          50.000                                                  
G26  23241252.320   122133514.602          50.000    23241253.980    91203589.344          50.000  
G27  23694243.920   124514043.531          50.000    23694245.280    92981266.430          50.000  
G29  22722849.440   119409366.359          50.000                                                  
E 3  25873458.020   135965907.000          50.000    25873462.820   101532969.176          50.000  
E 5  24016792.860   126209073.285          50.000    24016796.860    94247024.563          50.000  
E 9  24234593.420   127353630.078          50.000    24234597.220    95101727.070          50.000  
E15  25829050.840   135732543.738          50.000    25829056.020   101358704.875          50.000  
E27  27492275.080   144472838.773          50.000    27492280.240   107885544.699          50.000  
E30  26138828.040   137360417.527          50.000    26138833.480   102574318.148          50.000  
E36  25174202.000   132291286.152          50.000    25174206.900    98788933.613          50.000  
> 2020  7  8 23 25 38.0000000  0 16       0.000000000000
G10  21941382.340   115302697.785          50.000    21941382.080    86102664.797          50.000  
G13  23909515.140   125645398.223          50.000                                                  
G15  21826231.180   114697439.648          50.000                                                  
G16  23164213.980   121728771.664          50.000                                                  
G20  20209391.000   106201071.918          50.000                                                  
G21  22090332.160   116085503.785          50.000                                                  
G26  23241639.300   122135548.207          50.000    23241640.960    91205107.941          50.000  
G27  23693626.360   124510798.199          50.000    23693627.720    92978842.973          50.000  
G29  22723456.560   119412556.758          50.000                                                  
E 3  25872913.600   135963046.055          50.000    25872918.400   101530832.758          50.000  
E 5  24016653.840   126208342.781          50.000    24016657.840    94246479.055          50.000  
E 9  24234948.100   127355493.941          50.000    24234951.900    95103118.918          50.000  
E15  25828666.420   135730523.539          50.000    25828671.580   101357196.285          50.000  
E27  27492404.020   144473516.375          50.000    27492409.180   107886050.699          50.000  
E30  26139277.220   137362778.016          50.000    26139282.680   102576080.848          50.000  
E36  25174481.300   132292753.809          50.000    25174486.180    98790029.590          50.000  
> 2020  7  8 23 25 39.0000000  0 16       0.000000000000
G10  21940969.400   115300527.789          50.000    21940969.160    86101044.348          50.000  
G13  23909867.140   125647247.973          50.000                                                  
G15  21826417.780   114698420.277          50.000                                                  
G16  23164256.720   121728996.309          50.000                                                  
G20  20209296.500   106200575.324          50.000                                                  
G21  22090059.820   116084072.578          50.000                                                  
G26  23242026.360   122137582.172          50.000    23242028.020    91206626.809          50.000  
G27  23693008.840   124507553.094          50.000    23693010.200    92976419.676          50.000  
G29  22724063.720   119415747.473          50.000                                                  
E 3  25872369.220   135960185.289          50.000    25872374.020   101528696.473          50.000  
E 5  24016514.920   126207612.734          50.000    24016518.920    94245933.891          50.000  
E 9  24235302.840   127357358.148          50.000    24235306.640    95104511.020          50.000  
E15  25828281.980   135728503.340          50.000    25828287.160   101355687.695          50.000  
E27  27492533.040   144474194.383          50.000    27492538.200   107886557.004          50.000  
E30  26139726.440   137365138.625          50.000    26139731.880   102577843.641          50.000  
E36  25174760.620   132294221.645          50.000    25174765.500    98791125.699          50.000  
> 2020  7  8 23 25 40.0000000  0 16       0.000000000000
G10  21940556.520   115298358.148          50.000    21940556.280    86099424.160          50.000  
G13  23910219.240   125649098.285          50.000                                                  
G15  21826604.520   114699401.598          50.000                                                  
G16  23164299.580   121729221.570          50.000                                                  
G20  20209202.080   106200079.172          50.000                                                  
G21  22089787.480   116082641.445          50.000                                                  
G26  23242413.480   122139616.473          50.000    23242415.120    91208145.930          50.000  
G27  23692391.360   124504308.191          50.000    23692392.700    92973996.539          50.000  
G29  22724670.960   119418938.512          50.000                                                  
E 3  25871824.860   135957324.695          50.000    25871829.660   101526560.316          50.000  
E 5  24016376.080   126206883.141          50.000    24016380.080    94245389.066          50.000  
E 9  24235657.660   127359222.699          50.000    24235661.460    95105903.379          50.000  
E15  25827897.540   135726483.137          50.000    25827902.720   101354179.105          50.000  
E27  27492662.140   144474872.836          50.000    27492667.300   107887063.641          50.000  
E30  26140175.680   137367499.375          50.000    26140181.120   102579606.539          50.000  
E36  25175039.960   132295689.625          50.000    25175044.860    98792221.922          50.000  
> 2020  7  8 23 25 41.0000000  0 16       0.000000000000
G10  21940143.720   115296188.867          50.000    21940143.480    86097804.246          50.000  
G13  23910571.440   125650949.168          50.000                                                  
G15  21826791.400   114700383.586          50.000                                                  
G16  23164342.580   121729447.465          50.000                                                  
G20  20209107.740   106199583.457          50.000                                                  
G21  22089515.160   116081210.406          50.000                                                  
G26  23242800.660   122141651.141          50.000    23242802.320    91209665.324          50.000  
G27  23691773.900   124501063.504          50.000    23691775.260    92971573.559          50.000  
G29  22725278.260   119422129.867          50.000                                                  
E 3  25871280.540   135954464.270          50.000    25871285.340   101524424.285          50.000  
E 5  24016237.340   126206154.008          50.000    24016241.320    94244844.582          50.000  
E 9  24236012.540   127361087.598          50.000    24236016.340    95107295.996          50.000  
E15  25827513.120   135724462.930          50.000    25827518.280   101352670.508          50.000  
E27  27492791.340   144475551.711          50.000    27492796.500   107887570.590          50.000  
E30  26140624.940   137369860.246          50.000    26140630.380   102581369.523          50.000  
E36  25175319.340   132297157.789          50.000    25175324.240    98793318.277          50.000  
> 2020  7  8 23 25 42.0000000  0 16       0.000000000000
G10  21939731.000   115294019.961          50.000    21939730.760    86096184.605          50.000  
G13  23910923.760   125652800.613          50.000                                                  
G15  21826978.380   114701366.258          50.000                                                  
G16  23164385.680   121729673.988          50.000                                                  
G20  20209013.500   106199088.172          50.000                                                  
G21  22089242.860   116079779.457          50.000                                                  
G26  23243187.920   122143686.160          50.000    23243189.560    91211184.980          50.000  
G27  23691156.500   124497819.039          50.000    23691157.860    92969150.746          50.000  
G29  22725885.620   119425321.535          50.000                                                  
E 3  25870736.260   135951604.016          50.000    25870741.060   101522288.383          50.000  
E 5  24016098.680   126205425.328          50.000    24016102.660    94244300.441          50.000  
E 9  24236367.480   127362952.828          50.000    24236371.280    95108688.863          50.000  
E15  25827128.680   135722442.723          50.000    25827133.860   101351161.910          50.000  
E27  27492920.600   144476230.996          50.000    27492925.760   107888077.852          50.000  
E30  26141074.220   137372221.246          50.000    26141079.660   102583132.605          50.000  
E36  25175598.760   132298626.102          50.000    25175603.640    98794414.742          50.000  
> 2020  7  8 23 25 43.0000000  0 16       0.000000000000
G10  21939318.340   115291851.422          50.000    21939318.100    86094565.242          50.000  
G13  23911276.180   125654652.613          50.000                                                  
G15  21827165.520   114702349.609          50.000                                                  
G16  23164428.900   121729901.137          50.000                                                  
G20  20208919.320   106198593.313          50.000                                                  
G21  22088970.580   116078348.586          50.000                                                  
G26  23243575.240   122145721.535          50.000    23243576.880    91212704.902          50.000  
G27  23690539.140   124494574.789          50.000    23690540.500    92966728.090          50.000  
G29  22726493.040   119428513.520          50.000                                                  
E 3  25870192.000   135948743.930          50.000    25870196.800   101520152.602          50.000  
E 5  24015960.100   126204697.094          50.000    24015964.080    94243756.629          50.000  
E 9  24236722.480   127364818.406          50.000    24236726.280    95110081.988          50.000  
E15  25826744.240   135720422.508          50.000    25826749.420   101349653.309          50.000  
E27  27493049.940   144476910.727          50.000    27493055.100   107888585.441          50.000  
E30  26141523.520   137374582.371          50.000    26141528.980   102584895.785          50.000  
E36  25175878.200   132300094.590          50.000    25175883.100    98795511.340          50.000  
> 2020  7  8 23 25 44.0000000  0 16       0.000000000000
G10  21938905.740   115289683.246          50.000    21938905.500    86092946.152          50.000  
G13  23911628.720   125656505.176          50.000                                                  
G15  21827352.780   114703333.652          50.000                                                  
G16  23164472.260   121730128.918          50.000                                                  
G20  20208825.240   106198098.891          50.000                                                  
G21  22088698.300   116076917.816          50.000                                                  
G26  23243962.620   122147757.270          50.000    23243964.280    91214225.090          50.000  
G27  23689921.820   124491330.746          50.000    23689923.180    92964305.594          50.000  
G29  22727100.500   119431705.820          50.000                                                  
E 3  25869647.780   135945884.027          50.000    25869652.580   101518016.965          50.000  
E 5  24015821.600   126203969.328          50.000    24015825.600    94243213.164          50.000  
E 9  24237077.560   127366684.324          50.000    24237081.360    95111475.367          50.000  
E15  25826359.820   135718402.293          50.000    25826364.980   101348144.707          50.000  
E27  27493179.380   144477590.863          50.000    27493184.540   107889093.336          50.000  
E30  26141972.860   137376943.625          50.000    26141978.300   102586659.055          50.000  
E36  25176157.680   132301563.246          50.000    25176162.560    98796608.063          50.000  
> 2020  7  8 23 25 45.0000000  0 16       0.000000000000
G10  21938493.220   115287515.434          50.000    21938492.980    86091327.332          50.000  
G13  23911981.360   125658358.297          50.000                                                  
G15  21827540.160   114704318.371          50.000                                                  
G16  23164515.720   121730357.340          50.000                                                  
G20  20208731.240   106197604.902          50.000                                                  
G21  22088426.060   116075487.133          50.000                                                  
G26  23244350.080   122149793.336          50.000    23244351.720    91215745.531          50.000  
G27  23689304.540   124488086.910          50.000    23689305.900    92961883.250          50.000  
G29  22727708.040   119434898.453          50.000                                                  
E 3  25869103.600   135943024.289          50.000    25869108.380   101515881.445          50.000  
E 5  24015683.200   126203242.012          50.000    24015687.200    94242670.039          50.000  
E 9  24237432.700   127368550.586          50.000    24237436.500    95112869.004          50.000  
E15  25825975.380   135716382.070          50.000    25825980.560   101346636.102          50.000  
E27  27493308.880   144478271.426          50.000    27493314.040   107889601.543          50.000  
E30  26142422.220   137379305.000          50.000    26142427.660   102588422.418          50.000  
E36  25176437.180   132303032.063          50.000    25176442.080    98797704.906          50.000  
> 2020  7  8 23 25 46.0000000  0 16       0.000000000000
G10  21938080.780   115285348.000          50.000    21938080.540    86089708.793          50.000  
G13  23912334.100   125660211.969          50.000                                                  
G15  21827727.680   114705303.770          50.000                                                  
G16  23164559.300   121730586.395          50.000                                                  
G20  20208637.320   106197111.355          50.000                                                  
G21  22088153.820   116074056.539          50.000                                                  
G26  23244737.600   122151829.770          50.000    23244739.240    91217266.242          50.000  
G27  23688687.300   124484843.289          50.000    23688688.660    92959461.066          50.000  
G29  22728315.640   119438091.395          50.000                                                  
E 3  25868559.440   135940164.723          50.000    25868564.220   101513746.055          50.000  
E 5  24015544.880   126202515.152          50.000    24015548.880    94242127.254          50.000  
E 9  24237787.900   127370417.188          50.000    24237791.700    95114262.895          50.000  
E15  25825590.940   135714361.848          50.000    25825596.120   101345127.496          50.000  
E27  27493438.460   144478952.402          50.000    27493443.620   107890110.066          50.000  
E30  26142871.600   137381666.508          50.000    26142877.040   102590185.883          50.000  
E36  25176716.720   132304501.031          50.000    25176721.620    98798801.859          50.000  
> 2020  7  8 23 25 47.0000000  0 16       0.000000000000
G10  21937668.400   115283180.922          50.000    21937668.160    86088090.523          50.000  
G13  23912686.960   125662066.211          50.000                                                  
G15  21827915.320   114706289.852          50.000                                                  
G16  23164603.020   121730816.078          50.000                                                  
G20  20208543.480   106196618.242          50.000                                                  
G21  22087881.600   116072626.020          50.000                                                  
G26  23245125.180   122153866.551          50.000    23245126.840    91218787.215          50.000  
G27  23688070.100   124481599.879          50.000    23688071.460    92957039.039          50.000  
G29  22728923.300   119441284.645          50.000                                                  
E 3  25868015.320   135937305.340          50.000    25868020.100   101511610.805          50.000  
E 5  24015406.660   126201788.738          50.000    24015410.640    94241584.805          50.000  
E 9  24238143.180   127372284.141          50.000    24238146.980    95115657.047          50.000  
E15  25825206.500   135712341.621          50.000    25825211.680   101343618.883          50.000  
E27  27493568.140   144479633.824          50.000    27493573.300   107890618.918          50.000  
E30  26143321.000   137384028.152          50.000    26143326.440   102591949.445          50.000  
E36  25176996.280   132305970.180          50.000    25177001.180    98799898.953          50.000  
> 2020  7  8 23 25 48.0000000  0 16       0.000000000000
G10  21937256.080   115281014.219          50.000    21937255.840    86086472.527          50.000  
G13  23913039.900   125663921.004          50.000                                                  
G15  21828103.100   114707276.609          50.000                                                  
G16  23164646.840   121731046.367          50.000                                                  
G20  20208449.740   106196125.559          50.000                                                  
G21  22087609.400   116071195.602          50.000                                                  
G26  23245512.840   122155903.688          50.000    23245514.480    91220308.453          50.000  
G27  23687452.940   124478356.684          50.000    23687454.300    92954617.176          50.000  
G29  22729531.020   119444478.211          50.000                                                  
E 3  25867471.220   135934446.109          50.000    25867476.000   101509475.664          50.000  
E 5  24015268.520   126201062.789          50.000    24015272.500    94241042.699          50.000  
E 9  24238498.500   127374151.422          50.000    24238502.300    95117051.445          50.000  
E15  25824822.060   135710321.383          50.000    25824827.240   101342110.266          50.000  
E27  27493697.880   144480315.633          50.000    27493703.040   107891128.059          50.000  
E30  26143770.440   137386389.910          50.000    26143775.880   102593713.098          50.000  
E36  25177275.880   132307439.488          50.000    25177280.780    98800996.164          50.000  
> 2020  7  8 23 25 49.0000000  0 16       0.000000000000
G10  21936843.840   115278847.875          50.000    21936843.600    86084854.809          50.000  
G13  23913392.980   125665776.371          50.000                                                  
G15  21828291.000   114708264.051          50.000                                                  
G16  23164690.780   121731277.293          50.000                                                  
G20  20208356.060   106195633.301          50.000                                                  
G21  22087337.220   116069765.273          50.000                                                  
G26  23245900.560   122157941.176          50.000    23245902.220    91221829.953          50.000  
G27  23686835.820   124475113.711          50.000    23686837.180    92952195.473          50.000  
G29  22730138.800   119447672.113          50.000                                                  
E 3  25866927.160   135931587.066          50.000    25866931.960   101507340.664          50.000  
E 5  24015130.460   126200337.293          50.000    24015134.440    94240500.934          50.000  
E 9  24238853.900   127376019.055          50.000    24238857.700    95118446.105          50.000  
E15  25824437.620   135708301.148          50.000    25824442.800   101340601.648          50.000  
E27  27493827.700   144480997.898          50.000    27493832.880   107891637.543          50.000  
E30  26144219.880   137388751.805          50.000    26144225.340   102595476.848          50.000  
E36  25177555.520   132308908.961          50.000    25177560.420    98802093.496          50.000  
> 2020  7  8 23 25 50.0000000  0 16       0.000000000000
G10  21936431.680   115276681.891          50.000    21936431.420    86083237.352          50.000  
G13  23913746.140   125667632.281          50.000                                                  
