     3.03           OBSERVATION DATA    M: Mixed            RINEX VERSION / TYPE
sbp2rinex v2.2 (RTKL                    20210504 171527 UTC PGM / RUN BY / DATE 
log: 2020-07-17-US-MTV-2.sbp                                COMMENT             
format: Swift Navigation SBP, option: CONVBASE,EPHALL,OBSALLCOMMENT             
                                                            MARKER NAME         
                                                            MARKER NUMBER       
                                                            MARKER TYPE         
                                                            OBSERVER / AGENCY   
                                                            REC # / TYPE / VERS 
                                                            ANT # / TYPE        
 -2742473.4592 -4329277.7197  3784232.9349                  APPROX POSITION XYZ 
        0.0000        0.0000        0.0000                  ANTENNA: DELTA H/E/N
G    6 C1C L1C S1C C5I L5I S5I                              SYS / # / OBS TYPES 
E    6 C1B L1B S1B C5I L5I S5I                              SYS / # / OBS TYPES 
  2020     7    17    23    12   17.0000000     GPS         TIME OF FIRST OBS   
  2020     7    17    23    42   21.0000000     GPS         TIME OF LAST OBS    
G                                                           SYS / PHASE SHIFT   
E                                                           SYS / PHASE SHIFT   
  0                                                         GLONASS SLOT / FRQ #
 C1C    0.000 C1P    0.000 C2C    0.000 C2P    0.000        GLONASS COD/PHS/BIS 
                                                            END OF HEADER       
> 2020  7 17 23 12 17.0000000  0 11       0.000000000000
G10  21432615.580   112629104.664          50.000    21432615.720    84106148.777          50.000  
G13  24513284.820   128818216.953          50.000                                                  
G15  22202920.160   116676944.449          50.000                                                  
G16  23353619.000   122724090.594          50.000                                                  
G20  20158780.180   105935105.508          50.000                                                  
G21  22005650.280   115640492.582          50.000                                                  
G26  23844914.660   125305760.934          50.000    23844917.860    93572468.480          50.000  
G27  22885669.760   120264956.992          50.000    22885671.160    89808247.082          50.000  
G29  23581263.260   123920340.051          50.000                                                  
E13  23782231.480   124976450.516          50.000    23782235.180    93326558.969          50.000  
E15  27255455.840   143228323.672          50.000    27255463.060   106956194.395          50.000  
> 2020  7 17 23 12 18.0000000  0 11       0.000000000000
G10  21432304.820   112627471.574          50.000    21432304.940    84104929.262          50.000  
G13  24513774.940   128820792.570          50.000                                                  
G15  22203280.000   116678835.496          50.000                                                  
G16  23353814.620   122725118.520          50.000                                                  
G20  20158798.300   105935200.703          50.000                                                  
G21  22005365.740   115638997.219          50.000                                                  
G26  23845375.720   125308183.801          50.000    23845378.920    93574277.762          50.000  
G27  22885126.320   120262101.148          50.000    22885127.700    89806114.473          50.000  
G29  23581939.960   123923896.094          50.000                                                  
E13  23782356.800   124977109.160          50.000    23782360.520    93327050.813          50.000  
E15  27255853.860   143230415.320          50.000    27255861.080   106957756.340          50.000  
> 2020  7 17 23 12 19.0000000  0 11       0.000000000000
G10  21431994.120   112625838.875          50.000    21431994.260    84103710.039          50.000  
G13  24514265.140   128823368.641          50.000                                                  
G15  22203639.980   116680727.145          50.000                                                  
G16  23354010.320   122726147.023          50.000                                                  
G20  20158816.480   105935296.285          50.000                                                  
G21  22005081.200   115637501.961          50.000                                                  
G26  23845836.800   125310606.867          50.000    23845840.020    93576087.191          50.000  
G27  22884582.940   120259245.660          50.000    22884584.320    89803982.129          50.000  
G29  23582616.700   123927452.375          50.000                                                  
E13  23782482.180   124977768.012          50.000    23782485.900    93327542.813          50.000  
E15  27256251.920   143232507.109          50.000    27256259.140   106959318.387          50.000  
> 2020  7 17 23 12 20.0000000  0 11       0.000000000000
G10  21431683.500   112624206.559          50.000    21431683.640    84102491.102          50.000  
G13  24514755.440   128825945.164          50.000                                                  
G15  22204000.060   116682619.398          50.000                                                  
G16  23354206.160   122727176.078          50.000                                                  
G20  20158834.740   105935392.254          50.000                                                  
G21  22004796.680   115636006.789          50.000                                                  
G26  23846297.940   125313030.133          50.000    23846301.160    93577896.773          50.000  
G27  22884039.620   120256390.520          50.000    22884041.000    89801850.043          50.000  
G29  23583293.480   123931008.867          50.000                                                  
E13  23782607.600   124978427.082          50.000    23782611.320    93328034.977          50.000  
E15  27256650.000   143234599.016          50.000    27256657.220   106960880.523          50.000  
> 2020  7 17 23 12 21.0000000  0 11       0.000000000000
G10  21431372.960   112622574.629          50.000    21431373.080    84101272.453          50.000  
G13  24515245.820   128828522.137          50.000                                                  
G15  22204360.260   116684512.254          50.000                                                  
G16  23354402.080   122728205.691          50.000                                                  
G20  20158853.080   105935488.617          50.000                                                  
G21  22004512.160   115634511.719          50.000                                                  
G26  23846759.120   125315453.605          50.000    23846762.320    93579706.508          50.000  
G27  22883496.360   120253535.719          50.000    22883497.760    89799718.211          50.000  
G29  23583970.300   123934565.586          50.000                                                  
E13  23782733.060   124979086.387          50.000    23782736.780    93328527.313          50.000  
E15  27257048.100   143236691.070          50.000    27257055.320   106962442.770          50.000  
> 2020  7 17 23 12 22.0000000  0 11       0.000000000000
G10  21431062.480   112620943.078          50.000    21431062.620    84100054.086          50.000  
G13  24515736.300   128831099.566          50.000                                                  
G15  22204720.580   116686405.723          50.000                                                  
G16  23354598.120   122729235.863          50.000                                                  
G20  20158871.500   105935585.363          50.000                                                  
G21  22004227.680   115633016.738          50.000                                                  
G26  23847220.320   125317877.273          50.000    23847223.540    93581516.391          50.000  
G27  22882953.180   120250681.270          50.000    22882954.580    89797586.645          50.000  
G29  23584647.160   123938122.520          50.000                                                  
E13  23782858.560   124979745.902          50.000    23782862.280    93329019.809          50.000  
E15  27257446.220   143238783.258          50.000    27257453.460   106964005.121          50.000  
> 2020  7 17 23 12 23.0000000  0 11       0.000000000000
G10  21430752.080   112619311.895          50.000    21430752.200    84098835.996          50.000  
G13  24516226.840   128833677.434          50.000                                                  
G15  22205081.000   116688299.781          50.000                                                  
G16  23354794.260   122730266.590          50.000                                                  
G20  20158889.980   105935682.512          50.000                                                  
G21  22003943.220   115631521.848          50.000                                                  
G26  23847681.580   125320301.148          50.000    23847684.780    93583326.426          50.000  
G27  22882410.060   120247827.168          50.000    22882411.460    89795455.336          50.000  
G29  23585324.060   123941679.680          50.000                                                  
E13  23782984.100   124980405.637          50.000    23782987.820    93329512.469          50.000  
E15  27257844.380   143240875.578          50.000    27257851.620   106965567.566          50.000  
> 2020  7 17 23 12 24.0000000  0 11       0.000000000000
G10  21430441.740   112617681.098          50.000    21430441.880    84097618.195          50.000  
G13  24516717.480   128836255.750          50.000                                                  
G15  22205441.540   116690194.445          50.000                                                  
G16  23354990.500   122731297.867          50.000                                                  
G20  20158908.540   105935780.047          50.000                                                  
G21  22003658.760   115630027.063          50.000                                                  
G26  23848142.860   125322725.219          50.000    23848146.080    93585136.605          50.000  
G27  22881867.020   120244973.410          50.000    22881868.400    89793324.281          50.000  
G29  23586001.020   123945237.059          50.000                                                  
E13  23783109.700   124981065.582          50.000    23783113.400    93330005.285          50.000  
E15  27258242.560   143242968.023          50.000    27258249.800   106967130.102          50.000  
> 2020  7 17 23 12 25.0000000  0 11       0.000000000000
G10  21430131.480   112616050.688          50.000    21430131.620    84096400.680          50.000  
G13  24517208.220   128838834.523          50.000                                                  
G15  22205802.200   116692089.711          50.000                                                  
G16  23355186.860   122732329.707          50.000                                                  
G20  20158927.180   105935877.969          50.000                                                  
G21  22003374.340   115628532.355          50.000                                                  
G26  23848604.180   125325149.488          50.000    23848607.400    93586946.934          50.000  
G27  22881324.020   120242119.992          50.000    22881325.420    89791193.484          50.000  
G29  23586678.000   123948794.668          50.000                                                  
E13  23783235.320   124981725.742          50.000    23783239.020    93330498.262          50.000  
E15  27258640.780   143245060.613          50.000    27258648.000   106968692.754          50.000  
> 2020  7 17 23 12 26.0000000  0 11       0.000000000000
G10  21429821.300   112614420.660          50.000    21429821.440    84095183.453          50.000  
G13  24517699.020   128841413.750          50.000                                                  
G15  22206162.980   116693985.590          50.000                                                  
G16  23355383.320   122733362.094          50.000                                                  
G20  20158945.880   105935976.281          50.000                                                  
G21  22003089.920   115627037.750          50.000                                                  
G26  23849065.540   125327573.969          50.000    23849068.760    93588757.422          50.000  
G27  22880781.100   120239266.930          50.000    22880782.500    89789062.953          50.000  
G29  23587355.040   123952352.484          50.000                                                  
E13  23783360.980   124982386.133          50.000    23783364.700    93330991.406          50.000  
E15  27259039.000   143247153.328          50.000    27259046.240   106970255.492          50.000  
> 2020  7 17 23 12 27.0000000  0 11       0.000000000000
G10  21429511.200   112612791.012          50.000    21429511.320    84093966.508          50.000  
G13  24518189.920   128843993.422          50.000                                                  
G15  22206523.860   116695882.059          50.000                                                  
G16  23355579.880   122734395.039          50.000                                                  
G20  20158964.660   105936074.988          50.000                                                  
G21  22002805.520   115625543.238          50.000                                                  
G26  23849526.940   125329998.645          50.000    23849530.160    93590568.059          50.000  
G27  22880238.240   120236414.219          50.000    22880239.640    89786932.680          50.000  
G29  23588032.120   123955910.520          50.000                                                  
E13  23783486.700   124983046.727          50.000    23783490.400    93331484.707          50.000  
E15  27259437.260   143249246.180          50.000    27259444.500   106971818.332          50.000  
> 2020  7 17 23 12 28.0000000  0 11       0.000000000000
G10  21429201.160   112611161.738          50.000    21429201.280    84092749.844          50.000  
G13  24518680.900   128846573.547          50.000                                                  
G15  22206884.860   116697779.137          50.000                                                  
G16  23355776.540   122735428.535          50.000                                                  
G20  20158983.520   105936174.082          50.000                                                  
G21  22002521.140   115624048.813          50.000                                                  
G26  23849988.380   125332423.520          50.000    23849991.600    93592378.836          50.000  
G27  22879695.460   120233561.848          50.000    22879696.840    89784802.664          50.000  
G29  23588709.220   123959468.773          50.000                                                  
E13  23783612.440   124983707.551          50.000    23783616.160    93331978.180          50.000  
E15  27259835.540   143251339.164          50.000    27259842.780   106973381.277          50.000  
> 2020  7 17 23 12 29.0000000  0 11       0.000000000000
G10  21428891.180   112609532.863          50.000    21428891.320    84091533.477          50.000  
G13  24519171.960   128849154.117          50.000                                                  
G15  22207245.980   116699676.820          50.000                                                  
G16  23355973.320   122736462.602          50.000                                                  
G20  20159002.460   105936273.586          50.000                                                  
G21  22002236.780   115622554.480          50.000                                                  
G26  23850449.860   125334848.598          50.000    23850453.080    93594189.770          50.000  
G27  22879152.740   120230709.836          50.000    22879154.120    89782672.918          50.000  
G29  23589386.380   123963027.270          50.000                                                  
E13  23783738.240   124984368.598          50.000    23783741.940    93332471.820          50.000  
E15  27260233.860   143253432.293          50.000    27260241.080   106974944.324          50.000  
> 2020  7 17 23 12 30.0000000  0 11       0.000000000000
G10  21428581.300   112607904.355          50.000    21428581.420    84090317.383          50.000  
G13  24519663.120   128851735.141          50.000                                                  
G15  22207607.220   116701575.102          50.000                                                  
G16  23356170.200   122737497.211          50.000                                                  
G20  20159021.460   105936373.469          50.000                                                  
G21  22001952.440   115621060.246          50.000                                                  
G26  23850911.380   125337273.879          50.000    23850914.600    93596000.855          50.000  
G27  22878610.080   120227858.160          50.000    22878611.480    89780543.422          50.000  
G29  23590063.580   123966585.961          50.000                                                  
E13  23783864.060   124985029.852          50.000    23783867.780    93332965.613          50.000  
E15  27260632.180   143255525.547          50.000    27260639.420   106976507.469          50.000  
> 2020  7 17 23 12 31.0000000  0 11       0.000000000000
G10  21428271.460   112606276.234          50.000    21428271.600    84089101.582          50.000  
G13  24520154.360   128854316.617          50.000                                                  
G15  22207968.560   116703473.996          50.000                                                  
G16  23356367.180   122738532.379          50.000                                                  
G20  20159040.540   105936473.738          50.000                                                  
G21  22001668.100   115619566.102          50.000                                                  
G26  23851372.940   125339699.352          50.000    23851376.160    93597812.086          50.000  
G27  22878067.500   120225006.832          50.000    22878068.880    89778414.184          50.000  
G29  23590740.820   123970144.875          50.000                                                  
E13  23783989.940   124985691.336          50.000    23783993.660    93333459.578          50.000  
E15  27261030.540   143257618.930          50.000    27261037.780   106978070.707          50.000  
> 2020  7 17 23 12 32.0000000  0 11       0.000000000000
G10  21427961.720   112604648.488          50.000    21427961.840    84087886.059          50.000  
G13  24520645.680   128856898.543          50.000                                                  
G15  22208330.020   116705373.480          50.000                                                  
G16  23356564.280   122739568.082          50.000                                                  
G20  20159059.700   105936574.398          50.000                                                  
G21  22001383.800   115618072.047          50.000                                                  
G26  23851834.520   125342125.031          50.000    23851837.740    93599623.469          50.000  
G27  22877524.960   120222155.855          50.000    22877526.360    89776285.207          50.000  
G29  23591418.100   123973704.016          50.000                                                  
E13  23784115.860   124986353.027          50.000    23784119.580    93333953.699          50.000  
E15  27261428.920   143259712.445          50.000    27261436.160   106979634.047          50.000  
> 2020  7 17 23 12 33.0000000  0 11       0.000000000000
G10  21427652.040   112603021.121          50.000    21427652.180    84086670.816          50.000  
G13  24521137.080   128859480.902          50.000                                                  
G15  22208691.600   116707273.570          50.000                                                  
G16  23356761.480   122740604.355          50.000                                                  
G20  20159078.940   105936675.457          50.000                                                  
G21  22001099.500   115616578.082          50.000                                                  
G26  23852296.160   125344550.910          50.000    23852299.380    93601435.000          50.000  
G27  22876982.520   120219305.223          50.000    22876983.900    89774156.492          50.000  
G29  23592095.420   123977263.363          50.000                                                  
E13  23784241.820   124987014.941          50.000    23784245.520    93334447.984          50.000  
E15  27261827.340   143261806.117          50.000    27261834.580   106981197.500          50.000  
> 2020  7 17 23 12 34.0000000  0 11       0.000000000000
G10  21427342.440   112601394.141          50.000    21427342.560    84085455.863          50.000  
G13  24521628.580   128862063.723          50.000                                                  
G15  22209053.280   116709174.258          50.000                                                  
G16  23356958.780   122741641.188          50.000                                                  
G20  20159098.240   105936776.902          50.000                                                  
G21  22000815.240   115615084.203          50.000                                                  
G26  23852757.820   125346976.977          50.000    23852761.040    93603246.672          50.000  
G27  22876440.120   120216454.938          50.000    22876441.500    89772028.031          50.000  
G29  23592772.800   123980822.938          50.000                                                  
E13  23784367.820   124987677.066          50.000    23784371.520    93334942.430          50.000  
E15  27262225.780   143263899.910          50.000    27262233.020   106982761.047          50.000  
> 2020  7 17 23 12 35.0000000  0 11       0.000000000000
G10  21427032.900   112599767.547          50.000    21427033.040    84084241.199          50.000  
G13  24522120.160   128864646.984          50.000                                                  
G15  22209415.100   116711075.543          50.000                                                  
G16  23357156.180   122742678.563          50.000                                                  
G20  20159117.620   105936878.742          50.000                                                  
G21  22000530.980   115613590.426          50.000                                                  
G26  23853219.520   125349403.262          50.000    23853222.740    93605058.508          50.000  
G27  22875897.800   120213605.012          50.000    22875899.180    89769899.840          50.000  
G29  23593450.200   123984382.727          50.000                                                  
E13  23784493.860   124988339.422          50.000    23784497.580    93335437.043          50.000  
E15  27262624.240   143265993.844          50.000    27262631.480   106984324.695          50.000  
> 2020  7 17 23 12 36.0000000  0 11       0.000000000000
G10  21426723.440   112598141.332          50.000    21426723.580    84083026.816          50.000  
G13  24522611.820   128867230.703          50.000                                                  
G15  22209777.020   116712977.445          50.000                                                  
G16  23357353.700   122743716.512          50.000                                                  
G20  20159137.060   105936980.973          50.000                                                  
G21  22000246.740   115612096.750          50.000                                                  
G26  23853681.280   125351829.738          50.000    23853684.500    93606870.484          50.000  
G27  22875355.540   120210755.426          50.000    22875356.920    89767771.906          50.000  
G29  23594127.640   123987942.730          50.000                                                  
E13  23784619.940   124989001.996          50.000    23784623.660    93335931.824          50.000  
E15  27263022.720   143268087.895          50.000    27263029.960   106985888.434          50.000  
> 2020  7 17 23 12 37.0000000  0 11       0.000000000000
G10  21426414.060   112596515.488          50.000    21426414.180    84081812.715          50.000  
G13  24523103.580   128869814.867          50.000                                                  
G15  22210139.040   116714879.945          50.000                                                  
G16  23357551.320   122744755.004          50.000                                                  
G20  20159156.600   105937083.586          50.000                                                  
G21  21999962.520   115610603.156          50.000                                                  
G26  23854143.060   125354256.410          50.000    23854146.280    93608682.609          50.000  
G27  22874813.340   120207906.191          50.000    22874814.740    89765644.230          50.000  
G29  23594805.140   123991502.969          50.000                                                  
E13  23784746.060   124989664.785          50.000    23784749.780    93336426.762          50.000  
E15  27263421.240   143270182.086          50.000    27263428.480   106987452.277          50.000  
> 2020  7 17 23 12 38.0000000  0 11       0.000000000000
G10  21426104.740   112594890.035          50.000    21426104.880    84080598.902          50.000  
G13  24523595.420   128872399.484          50.000                                                  
G15  22210501.200   116716783.039          50.000                                                  
G16  23357749.040   122745794.059          50.000                                                  
G20  20159176.200   105937186.602          50.000                                                  
G21  21999678.320   115609109.660          50.000                                                  
G26  23854604.880   125356683.289          50.000    23854608.100    93610494.887          50.000  
G27  22874271.220   120205057.301          50.000    22874272.600    89763516.816          50.000  
G29  23595482.680   123995063.426          50.000                                                  
E13  23784872.240   124990327.789          50.000    23784875.940    93336921.863          50.000  
E15  27263819.780   143272276.410          50.000    27263827.020   106989016.219          50.000  
> 2020  7 17 23 12 39.0000000  0 11       0.000000000000
G10  21425795.500   112593264.965          50.000    21425795.640    84079385.379          50.000  
G13  24524087.340   128874984.551          50.000                                                  
G15  22210863.460   116718686.746          50.000                                                  
G16  23357946.880   122746833.668          50.000                                                  
G20  20159195.880   105937289.992          50.000                                                  
G21  21999394.120   115607616.262          50.000                                                  
G26  23855066.740   125359110.363          50.000    23855069.960    93612307.313          50.000  
G27  22873729.160   120202208.762          50.000    22873730.540    89761389.660          50.000  
G29  23596160.240   123998624.094          50.000                                                  
E13  23784998.440   124990991.016          50.000    23785002.160    93337417.129          50.000  
E15  27264218.340   143274370.879          50.000    27264225.580   106990580.270          50.000  
> 2020  7 17 23 12 40.0000000  0 11       0.000000000000
G10  21425486.340   112591640.273          50.000    21425486.460    84078172.133          50.000  
G13  24524579.340   128877570.063          50.000                                                  
G15  22211225.840   116720591.039          50.000                                                  
G16  23358144.820   122747873.824          50.000                                                  
G20  20159215.620   105937393.785          50.000                                                  
G21  21999109.960   115606122.953          50.000                                                  
G26  23855528.620   125361537.645          50.000    23855531.860    93614119.887          50.000  
G27  22873187.160   120199360.578          50.000    22873188.560    89759262.770          50.000  
G29  23596837.860   124002184.992          50.000                                                  
E13  23785124.700   124991654.465          50.000    23785128.400    93337912.559          50.000  
E15  27264616.920   143276465.473          50.000    27264624.160   106992144.414          50.000  
> 2020  7 17 23 12 41.0000000  0 11       0.000000000000
G10  21425177.240   112590015.980          50.000    21425177.380    84076959.188          50.000  
G13  24525071.440   128880156.012          50.000                                                  
G15  22211588.320   116722495.938          50.000                                                  
G16  23358342.860   122748914.543          50.000                                                  
G20  20159235.440   105937497.961          50.000                                                  
G21  21998825.800   115604629.730          50.000                                                  
G26  23855990.560   125363965.117          50.000    23855993.780    93615932.609          50.000  
G27  22872645.240   120196512.742          50.000    22872646.620    89757136.141          50.000  
G29  23597515.520   124005746.102          50.000                                                  
E13  23785250.980   124992318.129          50.000    23785254.700    93338408.156          50.000  
E15  27265015.540   143278560.191          50.000    27265022.780   106993708.648          50.000  
> 2020  7 17 23 12 42.0000000  0 11       0.000000000000
G10  21424868.220   112588392.055          50.000    21424868.340    84075746.516          50.000  
G13  24525563.620   128882742.430          50.000                                                  
G15  22211950.920   116724401.434          50.000                                                  
G16  23358541.000   122749955.816          50.000                                                  
G20  20159255.360   105937602.543          50.000                                                  
G21  21998541.680   115603136.609          50.000                                                  
G26  23856452.540   125366392.793          50.000    23856455.760    93617745.484          50.000  
G27  22872103.380   120193665.250          50.000    22872104.760    89755009.770          50.000  
G29  23598193.220   124009307.434          50.000                                                  
E13  23785377.320   124992982.008          50.000    23785381.020    93338903.910          50.000  
E15  27265414.180   143280655.055          50.000    27265421.420   106995272.992          50.000  
> 2020  7 17 23 12 43.0000000  0 11       0.000000000000
G10  21424559.260   112586768.492          50.000    21424559.400    84074534.117          50.000  
G13  24526055.880   128885329.285          50.000                                                  
G15  22212313.640   116726307.535          50.000                                                  
G16  23358739.260   122750997.641          50.000                                                  
G20  20159275.320   105937707.508          50.000                                                  
G21  21998257.560   115601643.574          50.000                                                  
G26  23856914.540   125368820.664          50.000    23856917.760    93619558.504          50.000  
G27  22871561.580   120190818.109          50.000    22871562.980    89752883.656          50.000  
G29  23598870.960   124012868.992          50.000                                                  
E13  23785503.700   124993646.113          50.000    23785507.400    93339399.832          50.000  
E15  27265812.840   143282750.059          50.000    27265820.080   106996837.445          50.000  
> 2020  7 17 23 12 44.0000000  0 11       0.000000000000
G10  21424250.380   112585145.332          50.000    21424250.520    84073322.020          50.000  
G13  24526548.220   128887916.598          50.000                                                  
G15  22212676.480   116728214.234          50.000                                                  
G16  23358937.620   122752040.012          50.000                                                  
G20  20159295.380   105937812.867          50.000                                                  
G21  21997973.460   115600150.637          50.000                                                  
G26  23857376.600   125371248.742          50.000    23857379.820    93621371.676          50.000  
G27  22871019.860   120187971.320          50.000    22871021.240    89750757.809          50.000  
G29  23599548.740   124016430.746          50.000                                                  
E13  23785630.100   124994310.434          50.000    23785633.820    93339895.914          50.000  
E15  27266211.540   143284845.152          50.000    27266218.780   106998401.961          50.000  
> 2020  7 17 23 12 45.0000000  0 11       0.000000000000
G10  21423941.580   112583522.547          50.000    21423941.700    84072110.199          50.000  
G13  24527040.660   128890504.352          50.000                                                  
G15  22213039.420   116730121.535          50.000                                                  
G16  23359136.080   122753082.938          50.000                                                  
G20  20159315.500   105937918.617          50.000                                                  
G21  21997689.380   115598657.785          50.000                                                  
G26  23857838.680   125373677.004          50.000    23857841.900    93623184.988          50.000  
G27  22870478.200   120185124.871          50.000    22870479.580    89748632.215          50.000  
G29  23600226.580   124019992.727          50.000                                                  
E13  23785756.560   124994974.969          50.000    23785760.280    93340392.156          50.000  
E15  27266610.240   143286940.422          50.000    27266617.480   106999966.609          50.000  
> 2020  7 17 23 12 46.0000000  0 11       0.000000000000
G10  21423632.840   112581900.133          50.000    21423632.980    84070898.656          50.000  
G13  24527533.180   128893092.555          50.000                                                  
G15  22213402.480   116732029.434          50.000                                                  
G16  23359334.640   122754126.430          50.000                                                  
G20  20159335.700   105938024.758          50.000                                                  
G21  21997405.320   115597165.043          50.000                                                  
G26  23858300.800   125376105.469          50.000    23858304.020    93624998.449          50.000  
G27  22869936.600   120182278.781          50.000    22869937.980    89746506.887          50.000  
G29  23600904.440   124023554.926          50.000                                                  
E13  23785883.060   124995639.727          50.000    23785886.780    93340888.570          50.000  
E15  27267009.000   143289035.848          50.000    27267016.240   107001531.375          50.000  
> 2020  7 17 23 12 47.0000000  0 11       0.000000000000
G10  21423324.180   112580278.117          50.000    21423324.320    84069687.410          50.000  
G13  24528025.780   128895681.199          50.000                                                  
G15  22213765.660   116733937.941          50.000                                                  
G16  23359533.320   122755170.477          50.000                                                  
G20  20159355.960   105938131.301          50.000                                                  
G21  21997121.280   115595672.383          50.000                                                  
G26  23858762.960   125378534.133          50.000    23858766.180    93626812.063          50.000  
G27  22869395.080   120179433.031          50.000    22869396.460    89744381.816          50.000  
G29  23601582.340   124027117.348          50.000                                                  
E13  23786009.600   124996304.699          50.000    23786013.320    93341385.141          50.000  
E15  27267407.760   143291131.375          50.000    27267415.000   107003096.215          50.000  
> 2020  7 17 23 12 48.0000000  0 11       0.000000000000
G10  21423015.600   112578656.469          50.000    21423015.720    84068476.441          50.000  
G13  24528518.480   128898270.305          50.000                                                  
G15  22214128.960   116735847.051          50.000                                                  
G16  23359732.100   122756215.070          50.000                                                  
G20  20159376.320   105938238.219          50.000                                                  
G21  21996837.260   115594179.820          50.000                                                  
G26  23859225.160   125380962.996          50.000    23859228.380    93628625.820          50.000  
G27  22868853.620   120176587.641          50.000    22868855.000    89742257.016          50.000  
G29  23602260.300   124030679.984          50.000                                                  
E13  23786136.180   124996969.895          50.000    23786139.900    93341881.875          50.000  
E15  27267806.560   143293227.055          50.000    27267813.800   107004661.168          50.000  
> 2020  7 17 23 12 49.0000000  0 11       0.000000000000
G10  21422707.080   112577035.215          50.000    21422707.200    84067265.766          50.000  
G13  24529011.240   128900859.855          50.000                                                  
G15  22214492.360   116737756.762          50.000                                                  
G16  23359930.980   122757260.219          50.000                                                  
G20  20159396.740   105938345.527          50.000                                                  
G21  21996553.240   115592687.352          50.000                                                  
G26  23859687.400   125383392.055          50.000    23859690.620    93630439.727          50.000  
G27  22868312.220   120173742.578          50.000    22868313.600    89740132.453          50.000  
G29  23602938.280   124034242.832          50.000                                                  
E13  23786262.820   124997635.305          50.000    23786266.520    93342378.773          50.000  
E15  27268205.380   143295322.836          50.000    27268212.620   107006226.199          50.000  
> 2020  7 17 23 12 50.0000000  0 11       0.000000000000
G10  21422398.640   112575414.348          50.000    21422398.760    84066055.379          50.000  
G13  24529504.100   128903449.852          50.000                                                  
G15  22214855.880   116739667.074          50.000                                                  
G16  23360129.980   122758305.926          50.000                                                  
G20  20159417.220   105938453.223          50.000                                                  
G21  21996269.260   115591194.977          50.000                                                  
G26  23860149.660   125385821.320          50.000    23860152.900    93632253.789          50.000  
G27  22867770.900   120170897.891          50.000    22867772.280    89738008.176          50.000  
G29  23603616.320   124037805.914          50.000                                                  
E13  23786389.480   124998300.945          50.000    23786393.180    93342875.840          50.000  
E15  27268604.220   143297418.773          50.000    27268611.460   107007791.348          50.000  
> 2020  7 17 23 12 51.0000000  0 11       0.000000000000
G10  21422090.260   112573793.844          50.000    21422090.400    84064845.258          50.000  
G13  24529997.060   128906040.289          50.000                                                  
G15  22215219.520   116741577.988          50.000                                                  
G16  23360329.080   122759352.191          50.000                                                  
G20  20159437.800   105938561.313          50.000                                                  
G21  21995985.280   115589702.691          50.000                                                  
G26  23860611.980   125388250.770          50.000    23860615.200    93634067.988          50.000  
G27  22867229.620   120168053.547          50.000    22867231.020    89735884.152          50.000  
G29  23604294.380   124041369.207          50.000                                                  
E13  23786516.180   124998966.793          50.000    23786519.900    93343373.063          50.000  
E15  27269003.080   143299514.832          50.000    27269010.320   107009356.586          50.000  
> 2020  7 17 23 12 52.0000000  0 11       0.000000000000
G10  21421781.960   112572173.727          50.000    21421782.100    84063635.434          50.000  
G13  24530490.080   128908631.184          50.000                                                  
G15  22215583.260   116743489.504          50.000                                                  
G16  23360528.280   122760399.016          50.000                                                  
G20  20159458.440   105938669.805          50.000                                                  
G21  21995701.340   115588210.508          50.000                                                  
G26  23861074.320   125390680.430          50.000    23861077.560    93635882.344          50.000  
G27  22866688.440   120165209.555          50.000    22866689.820    89733760.395          50.000  
G29  23604972.500   124044932.723          50.000                                                  
E13  23786642.940   124999632.871          50.000    23786646.640    93343870.457          50.000  
E15  27269401.980   143301611.039          50.000    27269409.220   107010921.930          50.000  
> 2020  7 17 23 12 53.0000000  0 11       0.000000000000
G10  21421473.740   112570553.992          50.000    21421473.880    84062425.891          50.000  
G13  24530983.200   128911222.523          50.000                                                  
G15  22215947.140   116745401.609          50.000                                                  
G16  23360727.580   122761446.375          50.000                                                  
G20  20159479.160   105938778.664          50.000                                                  
G21  21995417.400   115586718.402          50.000                                                  
G26  23861536.720   125393110.301          50.000    23861539.940    93637696.855          50.000  
G27  22866147.300   120162365.902          50.000    22866148.680    89731636.887          50.000  
G29  23605650.660   124048496.441          50.000                                                  
E13  23786769.720   125000299.145          50.000    23786773.440    93344368.000          50.000  
E15  27269800.900   143303707.367          50.000    27269808.140   107012487.371          50.000  
> 2020  7 17 23 12 54.0000000  0 11       0.000000000000
G10  21421165.600   112568934.637          50.000    21421165.720    84061216.633          50.000  
G13  24531476.400   128913814.313          50.000                                                  
G15  22216311.100   116747314.328          50.000                                                  
G16  23360927.000   122762494.301          50.000                                                  
G20  20159499.940   105938887.922          50.000                                                  
G21  21995133.480   115585226.406          50.000                                                  
G26  23861999.140   125395540.359          50.000    23862002.380    93639511.508          50.000  
G27  22865606.240   120159522.605          50.000    22865607.620    89729513.648          50.000  
G29  23606328.860   124052060.371          50.000                                                  
E13  23786896.560   125000965.652          50.000    23786900.260    93344865.719          50.000  
E15  27270199.840   143305803.832          50.000    27270207.080   107014052.910          50.000  
> 2020  7 17 23 12 55.0000000  0 11       0.000000000000
G10  21420857.520   112567315.668          50.000    21420857.640    84060007.664          50.000  
G13  24531969.680   128916406.543          50.000                                                  
G15  22216675.200   116749227.645          50.000                                                  
G16  23361126.520   122763542.770          50.000                                                  
G20  20159520.820   105938997.574          50.000                                                  
G21  21994849.580   115583734.508          50.000                                                  
G26  23862461.600   125397970.602          50.000    23862464.840    93641326.297          50.000  
G27  22865065.240   120156679.648          50.000    22865066.620    89727390.664          50.000  
G29  23607007.100   124055624.539          50.000                                                  
E13  23787023.420   125001632.379          50.000    23787027.140    93345363.598          50.000  
E15  27270598.820   143307900.438          50.000    27270606.060   107015618.555          50.000  
> 2020  7 17 23 12 56.0000000  0 11       0.000000000000
G10  21420549.500   112565697.070          50.000    21420549.620    84058798.973          50.000  
G13  24532463.060   128918999.227          50.000                                                  
G15  22217039.400   116751141.559          50.000                                                  
G16  23361326.140   122764591.789          50.000                                                  
G20  20159541.760   105939107.617          50.000                                                  
G21  21994565.700   115582242.699          50.000                                                  
G26  23862924.100   125400401.051          50.000    23862927.340    93643141.242          50.000  
G27  22864524.320   120153837.051          50.000    22864525.700    89725267.941          50.000  
G29  23607685.380   124059188.918          50.000                                                  
E13  23787150.340   125002299.316          50.000    23787154.060    93345861.637          50.000  
E15  27270997.800   143309997.160          50.000    27271005.060   107017184.289          50.000  
> 2020  7 17 23 12 57.0000000  0 11       0.000000000000
G10  21420241.560   112564078.875          50.000    21420241.700    84057590.578          50.000  
G13  24532956.520   128921592.371          50.000                                                  
G15  22217403.720   116753056.082          50.000                                                  
G16  23361525.880   122765641.379          50.000                                                  
G20  20159562.780   105939218.051          50.000                                                  
G21  21994281.840   115580750.988          50.000                                                  
G26  23863386.640   125402831.695          50.000    23863389.860    93644956.332          50.000  
G27  22863983.460   120150994.809          50.000    22863984.840    89723145.492          50.000  
G29  23608363.700   124062753.523          50.000                                                  
E13  23787277.300   125002966.488          50.000    23787281.020    93346359.848          50.000  
E15  27271396.840   143312094.035          50.000    27271404.080   107018750.137          50.000  
> 2020  7 17 23 12 58.0000000  0 11       0.000000000000
G10  21419933.700   112562461.039          50.000    21419933.840    84056382.457          50.000  
G13  24533450.060   128924185.938          50.000                                                  
G15  22217768.160   116754971.203          50.000                                                  
G16  23361725.700   122766691.512          50.000                                                  
G20  20159583.860   105939328.871          50.000                                                  
G21  21993997.980   115579259.355          50.000                                                  
G26  23863849.220   125405262.543          50.000    23863852.440    93646771.574          50.000  
G27  22863442.660   120148152.906          50.000    22863444.040    89721023.293          50.000  
G29  23609042.060   124066318.336          50.000                                                  
E13  23787404.300   125003633.875          50.000    23787408.020    93346858.223          50.000  
E15  27271795.880   143314191.051          50.000    27271803.120   107020316.090          50.000  
> 2020  7 17 23 12 59.0000000  0 11       0.000000000000
G10  21419625.920   112560843.594          50.000    21419626.040    84055174.625          50.000  
G13  24533943.680   128926779.957          50.000                                                  
G15  22218132.720   116756886.930          50.000                                                  
G16  23361925.640   122767742.191          50.000                                                  
G20  20159605.020   105939440.078          50.000                                                  
G21  21993714.160   115577767.828          50.000                                                  
G26  23864311.820   125407693.586          50.000    23864315.060    93648586.965          50.000  
G27  22862901.940   120145311.371          50.000    22862903.320    89718901.367          50.000  
G29  23609720.460   124069883.379          50.000                                                  
E13  23787531.340   125004301.480          50.000    23787535.060    93347356.758          50.000  
E15  27272194.960   143316288.195          50.000    27272202.200   107021882.137          50.000  
> 2020  7 17 23 13  0.0000000  0 11       0.000000000000
G10  21419318.200   112559226.523          50.000    21419318.320    84053967.074          50.000  
G13  24534437.400   128929374.422          50.000                                                  
G15  22218497.380   116758803.250          50.000                                                  
G16  23362125.700   122768793.434          50.000                                                  
G20  20159626.260   105939551.672          50.000                                                  
G21  21993430.340   115576276.383          50.000                                                  
G26  23864774.480   125410124.820          50.000    23864777.700    93650402.492          50.000  
G27  22862361.280   120142470.176          50.000    22862362.660    89716779.699          50.000  
G29  23610398.920   124073448.625          50.000                                                  
E13  23787658.420   125004969.301          50.000    23787662.140    93347855.453          50.000  
E15  27272594.060   143318385.445          50.000    27272601.300   107023448.266          50.000  
> 2020  7 17 23 13  1.0000000  0 11       0.000000000000
G10  21419010.540   112557609.836          50.000    21419010.680    84052759.809          50.000  
G13  24534931.200   128931969.340          50.000                                                  
G15  22218862.160   116760720.176          50.000                                                  
G16  23362325.840   122769845.219          50.000                                                  
G20  20159647.560   105939663.664          50.000                                                  
G21  21993146.560   115574785.051          50.000                                                  
G26  23865237.160   125412556.250          50.000    23865240.400    93652218.168          50.000  
G27  22861820.680   120139629.336          50.000    22861822.060    89714658.293          50.000  
G29  23611077.400   124077014.098          50.000                                                  
E13  23787785.540   125005637.344          50.000    23787789.260    93348354.316          50.000  
E15  27272993.180   143320482.863          50.000    27273000.420   107025014.516          50.000  
> 2020  7 17 23 13  2.0000000  0 11       0.000000000000
G10  21418702.980   112555993.547          50.000    21418703.100    84051552.840          50.000  
G13  24535425.080   128934564.695          50.000                                                  
G15  22219227.060   116762637.703          50.000                                                  
G16  23362526.100   122770897.566          50.000                                                  
G20  20159668.960   105939776.055          50.000                                                  
G21  21992862.780   115573293.797          50.000                                                  
G26  23865699.900   125414987.895          50.000    23865703.120    93654034.008          50.000  
G27  22861280.140   120136788.844          50.000    22861281.520    89712537.148          50.000  
G29  23611755.940   124080579.797          50.000                                                  
E13  23787912.720   125006305.609          50.000    23787916.420    93348853.348          50.000  
E15  27273392.320   143322580.402          50.000    27273399.560   107026580.859          50.000  
> 2020  7 17 23 13  3.0000000  0 11       0.000000000000
G10  21418395.480   112554377.625          50.000    21418395.600    84050346.145          50.000  
G13  24535919.040   128937160.508          50.000                                                  
G15  22219592.060   116764555.828          50.000                                                  
G16  23362726.460   122771950.473          50.000                                                  
G20  20159690.420   105939888.813          50.000                                                  
G21  21992579.020   115571802.637          50.000                                                  
G26  23866162.660   125417419.715          50.000    23866165.880    93655849.977          50.000  
G27  22860739.680   120133948.703          50.000    22860741.060    89710416.266          50.000  
G29  23612434.500   124084145.695          50.000                                                  
E13  23788039.920   125006974.078          50.000    23788043.640    93349352.527          50.000  
E15  27273791.500   143324678.066          50.000    27273798.740   107028147.297          50.000  
> 2020  7 17 23 13  4.0000000  0 11       0.000000000000
G10  21418088.040   112552762.070          50.000    21418088.180    84049139.727          50.000  
G13  24536413.080   128939756.766          50.000                                                  
G15  22219957.180   116766474.559          50.000                                                  
G16  23362926.920   122773003.930          50.000                                                  
G20  20159711.940   105940001.973          50.000                                                  
G21  21992295.280   115570311.570          50.000                                                  
G26  23866625.460   125419851.738          50.000    23866628.680    93657666.094          50.000  
G27  22860199.300   120131108.922          50.000    22860200.680    89708295.648          50.000  
G29  23613113.120   124087711.828          50.000                                                  
E13  23788167.180   125007642.789          50.000    23788170.880    93349851.887          50.000  
E15  27274190.700   143326775.891          50.000    27274197.940   107029713.852          50.000  
> 2020  7 17 23 13  5.0000000  0 11       0.000000000000
G10  21417780.700   112551146.914          50.000    21417780.820    84047933.602          50.000  
G13  24536907.220   128942353.453          50.000                                                  
G15  22220322.420   116768393.879          50.000                                                  
G16  23363127.500   122774057.941          50.000                                                  
G20  20159733.560   105940115.520          50.000                                                  
G21  21992011.560   115568820.598          50.000                                                  
G26  23867088.300   125422283.969          50.000    23867091.520    93659482.371          50.000  
G27  22859658.960   120128269.473          50.000    22859660.340    89706175.281          50.000  
G29  23613791.760   124091278.172          50.000                                                  
E13  23788294.460   125008311.703          50.000    23788298.180    93350351.402          50.000  
E15  27274589.920   143328873.828          50.000    27274597.180   107031280.492          50.000  
> 2020  7 17 23 13  6.0000000  0 11       0.000000000000
G10  21417473.420   112549532.129          50.000    21417473.540    84046727.758          50.000  
G13  24537401.440   128944950.602          50.000                                                  
G15  22220687.760   116770313.801          50.000                                                  
G16  23363328.180   122775112.508          50.000                                                  
G20  20159755.240   105940229.453          50.000                                                  
G21  21991727.840   115567329.719          50.000                                                  
G26  23867551.160   125424716.383          50.000    23867554.400    93661298.781          50.000  
G27  22859118.700   120125430.379          50.000    22859120.080    89704055.180          50.000  
G29  23614470.460   124094844.727          50.000                                                  
E13  23788421.800   125008980.840          50.000    23788425.500    93350851.082          50.000  
E15  27274989.180   143330971.910          50.000    27274996.420   107032847.242          50.000  
> 2020  7 17 23 13  7.0000000  0 11       0.000000000000
G10  21417166.200   112547917.750          50.000    21417166.320    84045522.215          50.000  
G13  24537895.740   128947548.191          50.000                                                  
G15  22221053.240   116772234.328          50.000                                                  
