     3.03           OBSERVATION DATA    M: Mixed            RINEX VERSION / TYPE
sbp2rinex v2.2 (RTKL                    20210504 171524 UTC PGM / RUN BY / DATE 
log: 2020-05-28-US-MTV-2.sbp                                COMMENT             
format: Swift Navigation SBP, option: CONVBASE,EPHALL,OBSALLCOMMENT             
                                                            MARKER NAME         
                                                            MARKER NUMBER       
                                                            MARKER TYPE         
                                                            OBSERVER / AGENCY   
                                                            REC # / TYPE / VERS 
                                                            ANT # / TYPE        
 -2736159.6361 -4313231.3075  3806905.8593                  APPROX POSITION XYZ 
        0.0000        0.0000        0.0000                  ANTENNA: DELTA H/E/N
G    6 C1C L1C S1C C5I L5I S5I                              SYS / # / OBS TYPES 
E    6 C1B L1B S1B C5I L5I S5I                              SYS / # / OBS TYPES 
  2020     5    28    21    23    5.0000000     GPS         TIME OF FIRST OBS   
  2020     5    28    22     1   42.0000000     GPS         TIME OF LAST OBS    
G                                                           SYS / PHASE SHIFT   
E                                                           SYS / PHASE SHIFT   
  0                                                         GLONASS SLOT / FRQ #
 C1C    0.000 C1P    0.000 C2C    0.000 C2P    0.000        GLONASS COD/PHS/BIS 
                                                            END OF HEADER       
> 2020  5 28 21 23  5.0000000  0  9       0.000000000000
G 2  21189626.820   111352257.934          50.000                                                  
G 5  22702411.980   119301878.262          50.000                                                  
G 6  22753105.600   119568321.422          50.000    22753108.520    89288030.926          50.000  
G12  20082097.020   105532137.977          50.000                                                  
G19  24452970.860   128501199.395          50.000                                                  
G24  23460564.020   123286015.859          50.000    23460567.960    92064223.105          50.000  
G25  21057061.740   110655545.215          50.000    21057064.040    82632386.594          50.000  
G29  23079392.400   121282997.629          50.000                                                  
E27  23712466.840   124609830.066          50.000    23712471.100    93052783.457          50.000  
> 2020  5 28 21 23  6.0000000  0  9       0.000000000000
G 2  21189897.920   111353682.551          50.000                                                  
G 5  22701861.080   119298983.207          50.000                                                  
G 6  22753674.680   119571311.906          50.000    22753677.600    89290264.078          50.000  
G12  20082047.440   105531877.430          50.000                                                  
G19  24453508.600   128504025.160          50.000                                                  
G24  23461151.620   123289103.684          50.000    23461155.560    92066528.949          50.000  
G25  21056676.200   110653519.180          50.000    21056678.500    82630873.648          50.000  
G29  23078964.980   121280751.582          50.000                                                  
E27  23712277.580   124608835.555          50.000    23712281.840    93052040.801          50.000  
> 2020  5 28 21 23  7.0000000  0  9       0.000000000000
G 2  21190169.080   111355107.547          50.000                                                  
G 5  22701310.220   119296088.453          50.000                                                  
G 6  22754243.800   119574302.617          50.000    22754246.700    89292497.402          50.000  
G12  20081997.960   105531617.414          50.000                                                  
G19  24454046.320   128506850.949          50.000                                                  
G24  23461739.240   123292191.645          50.000    23461743.180    92068834.891          50.000  
G25  21056290.720   110651493.555          50.000    21056293.020    82629361.004          50.000  
G29  23078537.600   121278505.656          50.000                                                  
E27  23712088.400   124607841.418          50.000    23712092.660    93051298.430          50.000  
> 2020  5 28 21 23  8.0000000  0  9       0.000000000000
G 2  21190440.320   111356532.914          50.000                                                  
G 5  22700759.420   119293193.984          50.000                                                  
G 6  22754812.940   119577293.555          50.000    22754815.860    89294730.891          50.000  
G12  20081948.580   105531357.934          50.000                                                  
G19  24454584.060   128509676.746          50.000                                                  
G24  23462326.880   123295279.719          50.000    23462330.820    92071140.918          50.000  
G25  21055905.340   110649468.340          50.000    21055907.640    82627848.672          50.000  
G29  23078110.240   121276259.859          50.000                                                  
E27  23711899.300   124606847.664          50.000    23711903.560    93050556.340          50.000  
> 2020  5 28 21 23  9.0000000  0  9       0.000000000000
G 2  21190711.620   111357958.652          50.000                                                  
G 5  22700208.680   119290299.813          50.000                                                  
G 6  22755382.140   119580284.723          50.000    22755385.060    89296964.559          50.000  
G12  20081899.300   105531098.992          50.000                                                  
G19  24455121.780   128512502.551          50.000                                                  
G24  23462914.540   123298367.914          50.000    23462918.480    92073447.035          50.000  
G25  21055520.040   110647443.539          50.000    21055522.340    82626336.645          50.000  
G29  23077682.900   121274014.184          50.000                                                  
E27  23711710.260   124605854.297          50.000    23711714.520    93049814.539          50.000  
> 2020  5 28 21 23 10.0000000  0  9       0.000000000000
G 2  21190983.000   111359384.773          50.000                                                  
G 5  22699658.000   119287405.938          50.000                                                  
G 6  22755951.400   119583276.125          50.000    22755954.320    89299198.395          50.000  
G12  20081850.140   105530840.590          50.000                                                  
G19  24455659.520   128515328.375          50.000                                                  
G24  23463502.240   123301456.262          50.000    23463506.180    92075753.270          50.000  
G25  21055134.800   110645419.156          50.000    21055137.100    82624824.930          50.000  
G29  23077255.580   121271768.633          50.000                                                  
E27  23711521.320   124604861.324          50.000    23711525.580    93049073.035          50.000  
> 2020  5 28 21 23 11.0000000  0  9       0.000000000000
G 2  21191254.460   111360811.266          50.000                                                  
G 5  22699107.360   119284512.352          50.000                                                  
G 6  22756520.680   119586267.758          50.000    22756523.600    89301432.402          50.000  
G12  20081801.060   105530582.715          50.000                                                  
G19  24456197.260   128518154.203          50.000                                                  
G24  23464089.960   123304544.758          50.000    23464093.900    92078059.609          50.000  
G25  21054749.660   110643395.168          50.000    21054751.960    82623313.512          50.000  
G29  23076828.300   121269523.215          50.000                                                  
E27  23711332.420   124603868.730          50.000    23711336.680    93048331.813          50.000  
> 2020  5 28 21 23 12.0000000  0  9       0.000000000000
G 2  21191525.980   111362238.133          50.000                                                  
G 5  22698556.780   119281619.063          50.000                                                  
G 6  22757090.020   119589259.621          50.000    22757092.940    89303666.586          50.000  
G12  20081752.100   105530325.379          50.000                                                  
G19  24456735.000   128520980.039          50.000                                                  
G24  23464677.700   123307633.383          50.000    23464681.640    92080366.051          50.000  
G25  21054364.580   110641371.609          50.000    21054366.880    82621802.414          50.000  
G29  23076401.020   121267277.910          50.000                                                  
E27  23711143.620   124602876.508          50.000    23711147.880    93047590.867          50.000  
> 2020  5 28 21 23 13.0000000  0  9       0.000000000000
G 2  21191797.580   111363665.371          50.000                                                  
G 5  22698006.260   119278726.066          50.000                                                  
G 6  22757659.400   119592251.707          50.000    22757662.320    89305900.938          50.000  
G12  20081703.220   105530068.570          50.000                                                  
G19  24457272.740   128523805.891          50.000                                                  
G24  23465265.480   123310722.129          50.000    23465269.420    92082672.578          50.000  
G25  21053979.580   110639348.453          50.000    21053981.880    82620291.613          50.000  
G29  23075973.780   121265032.723          50.000                                                  
E27  23710954.880   124601884.680          50.000    23710959.140    93046850.215          50.000  
> 2020  5 28 21 23 14.0000000  0  9       0.000000000000
G 2  21192069.240   111365092.988          50.000                                                  
G 5  22697455.800   119275833.363          50.000                                                  
G 6  22758228.820   119595244.027          50.000    22758231.740    89308135.457          50.000  
G12  20081654.460   105529812.305          50.000                                                  
G19  24457810.500   128526631.746          50.000                                                  
G24  23465853.280   123313811.016          50.000    23465857.220    92084979.215          50.000  
G25  21053594.680   110637325.699          50.000    21053596.980    82618781.117          50.000  
G29  23075546.560   121262787.672          50.000                                                  
E27  23710766.220   124600893.234          50.000    23710770.480    93046109.848          50.000  
> 2020  5 28 21 23 15.0000000  0  9       0.000000000000
G 2  21192340.980   111366520.977          50.000                                                  
G 5  22696905.400   119272940.949          50.000                                                  
G 6  22758798.280   119598236.578          50.000    22758801.200    89310370.156          50.000  
G12  20081605.800   105529556.582          50.000                                                  
G19  24458348.240   128529457.617          50.000                                                  
G24  23466441.100   123316900.035          50.000    23466445.040    92087285.949          50.000  
G25  21053209.840   110635303.363          50.000    21053212.140    82617270.930          50.000  
G29  23075119.360   121260542.738          50.000                                                  
E27  23710577.620   124599902.176          50.000    23710581.880    93045369.770          50.000  
> 2020  5 28 21 23 16.0000000  0  9       0.000000000000
G 2  21192612.800   111367949.340          50.000                                                  
G 5  22696355.040   119270048.828          50.000                                                  
G 6  22759367.780   119601229.367          50.000    22759370.700    89312605.027          50.000  
G12  20081557.240   105529301.391          50.000                                                  
G19  24458885.980   128532283.500          50.000                                                  
G24  23467028.940   123319989.172          50.000    23467032.880    92089592.770          50.000  
G25  21052825.080   110633281.445          50.000    21052827.380    82615761.059          50.000  
G29  23074692.180   121258297.930          50.000                                                  
E27  23710389.100   124598911.504          50.000    23710393.360    93044629.984          50.000  
> 2020  5 28 21 23 17.0000000  0  9       0.000000000000
G 2  21192884.680   111369378.078          50.000                                                  
G 5  22695804.740   119267157.008          50.000                                                  
G 6  22759937.340   119604222.379          50.000    22759940.260    89314840.066          50.000  
G12  20081508.780   105529046.738          50.000                                                  
G19  24459423.740   128535109.395          50.000                                                  
G24  23467616.800   123323078.441          50.000    23467620.760    92091899.688          50.000  
G25  21052440.400   110631259.930          50.000    21052442.700    82614251.484          50.000  
G29  23074265.040   121256053.242          50.000                                                  
E27  23710200.660   124597921.219          50.000    23710204.920    93043890.484          50.000  
> 2020  5 28 21 23 18.0000000  0  9       0.000000000000
G 2  21193156.620   111370807.191          50.000                                                  
G 5  22695254.500   119264265.469          50.000                                                  
G 6  22760506.940   119607215.621          50.000    22760509.860    89317075.281          50.000  
G12  20081460.420   105528792.621          50.000                                                  
G19  24459961.480   128537935.293          50.000                                                  
G24  23468204.700   123326167.840          50.000    23468208.640    92094206.703          50.000  
G25  21052055.800   110629238.832          50.000    21052058.100    82612742.227          50.000  
G29  23073837.900   121253808.684          50.000                                                  
E27  23710012.280   124596931.316          50.000    23710016.540    93043151.273          50.000  
> 2020  5 28 21 23 19.0000000  0  9       0.000000000000
G 2  21193428.640   111372236.676          50.000                                                  
G 5  22694704.320   119261374.230          50.000                                                  
G 6  22761076.580   119610209.102          50.000    22761079.500    89319310.672          50.000  
G12  20081412.160   105528539.043          50.000                                                  
G19  24460499.240   128540761.215          50.000                                                  
G24  23468792.620   123329257.359          50.000    23468796.560    92096513.813          50.000  
G25  21051671.260   110627218.148          50.000    21051673.560    82611233.270          50.000  
G29  23073410.800   121251564.242          50.000                                                  
E27  23709823.980   124595941.801          50.000    23709828.240    93042412.348          50.000  
> 2020  5 28 21 23 20.0000000  0  9       0.000000000000
G 2  21193700.740   111373666.535          50.000                                                  
G 5  22694154.180   119258483.285          50.000                                                  
G 6  22761646.260   119613202.805          50.000    22761649.180    89321546.227          50.000  
G12  20081364.020   105528286.008          50.000                                                  
G19  24461037.000   128543587.141          50.000                                                  
G24  23469380.560   123332346.996          50.000    23469384.500    92098821.008          50.000  
G25  21051286.820   110625197.867          50.000    21051289.120    82609724.621          50.000  
G29  23072983.720   121249319.930          50.000                                                  
E27  23709635.760   124594952.664          50.000    23709640.020    93041673.711          50.000  
> 2020  5 28 21 23 21.0000000  0  9       0.000000000000
G 2  21193972.900   111375096.770          50.000                                                  
G 5  22693604.120   119255592.652          50.000                                                  
G 6  22762215.980   119616196.730          50.000    22762218.900    89323781.949          50.000  
G12  20081315.960   105528033.496          50.000                                                  
G19  24461574.760   128546413.082          50.000                                                  
G24  23469968.520   123335436.781          50.000    23469972.480    92101128.313          50.000  
G25  21050902.460   110623178.000          50.000    21050904.760    82608216.281          50.000  
G29  23072556.660   121247075.738          50.000                                                  
E27  23709447.600   124593963.918          50.000    23709451.860    93040935.359          50.000  
> 2020  5 28 21 23 22.0000000  0  9       0.000000000000
G 2  21194245.140   111376527.371          50.000                                                  
G 5  22693054.100   119252702.301          50.000                                                  
G 6  22762785.760   119619190.887          50.000    22762788.680    89326017.844          50.000  
G12  20081268.020   105527781.527          50.000                                                  
G19  24462112.520   128549239.027          50.000                                                  
G24  23470556.520   123338526.695          50.000    23470560.460    92103435.715          50.000  
G25  21050518.160   110621158.555          50.000    21050520.460    82606708.250          50.000  
G29  23072129.640   121244831.672          50.000                                                  
E27  23709259.520   124592975.547          50.000    23709263.780    93040197.289          50.000  
> 2020  5 28 21 23 23.0000000  0  9       0.000000000000
G 2  21194517.440   111377958.348          50.000                                                  
G 5  22692504.140   119249812.258          50.000                                                  
G 6  22763355.560   119622185.281          50.000    22763358.500    89328253.918          50.000  
G12  20081220.160   105527530.094          50.000                                                  
G19  24462650.280   128552064.988          50.000                                                  
G24  23471144.540   123341616.730          50.000    23471148.480    92105743.207          50.000  
G25  21050133.960   110619139.516          50.000    21050136.260    82605200.527          50.000  
G29  23071702.620   121242587.734          50.000                                                  
E27  23709071.520   124591987.563          50.000    23709075.780    93039459.512          50.000  
> 2020  5 28 21 23 24.0000000  0  9       0.000000000000
G 2  21194789.820   111379389.695          50.000                                                  
G 5  22691954.240   119246922.504          50.000                                                  
G 6  22763925.420   119625179.895          50.000    22763928.360    89330490.156          50.000  
G12  20081172.420   105527279.195          50.000                                                  
G19  24463188.060   128554890.961          50.000                                                  
G24  23471732.580   123344706.895          50.000    23471736.520    92108050.797          50.000  
G25  21049749.820   110617120.891          50.000    21049752.120    82603693.113          50.000  
G29  23071275.640   121240343.922          50.000                                                  
E27  23708883.580   124590999.973          50.000    23708887.840    93038722.023          50.000  
> 2020  5 28 21 23 25.0000000  0  9       0.000000000000
G 2  21195062.260   111380821.410          50.000                                                  
G 5  22691404.400   119244033.047          50.000                                                  
G 6  22764495.320   119628174.746          50.000    22764498.260    89332726.566          50.000  
G12  20081124.780   105527028.828          50.000                                                  
G19  24463725.820   128557716.945          50.000                                                  
G24  23472320.640   123347797.176          50.000    23472324.580    92110358.469          50.000  
G25  21049365.760   110615102.676          50.000    21049368.060    82602186.008          50.000  
G29  23070848.680   121238100.215          50.000                                                  
E27  23708695.720   124590012.762          50.000    23708699.980    93037984.820          50.000  
> 2020  5 28 21 23 26.0000000  0  9       0.000000000000
G 2  21195334.780   111382253.516          50.000                                                  
G 5  22690854.600   119241143.871          50.000                                                  
G 6  22765065.280   119631169.828          50.000    22765068.200    89334963.156          50.000  
G12  20081077.240   105526779.004          50.000                                                  
G19  24464263.580   128560542.938          50.000                                                  
G24  23472908.720   123350887.559          50.000    23472912.660    92112666.223          50.000  
G25  21048981.800   110613084.875          50.000    21048984.100    82600679.207          50.000  
G29  23070421.740   121235856.656          50.000                                                  
E27  23708507.940   124589025.941          50.000    23708512.200    93037247.910          50.000  
> 2020  5 28 21 23 27.0000000  0  9       0.000000000000
G 2  21195607.380   111383685.984          50.000                                                  
G 5  22690304.860   119238255.008          50.000                                                  
G 6  22765635.260   119634165.133          50.000    22765638.180    89337199.906          50.000  
G12  20081029.800   105526529.715          50.000                                                  
G19  24464801.360   128563368.953          50.000                                                  
G24  23473496.820   123353978.094          50.000    23473500.780    92114974.090          50.000  
G25  21048597.900   110611067.500          50.000    21048600.200    82599172.727          50.000  
G29  23069994.840   121233613.215          50.000                                                  
E27  23708320.220   124588039.492          50.000    23708324.480    93036511.277          50.000  
> 2020  5 28 21 23 28.0000000  0  9       0.000000000000
G 2  21195880.040   111385118.836          50.000                                                  
G 5  22689755.180   119235366.426          50.000                                                  
G 6  22766205.300   119637160.664          50.000    22766208.220    89339436.828          50.000  
G12  20080982.460   105526280.961          50.000                                                  
G19  24465339.140   128566194.977          50.000                                                  
G24  23474084.960   123357068.777          50.000    23474088.920    92117282.063          50.000  
G25  21048214.080   110609050.508          50.000    21048216.380    82597666.531          50.000  
G29  23069567.940   121231369.891          50.000                                                  
E27  23708132.580   124587053.438          50.000    23708136.840    93035774.938          50.000  
> 2020  5 28 21 23 29.0000000  0  9       0.000000000000
G 2  21196152.780   111386552.055          50.000                                                  
G 5  22689205.560   119232478.152          50.000                                                  
G 6  22766775.360   119640156.422          50.000    22766778.300    89341673.918          50.000  
G12  20080935.240   105526032.742          50.000                                                  
G19  24465876.920   128569021.012          50.000                                                  
G24  23474673.120   123360159.594          50.000    23474677.080    92119590.137          50.000  
G25  21047830.340   110607033.949          50.000    21047832.640    82596160.660          50.000  
G29  23069141.080   121229126.695          50.000                                                  
E27  23707945.020   124586067.762          50.000    23707949.280    93035038.879          50.000  
> 2020  5 28 21 23 30.0000000  0  9       0.000000000000
G 2  21196425.580   111387985.648          50.000                                                  
G 5  22688656.000   119229590.172          50.000                                                  
G 6  22767345.480   119643152.422          50.000    22767348.420    89343911.188          50.000  
G12  20080888.100   105525785.063          50.000                                                  
G19  24466414.700   128571847.051          50.000                                                  
G24  23475261.320   123363250.547          50.000    23475265.260    92121898.320          50.000  
G25  21047446.680   110605017.797          50.000    21047448.980    82594655.094          50.000  
G29  23068714.240   121226883.633          50.000                                                  
E27  23707757.520   124585082.477          50.000    23707761.780    93034303.113          50.000  
> 2020  5 28 21 23 31.0000000  0  9       0.000000000000
G 2  21196698.460   111389419.625          50.000                                                  
G 5  22688106.480   119226702.469          50.000                                                  
G 6  22767915.660   119646148.641          50.000    22767918.580    89346148.625          50.000  
G12  20080841.080   105525537.922          50.000                                                  
G19  24466952.480   128574673.109          50.000                                                  
G24  23475849.540   123366341.629          50.000    23475853.480    92124206.590          50.000  
G25  21047063.100   110603002.051          50.000    21047065.400    82593149.828          50.000  
G29  23068287.420   121224640.688          50.000                                                  
E27  23707570.100   124584097.578          50.000    23707574.360    93033567.641          50.000  
> 2020  5 28 21 23 32.0000000  0  9       0.000000000000
G 2  21196971.400   111390853.969          50.000                                                  
G 5  22687557.040   119223815.078          50.000                                                  
G 6  22768485.860   119649145.090          50.000    22768488.780    89348386.230          50.000  
G12  20080794.140   105525291.324          50.000                                                  
G19  24467490.260   128577499.176          50.000                                                  
G24  23476437.780   123369432.844          50.000    23476441.720    92126514.965          50.000  
G25  21046679.600   110600986.730          50.000    21046681.880    82591644.883          50.000  
G29  23067860.620   121222397.867          50.000                                                  
E27  23707382.760   124583113.063          50.000    23707387.020    93032832.449          50.000  
> 2020  5 28 21 23 33.0000000  0  9       0.000000000000
G 2  21197244.420   111392288.691          50.000                                                  
G 5  22687007.640   119220927.992          50.000                                                  
G 6  22769056.100   119652141.766          50.000    22769059.040    89350624.008          50.000  
G12  20080747.320   105525045.258          50.000                                                  
G19  24468028.040   128580325.250          50.000                                                  
G24  23477026.040   123372524.191          50.000    23477029.980    92128823.438          50.000  
G25  21046296.160   110598971.813          50.000    21046298.460    82590140.238          50.000  
G29  23067433.840   121220155.164          50.000                                                  
E27  23707195.480   124582128.934          50.000    23707199.740    93032097.547          50.000  
> 2020  5 28 21 23 34.0000000  0  9       0.000000000000
G 2  21197517.500   111393723.781          50.000                                                  
G 5  22686458.300   119218041.188          50.000                                                  
G 6  22769626.400   119655138.664          50.000    22769629.320    89352861.949          50.000  
G12  20080700.600   105524799.734          50.000                                                  
G19  24468565.840   128583151.332          50.000                                                  
G24  23477614.320   123375615.656          50.000    23477618.280    92131131.996          50.000  
G25  21045912.820   110596957.313          50.000    21045915.120    82588635.902          50.000  
G29  23067007.100   121217912.590          50.000                                                  
E27  23707008.280   124581145.188          50.000    23707012.540    93031362.930          50.000  
> 2020  5 28 21 23 35.0000000  0  9       0.000000000000
G 2  21197790.660   111395159.246          50.000                                                  
G 5  22685909.020   119215154.684          50.000                                                  
G 6  22770196.740   119658135.805          50.000    22770199.660    89355100.074          50.000  
G12  20080653.980   105524554.750          50.000                                                  
G19  24469103.620   128585977.426          50.000                                                  
G24  23478202.640   123378707.223          50.000    23478206.580    92133440.633          50.000  
G25  21045529.540   110594943.219          50.000    21045531.840    82587131.871          50.000  
G29  23066580.380   121215670.137          50.000                                                  
E27  23706821.160   124580161.820          50.000    23706825.420    93030628.598          50.000  
> 2020  5 28 21 23 36.0000000  0  9       0.000000000000
G 2  21198063.900   111396595.086          50.000                                                  
G 5  22685359.780   119212268.469          50.000                                                  
G 6  22770767.120   119661133.172          50.000    22770770.040    89357338.367          50.000  
G12  20080607.460   105524310.301          50.000                                                  
G19  24469641.420   128588803.520          50.000                                                  
G24  23478790.960   123381798.891          50.000    23478794.920    92135749.344          50.000  
G25  21045146.360   110592929.543          50.000    21045148.660    82585628.156          50.000  
G29  23066153.660   121213427.809          50.000                                                  
E27  23706634.100   124579178.852          50.000    23706638.360    93029894.563          50.000  
> 2020  5 28 21 23 37.0000000  0  9       0.000000000000
G 2  21198337.200   111398031.301          50.000                                                  
G 5  22684810.620   119209382.559          50.000                                                  
G 6  22771337.540   119664130.766          50.000    22771340.460    89359576.828          50.000  
G12  20080561.040   105524066.375          50.000                                                  
G19  24470179.200   128591629.645          50.000                                                  
G24  23479379.300   123384890.691          50.000    23479383.260    92138058.152          50.000  
G25  21044763.240   110590916.285          50.000    21044765.540    82584124.746          50.000  
G29  23065727.000   121211185.605          50.000                                                  
E27  23706447.120   124578196.258          50.000    23706451.380    93029160.809          50.000  
> 2020  5 28 21 23 38.0000000  0  9       0.000000000000
G 2  21198610.580   111399467.883          50.000                                                  
G 5  22684261.500   119206496.945          50.000                                                  
G 6  22771908.000   119667128.586          50.000    22771910.940    89361815.457          50.000  
G12  20080514.740   105523822.988          50.000                                                  
G19  24470717.000   128594455.770          50.000                                                  
G24  23479967.680   123387982.605          50.000    23479971.640    92140367.051          50.000  
G25  21044380.220   110588903.434          50.000    21044382.520    82582621.645          50.000  
G29  23065300.340   121208943.520          50.000                                                  
E27  23706260.220   124577214.055          50.000    23706264.480    93028427.344          50.000  
> 2020  5 28 21 23 39.0000000  0  9       0.000000000000
G 2  21198884.020   111400904.832          50.000                                                  
G 5  22683712.440   119203611.629          50.000                                                  
G 6  22772478.520   119670126.637          50.000    22772481.440    89364054.262          50.000  
G12  20080468.520   105523580.152          50.000                                                  
G19  24471254.800   128597281.910          50.000                                                  
G24  23480556.080   123391074.645          50.000    23480560.040    92142676.039          50.000  
G25  21043997.260   110586891.004          50.000    21043999.560    82581118.855          50.000  
G29  23064873.700   121206701.570          50.000                                                  
E27  23706073.380   124576232.234          50.000    23706077.640    93027694.168          50.000  
> 2020  5 28 21 23 40.0000000  0 12       0.000000000000
G 2  21199157.540   111402342.152          50.000                                                  
G 5  22683163.440   119200726.613          50.000                                                  
G 6  22773049.080   119673124.906          50.000    22773052.000    89366293.230          50.000  
G12  20080422.420   105523337.852          50.000                                                  
G19  24471792.600   128600108.059          50.000                                                  
G24  23481144.500   123394166.832          50.000    23481148.460    92144985.137          50.000  
G25  21043614.380   110584878.977          50.000    21043616.680    82579616.367          50.000  
G29  23064447.100   121204459.738          50.000                                                  
E13  26056899.760   136929889.855          50.000    26056905.560   102252821.527          50.000  
E15  23100655.360   121394729.719          50.000    23100660.600    90651895.938          50.000  
E27  23705886.620   124575250.801          50.000    23705890.880    93026961.281          50.000  
E30  22959477.680   120652847.328          50.000    22959482.100    90097893.734          50.000  
> 2020  5 28 21 23 41.0000000  0 12       0.000000000000
G 2  21199431.120   111403779.848          50.000                                                  
G 5  22682614.500   119197841.902          50.000                                                  
G 6  22773619.660   119676123.410          50.000    22773622.600    89368532.371          50.000  
G12  20080376.400   105523096.086          50.000                                                  
G19  24472330.400   128602934.223          50.000                                                  
G24  23481732.960   123397259.164          50.000    23481736.920    92147294.344          50.000  
G25  21043231.580   110582867.375          50.000    21043233.880    82578114.199          50.000  
G29  23064020.520   121202218.031          50.000                                                  
E13  26056488.860   136927730.555          50.000    26056494.660   102251209.063          50.000  
E15  23100623.120   121394560.246          50.000    23100628.340    90651769.387          50.000  
E27  23705699.920   124574269.754          50.000    23705704.200    93026228.680          50.000  
E30  22959827.020   120654683.188          50.000    22959831.440    90099264.668          50.000  
> 2020  5 28 21 23 42.0000000  0 12       0.000000000000
G 2  21199704.780   111405217.918          50.000                                                  
G 5  22682065.600   119194957.484          50.000                                                  
G 6  22774190.300   119679122.141          50.000    22774193.240    89370771.680          50.000  
G12  20080330.500   105522854.852          50.000                                                  
G19  24472868.200   128605760.387          50.000                                                  
G24  23482321.420   123400351.598          50.000    23482325.380    92149603.629          50.000  
G25  21042848.880   110580856.176          50.000    21042851.160    82576612.332          50.000  
G29  23063593.960   121199976.441          50.000                                                  
E13  26056078.000   136925571.453          50.000    26056083.800   102249596.746          50.000  
E15  23100590.920   121394391.078          50.000    23100596.160    90651643.059          50.000  
E27  23705513.320   124573289.090          50.000    23705517.580    93025496.363          50.000  
E30  22960176.440   120656519.395          50.000    22960180.860    90100635.859          50.000  
> 2020  5 28 21 23 43.0000000  0 12       0.000000000000
G 2  21199978.500   111406656.363          50.000                                                  
G 5  22681516.780   119192073.359          50.000                                                  
G 6  22774761.000   119682121.098          50.000    22774763.920    89373011.160          50.000  
G12  20080284.700   105522614.156          50.000                                                  
G19  24473406.000   128608586.570          50.000                                                  
G24  23482909.920   123403444.152          50.000    23482913.880    92151913.000          50.000  
G25  21042466.240   110578845.414          50.000    21042468.540    82575110.785          50.000  
G29  23063167.420   121197734.977          50.000                                                  
E13  26055667.180   136923412.563          50.000    26055672.980   102247984.590          50.000  
E15  23100558.780   121394222.219          50.000    23100564.020    90651516.965          50.000  
E27  23705326.780   124572308.820          50.000    23705331.040    93024764.348          50.000  
E30  22960525.940   120658355.965          50.000    22960530.360    90102007.324          50.000  
> 2020  5 28 21 23 44.0000000  0 12       0.000000000000
G 2  21200252.300   111408095.184          50.000                                                  
G 5  22680968.000   119189189.531          50.000                                                  
G 6  22775331.720   119685120.285          50.000    22775334.640    89375250.813          50.000  
G12  20080239.000   105522374.004          50.000                                                  
G19  24473943.820   128611412.766          50.000                                                  
G24  23483498.440   123406536.828          50.000    23483502.400    92154222.465          50.000  
G25  21042083.680   110576835.051          50.000    21042085.980    82573609.543          50.000  
G29  23062740.900   121195493.645          50.000                                                  
E13  26055256.400   136921253.891          50.000    26055262.180   102246372.598          50.000  
E15  23100526.720   121394053.664          50.000    23100531.940    90651391.094          50.000  
E27  23705140.300   124571328.926          50.000    23705144.560    93024032.609          50.000  
E30  22960875.480   120660192.898          50.000    22960879.900    90103379.059          50.000  
> 2020  5 28 21 23 45.0000000  0 12       0.000000000000
G 2  21200526.160   111409534.371          50.000                                                  
G 5  22680419.280   119186306.004          50.000                                                  
G 6  22775902.480   119688119.699          50.000    22775905.420    89377490.633          50.000  
G12  20080193.400   105522134.383          50.000                                                  
G19  24474481.620   128614238.973          50.000                                                  
G24  23484086.980   123409629.621          50.000    23484090.940    92156532.016          50.000  
G25  21041701.200   110574825.102          50.000    21041703.500    82572108.605          50.000  
G29  23062314.420   121193252.430          50.000                                                  
E13  26054845.640   136919095.422          50.000    26054851.440   102244760.754          50.000  
E15  23100494.700   121393885.402          50.000    23100499.920    90651265.445          50.000  
E27  23704953.920   124570349.426          50.000    23704958.180    93023301.160          50.000  
E30  22961225.100   120662030.168          50.000    22961229.520    90104751.043          50.000  
> 2020  5 28 21 23 46.0000000  0 12       0.000000000000
G 2  21200800.100   111410973.926          50.000                                                  
G 5  22679870.620   119183422.762          50.000                                                  
G 6  22776473.300   119691119.340          50.000    22776476.240    89379730.625          50.000  
G12  20080147.900   105521895.305          50.000                                                  
G19  24475019.440   128617065.191          50.000                                                  
G24  23484675.540   123412722.559          50.000    23484679.500    92158841.676          50.000  
G25  21041318.800   110572815.555          50.000    21041321.080    82570607.973          50.000  
G29  23061887.960   121191011.348          50.000                                                  
E13  26054434.940   136916937.160          50.000    26054440.740   102243149.066          50.000  
E15  23100462.740   121393717.445          50.000    23100467.960    90651140.023          50.000  
E27  23704767.600   124569370.305          50.000    23704771.860    93022570.000          50.000  
E30  22961574.800   120663867.801          50.000    22961579.220    90106123.301          50.000  
> 2020  5 28 21 23 47.0000000  0 12       0.000000000000
G 2  21201074.120   111412413.855          50.000                                                  
G 5  22679322.020   119180539.820          50.000                                                  
G 6  22777044.160   119694119.203          50.000    22777047.080    89381970.781          50.000  
G12  20080102.520   105521656.758          50.000                                                  
G19  24475557.260   128619891.422          50.000                                                  
G24  23485264.140   123415815.648          50.000    23485268.100    92161151.449          50.000  
G25  21040936.460   110570806.434          50.000    21040938.760    82569107.656          50.000  
G29  23061461.500   121188770.379          50.000                                                  
E13  26054024.280   136914779.109          50.000    26054030.080   102241537.535          50.000  
E15  23100430.820   121393549.785          50.000    23100436.060    90651014.820          50.000  
E27  23704581.340   124568391.570          50.000    23704585.600    93021839.129          50.000  
E30  22961924.560   120665705.785          50.000    22961928.980    90107495.820          50.000  
> 2020  5 28 21 23 48.0000000  0 12       0.000000000000
G 2  21201348.200   111413854.160          50.000                                                  
G 5  22678773.460   119177657.184          50.000                                                  
G 6  22777615.060   119697119.305          50.000    22777618.000    89384211.113          50.000  
G12  20080057.220   105521418.750          50.000                                                  
G19  24476095.060   128622717.648          50.000                                                  
G24  23485852.760   123418908.863          50.000    23485856.720    92163461.316          50.000  
G25  21040554.220   110568797.719          50.000    21040556.520    82567607.641          50.000  
G29  23061035.080   121186529.543          50.000                                                  
E13  26053613.660   136912621.266          50.000    26053619.440   102239926.160          50.000  
E15  23100398.980   121393382.434          50.000    23100404.220    90650889.852          50.000  
E27  23704395.180   124567413.230          50.000    23704399.440    93021108.547          50.000  
E30  22962274.380   120667544.133          50.000    22962278.800    90108868.613          50.000  
> 2020  5 28 21 23 49.0000000  0 12       0.000000000000
G 2  21201622.340   111415294.832          50.000                                                  
G 5  22678224.980   119174774.844          50.000                                                  
G 6  22778186.000   119700119.629          50.000    22778188.940    89386451.613          50.000  
G12  20080012.040   105521181.281          50.000                                                  
G19  24476632.880   128625543.898          50.000                                                  
G24  23486441.400   123422002.191          50.000    23486445.360    92165771.270          50.000  
G25  21040172.060   110566789.430          50.000    21040174.360    82566107.945          50.000  
G29  23060608.700   121184288.824          50.000                                                  
E13  26053203.080   136910463.637          50.000    26053208.860   102238314.945          50.000  
E15  23100367.200   121393215.387          50.000    23100372.420    90650765.109          50.000  
E27  23704209.080   124566435.266          50.000    23704213.340    93020378.250          50.000  
E30  22962624.280   120669382.824          50.000    22962628.700    90110241.664          50.000  
> 2020  5 28 21 23 50.0000000  0 12       0.000000000000
G 2  21201896.560   111416735.871          50.000                                                  
G 5  22677676.540   119171892.797          50.000                                                  
G 6  22778756.980   119703120.176          50.000    22778759.920    89388692.281          50.000  
G12  20079966.940   105520944.352          50.000                                                  
G19  24477170.700   128628370.148          50.000                                                  
G24  23487030.080   123425095.652          50.000    23487034.040    92168081.316          50.000  
G25  21039789.960   110564781.543          50.000    21039792.260    82564608.551          50.000  
G29  23060182.320   121182048.234          50.000                                                  
E13  26052792.520   136908306.227          50.000    26052798.320   102236703.891          50.000  
E15  23100335.460   121393048.637          50.000    23100340.700    90650640.586          50.000  
E27  23704023.040   124565457.688          50.000    23704027.300    93019648.242          50.000  
E30  22962974.240   120671221.879          50.000    22962978.660    90111614.980          50.000  
> 2020  5 28 21 23 51.0000000  0 12       0.000000000000
G 2  21202170.860   111418177.281          50.000                                                  
G 5  22677128.160   119169011.070          50.000                                                  
G 6  22779328.020   119706120.953          50.000    22779330.960    89390933.121          50.000  
G12  20079921.960   105520707.957          50.000                                                  
G19  24477708.520   128631196.418          50.000                                                  
G24  23487618.760   123428189.250          50.000    23487622.720    92170391.469          50.000  
G25  21039407.960   110562774.074          50.000    21039410.260    82563109.469          50.000  
G29  23059755.980   121179807.762          50.000                                                  
E13  26052382.020   136906149.008          50.000    26052387.820   102235092.984          50.000  
E15  23100303.800   121392882.195          50.000    23100309.020    90650516.297          50.000  
E27  23703837.100   124564480.504          50.000    23703841.360    93018918.523          50.000  
E30  22963324.260   120673061.285          50.000    22963328.680    90112988.563          50.000  
> 2020  5 28 21 23 52.0000000  0 12       0.000000000000
G 2  21202445.220   111419619.066          50.000                                                  
G 5  22676579.840   119166129.645          50.000                                                  
G 6  22779899.100   119709121.953          50.000    22779902.020    89393174.129          50.000  
G12  20079877.080   105520472.094          50.000                                                  
G19  24478246.360   128634022.695          50.000                                                  
G24  23488207.480   123431282.965          50.000    23488211.440    92172701.711          50.000  
G25  21039026.040   110560767.027          50.000    21039028.320    82561610.699          50.000  
G29  23059329.660   121177567.418          50.000                                                  
E13  26051971.560   136903992.012          50.000    26051977.360   102233482.238          50.000  
E15  23100272.180   121392716.051          50.000    23100277.400    90650392.227          50.000  
E27  23703651.220   124563503.699          50.000    23703655.480    93018189.094          50.000  
E30  22963674.360   120674901.051          50.000    22963678.780    90114362.414          50.000  
> 2020  5 28 21 23 53.0000000  0 12       0.000000000000
G 2  21202719.660   111421061.227          50.000                                                  
G 5  22676031.580   119163248.512          50.000                                                  
G 6  22780470.200   119712123.184          50.000    22780473.140    89395415.305          50.000  
G12  20079832.300   105520236.773          50.000                                                  
G19  24478784.180   128636848.980          50.000                                                  
G24  23488796.220   123434376.820          50.000    23488800.180    92175012.055          50.000  
G25  21038644.180   110558760.379          50.000    21038646.480    82560112.230          50.000  
G29  23058903.340   121175327.191          50.000                                                  
E13  26051561.140   136901835.215          50.000    26051566.920   102231871.648          50.000  
E15  23100240.620   121392550.215          50.000    23100245.860    90650268.391          50.000  
E27  23703465.420   124562527.289          50.000    23703469.680    93017459.957          50.000  
E30  22964024.520   120676741.160          50.000    22964028.940    90115736.520          50.000  
> 2020  5 28 21 23 54.0000000  0 12       0.000000000000
G 2  21202994.160   111422503.762          50.000                                                  
G 5  22675483.380   119160367.676          50.000                                                  
G 6  22781041.360   119715124.637          50.000    22781044.300    89397656.648          50.000  
G12  20079787.620   105520001.992          50.000                                                  
G19  24479322.000   128639675.270          50.000                                                  
G24  23489384.980   123437470.797          50.000    23489388.940    92177322.488          50.000  
G25  21038262.400   110556754.160          50.000    21038264.700    82558614.078          50.000  
G29  23058477.080   121173087.094          50.000                                                  
E13  26051150.740   136899678.625          50.000    26051156.540   102230261.207          50.000  
E15  23100209.120   121392384.668          50.000    23100214.340    90650144.766          50.000  
E27  23703279.680   124561551.246          50.000    23703283.940    93016731.094          50.000  
E30  22964374.760   120678581.633          50.000    22964379.180    90117110.898          50.000  
> 2020  5 28 21 23 55.0000000  0 12       0.000000000000
G 2  21203268.740   111423946.668          50.000                                                  
G 5  22674935.220   119157487.148          50.000                                                  
G 6  22781612.560   119718126.324          50.000    22781615.500    89399898.164          50.000  
G12  20079743.040   105519767.742          50.000                                                  
G19  24479859.840   128642501.586          50.000                                                  
G24  23489973.780   123440564.867          50.000    23489977.740    92179632.996          50.000  
G25  21037880.720   110554748.352          50.000    21037883.000    82557116.234          50.000  
G29  23058050.820   121170847.117          50.000                                                  
E13  26050740.400   136897522.266          50.000    26050746.200   102228650.941          50.000  
E15  23100177.680   121392219.434          50.000    23100182.900    90650021.379          50.000  
E27  23703094.020   124560575.609          50.000    23703098.280    93016002.531          50.000  
E30  22964725.060   120680422.465          50.000    22964729.480    90118485.547          50.000  
> 2020  5 28 21 23 56.0000000  0 12       0.000000000000
G 2  21203543.380   111425389.934          50.000                                                  
G 5  22674387.140   119154606.922          50.000                                                  
G 6  22782183.820   119721128.227          50.000    22782186.740    89402139.844          50.000  
G12  20079698.580   105519534.035          50.000                                                  
G19  24480397.660   128645327.906          50.000                                                  
G24  23490562.580   123443659.078          50.000    23490566.540    92181943.605          50.000  
G25  21037499.100   110552742.965          50.000    21037501.400    82555618.703          50.000  
G29  23057624.580   121168607.270          50.000                                                  
E13  26050330.100   136895366.098          50.000    26050335.900   102227040.816          50.000  
E15  23100146.280   121392054.492          50.000    23100151.520    90649898.207          50.000  
E27  23702908.440   124559600.352          50.000    23702912.700    93015274.254          50.000  
E30  22965075.420   120682263.637          50.000    22965079.840    90119860.445          50.000  
> 2020  5 28 21 23 57.0000000  0 12       0.000000000000
G 2  21203818.100   111426833.578          50.000                                                  
G 5  22673839.100   119151726.992          50.000                                                  
G 6  22782755.100   119724130.359          50.000    22782758.040    89404381.695          50.000  
G12  20079654.200   105519300.867          50.000                                                  
G19  24480935.500   128648154.242          50.000                                                  
G24  23491151.420   123446753.402          50.000    23491155.380    92184254.301          50.000  
G25  21037117.560   110550737.988          50.000    21037119.860    82554121.484          50.000  
G29  23057198.380   121166367.547          50.000                                                  
E13  26049919.840   136893210.145          50.000    26049925.620   102225430.852          50.000  
E15  23100114.960   121391889.867          50.000    23100120.200    90649775.270          50.000  
E27  23702722.920   124558625.480          50.000    23702727.180    93014546.270          50.000  
E30  22965425.840   120684105.176          50.000    22965430.280    90121235.621          50.000  
> 2020  5 28 21 23 58.0000000  0 12       0.000000000000
G 2  21204092.880   111428277.590          50.000                                                  
G 5  22673291.120   119148847.340          50.000                                                  
G 6  22783326.440   119727132.719          50.000    22783329.360    89406623.715          50.000  
G12  20079609.940   105519068.242          50.000                                                  
G19  24481473.340   128650980.578          50.000                                                  
G24  23491740.260   123449847.852          50.000    23491744.220    92186565.090          50.000  
G25  21036736.100   110548733.418          50.000    21036738.400    82552624.566          50.000  
G29  23056772.200   121164127.926          50.000                                                  
E13  26049509.600   136891054.391          50.000    26049515.400   102223821.035          50.000  
E15  23100083.680   121391725.527          50.000    23100088.920    90649652.551          50.000  
E27  23702537.480   124557650.992          50.000    23702541.740    93013818.566          50.000  
E30  22965776.340   120685947.070          50.000    22965780.780    90122611.059          50.000  
> 2020  5 28 21 23 59.0000000  0 12       0.000000000000
G 2  21204367.740   111429721.980          50.000                                                  
G 5  22672743.200   119145968.000          50.000                                                  
G 6  22783897.800   119730135.305          50.000    22783900.740    89408865.902          50.000  
G12  20079565.760   105518836.148          50.000                                                  
G19  24482011.180   128653806.938          50.000                                                  
G24  23492329.140   123452942.441          50.000    23492333.120    92188875.980          50.000  
G25  21036354.740   110546729.277          50.000    21036357.020    82551127.969          50.000  
G29  23056346.040   121161888.453          50.000                                                  
