     3.03           OBSERVATION DATA    M: Mixed            RINEX VERSION / TYPE
sbp2rinex v2.2 (RTKL                    20210504 171525 UTC PGM / RUN BY / DATE 
log: 2020-05-29-US-MTV-1.sbp                                COMMENT             
format: Swift Navigation SBP, option: CONVBASE,EPHALL,OBSALLCOMMENT             
                                                            MARKER NAME         
                                                            MARKER NUMBER       
                                                            MARKER TYPE         
                                                            OBSERVER / AGENCY   
                                                            REC # / TYPE / VERS 
                                                            ANT # / TYPE        
 -2725591.3194 -4348373.9647  3774585.5270                  APPROX POSITION XYZ 
        0.0000        0.0000        0.0000                  ANTENNA: DELTA H/E/N
G    6 C1C L1C S1C C5I L5I S5I                              SYS / # / OBS TYPES 
E    6 C1B L1B S1B C5I L5I S5I                              SYS / # / OBS TYPES 
  2020     5    29    22    44    8.0000000     GPS         TIME OF FIRST OBS   
  2020     5    29    23    16   48.0000000     GPS         TIME OF LAST OBS    
G                                                           SYS / PHASE SHIFT   
E                                                           SYS / PHASE SHIFT   
  0                                                         GLONASS SLOT / FRQ #
 C1C    0.000 C1P    0.000 C2C    0.000 C2P    0.000        GLONASS COD/PHS/BIS 
                                                            END OF HEADER       
> 2020  5 29 22 44  8.0000000  0 13       0.000000000000
G 2  23213005.320   121985171.453          50.000                                                  
G 5  21044439.620   110589185.039          50.000                                                  
G12  21199664.440   111404978.598          50.000                                                  
G25  20394966.020   107176204.168          50.000    20394968.720    80034175.980          50.000  
G29  21252651.240   111683422.566          50.000                                                  
G31  24453552.780   128504205.559          50.000                                                  
E 2  23923193.680   125717221.289          50.000    23923197.400    93879733.344          50.000  
E 4  27630739.460   145200490.578          50.000    27630744.300   108428922.676          50.000  
E 9  25635761.220   134716766.039          50.000    25635768.900   100600157.750          50.000  
E11  24410749.360   128279368.703          50.000    24410749.940    95793026.688          50.000  
E25  25192561.360   132387756.871          50.000    25192567.620    98860969.742          50.000  
E30  25635194.460   134713816.223          50.000    25635200.000   100597962.777          50.000  
E36  23422248.640   123084709.867          50.000    23422253.880    91913892.891          50.000  
> 2020  5 29 22 44  9.0000000  0 13       0.000000000000
G 2  23213469.600   121987611.359          50.000                                                  
G 5  21044421.880   110589091.824          50.000                                                  
G12  21200147.280   111407515.992          50.000                                                  
G25  20395124.800   107177038.605          50.000    20395127.520    80034799.098          50.000  
G29  21252359.840   111681891.176          50.000                                                  
G31  24453574.320   128504318.695          50.000                                                  
E 2  23923215.800   125717337.547          50.000    23923219.520    93879820.160          50.000  
E 4  27630543.880   145199462.758          50.000    27630548.700   108428155.148          50.000  
E 9  25635299.480   134714339.555          50.000    25635307.140   100598345.766          50.000  
E11  24411097.600   128281198.754          50.000    24411098.180    95794393.285          50.000  
E25  25193058.380   132390368.766          50.000    25193064.660    98862920.180          50.000  
E30  25634761.680   134711541.980          50.000    25634767.220   100596264.480          50.000  
E36  23422263.480   123084787.777          50.000    23422268.700    91913951.070          50.000  
> 2020  5 29 22 44 10.0000000  0 13       0.000000000000
G 2  23213933.920   121990051.328          50.000                                                  
G 5  21044404.280   110588999.316          50.000                                                  
G12  21200630.220   111410053.855          50.000                                                  
G25  20395283.720   107177873.688          50.000    20395286.420    80035422.699          50.000  
G29  21252068.460   111680359.949          50.000                                                  
G31  24453595.940   128504432.371          50.000                                                  
E 2  23923238.020   125717454.281          50.000    23923241.740    93879907.332          50.000  
E 4  27630348.360   145198435.297          50.000    27630353.180   108427387.891          50.000  
E 9  25634837.740   134711913.121          50.000    25634845.420   100596533.820          50.000  
E11  24411445.860   128283028.828          50.000    24411446.440    95795759.898          50.000  
E25  25193555.460   132392980.914          50.000    25193561.740    98864870.813          50.000  
E30  25634328.960   134709268.031          50.000    25634334.500   100594566.402          50.000  
E36  23422278.340   123084865.863          50.000    23422283.560    91914009.379          50.000  
> 2020  5 29 22 44 11.0000000  0 13       0.000000000000
G 2  23214398.240   121992491.328          50.000                                                  
G 5  21044386.800   110588907.492          50.000                                                  
G12  21201113.260   111412592.203          50.000                                                  
G25  20395442.740   107178709.391          50.000    20395445.460    80036046.762          50.000  
G29  21251777.100   111678828.922          50.000                                                  
G31  24453617.680   128504546.602          50.000                                                  
E 2  23923260.320   125717571.496          50.000    23923264.040    93879994.863          50.000  
E 4  27630152.900   145197408.199          50.000    27630157.740   108426620.902          50.000  
E 9  25634376.020   134709486.742          50.000    25634383.680   100594721.914          50.000  
E11  24411794.100   128284858.914          50.000    24411794.700    95797126.520          50.000  
E25  25194052.580   132395593.305          50.000    25194058.860    98866821.621          50.000  
E30  25633896.300   134706994.363          50.000    25633901.840   100592868.535          50.000  
E36  23422293.220   123084944.102          50.000    23422298.460    91914067.805          50.000  
> 2020  5 29 22 44 12.0000000  0 13       0.000000000000
G 2  23214862.560   121994931.391          50.000                                                  
G 5  21044369.460   110588816.367          50.000                                                  
G12  21201596.380   111415131.031          50.000                                                  
G25  20395601.900   107179545.742          50.000    20395604.600    80036671.309          50.000  
G29  21251485.800   111677298.074          50.000                                                  
G31  24453639.520   128504661.391          50.000                                                  
E 2  23923282.720   125717689.207          50.000    23923286.440    93880082.762          50.000  
E 4  27629957.520   145196381.477          50.000    27629962.360   108425854.195          50.000  
E 9  25633914.300   134707060.406          50.000    25633921.960   100592910.043          50.000  
E11  24412142.360   128286689.027          50.000    24412142.960    95798493.160          50.000  
E25  25194549.760   132398205.984          50.000    25194556.020    98868772.648          50.000  
E30  25633463.680   134704720.977          50.000    25633469.220   100591170.879          50.000  
E36  23422308.140   123085022.516          50.000    23422313.380    91914126.363          50.000  
> 2020  5 29 22 44 13.0000000  0 13       0.000000000000
G 2  23215326.900   121997371.500          50.000                                                  
G 5  21044352.260   110588725.938          50.000                                                  
G12  21202079.600   111417670.328          50.000                                                  
G25  20395761.180   107180382.723          50.000    20395763.880    80037296.328          50.000  
G29  21251194.520   111675767.418          50.000                                                  
G31  24453661.480   128504776.723          50.000                                                  
E 2  23923305.220   125717807.391          50.000    23923308.940    93880171.016          50.000  
E 4  27629762.220   145195355.117          50.000    27629767.040   108425087.758          50.000  
E 9  25633452.600   134704634.129          50.000    25633460.260   100591098.215          50.000  
E11  24412490.640   128288519.180          50.000    24412491.220    95799859.832          50.000  
E25  25195046.980   132400818.930          50.000    25195053.260    98870723.871          50.000  
E30  25633031.140   134702447.879          50.000    25633036.660   100589473.438          50.000  
E36  23422323.100   123085101.098          50.000    23422328.320    91914185.043          50.000  
> 2020  5 29 22 44 14.0000000  0 13       0.000000000000
G 2  23215791.260   121999811.652          50.000                                                  
G 5  21044335.180   110588636.211          50.000                                                  
G12  21202562.900   111420210.102          50.000                                                  
G25  20395920.560   107181220.336          50.000    20395923.260    80037921.820          50.000  
G29  21250903.280   111674236.926          50.000                                                  
G31  24453683.520   128504892.609          50.000                                                  
E 2  23923327.800   125717926.063          50.000    23923331.520    93880259.637          50.000  
E 4  27629566.980   145194329.117          50.000    27629571.800   108424321.590          50.000  
E 9  25632990.900   134702207.895          50.000    25632998.560   100589286.418          50.000  
E11  24412838.900   128290349.359          50.000    24412839.500    95801226.523          50.000  
E25  25195544.260   132403432.125          50.000    25195550.540    98872675.285          50.000  
E30  25632598.620   134700175.059          50.000    25632604.160   100587776.203          50.000  
E36  23422338.080   123085179.836          50.000    23422343.320    91914243.840          50.000  
> 2020  5 29 22 44 15.0000000  0 13       0.000000000000
G 2  23216255.600   122002251.855          50.000                                                  
G 5  21044318.240   110588547.160          50.000                                                  
G12  21203046.280   111422750.352          50.000                                                  
G25  20396080.080   107182058.598          50.000    20396082.780    80038547.793          50.000  
G29  21250612.080   111672706.637          50.000                                                  
G31  24453705.680   128505009.043          50.000                                                  
E 2  23923350.480   125718045.227          50.000    23923354.200    93880348.621          50.000  
E 4  27629371.800   145193303.492          50.000    27629376.620   108423555.699          50.000  
E 9  25632529.200   134699781.703          50.000    25632536.860   100587474.656          50.000  
E11  24413187.180   128292179.559          50.000    24413187.780    95802593.230          50.000  
E25  25196041.580   132406045.586          50.000    25196047.860    98874626.891          50.000  
E30  25632166.180   134697902.520          50.000    25632171.700   100586079.176          50.000  
E36  23422353.100   123085258.742          50.000    23422358.320    91914302.766          50.000  
> 2020  5 29 22 44 16.0000000  0 13       0.000000000000
G 2  23216719.980   122004692.105          50.000                                                  
G 5  21044301.420   110588458.816          50.000                                                  
G12  21203529.780   111425291.066          50.000                                                  
G25  20396239.720   107182897.496          50.000    20396242.420    80039174.242          50.000  
G29  21250320.900   111671176.504          50.000                                                  
G31  24453727.940   128505126.027          50.000                                                  
E 2  23923373.240   125718164.855          50.000    23923376.960    93880437.953          50.000  
E 4  27629176.700   145192278.230          50.000    27629181.520   108422790.086          50.000  
E 9  25632067.520   134697355.570          50.000    25632075.180   100585662.938          50.000  
E11  24413535.460   128294009.789          50.000    24413536.060    95803959.961          50.000  
E25  25196538.960   132408659.313          50.000    25196545.240    98876578.699          50.000  
E30  25631733.780   134695630.270          50.000    25631739.300   100584382.367          50.000  
E36  23422368.140   123085337.820          50.000    23422373.380    91914361.816          50.000  
> 2020  5 29 22 44 17.0000000  0 13       0.000000000000
G 2  23217184.340   122007132.402          50.000                                                  
G 5  21044284.740   110588371.168          50.000                                                  
G12  21204013.340   111427832.266          50.000                                                  
G25  20396399.480   107183737.020          50.000    20396402.180    80039801.160          50.000  
G29  21250029.760   111669646.582          50.000                                                  
G31  24453750.320   128505243.566          50.000                                                  
E 2  23923396.100   125718284.977          50.000    23923399.820    93880527.656          50.000  
E 4  27628981.660   145191253.336          50.000    27628986.500   108422024.742          50.000  
E 9  25631605.860   134694929.496          50.000    25631613.520   100583851.258          50.000  
E11  24413883.740   128295840.039          50.000    24413884.340    95805326.703          50.000  
E25  25197036.380   132411273.316          50.000    25197042.660    98878530.715          50.000  
E30  25631301.440   134693358.301          50.000    25631306.960   100582685.770          50.000  
E36  23422383.220   123085417.066          50.000    23422388.460    91914420.996          50.000  
> 2020  5 29 22 44 18.0000000  0 13       0.000000000000
G 2  23217648.720   122009572.746          50.000                                                  
G 5  21044268.200   110588284.203          50.000                                                  
G12  21204497.000   111430373.934          50.000                                                  
G25  20396559.360   107184577.184          50.000    20396562.060    80040428.555          50.000  
G29  21249738.660   111668116.832          50.000                                                  
G31  24453772.780   128505361.660          50.000                                                  
E 2  23923419.040   125718405.578          50.000    23923422.760    93880617.715          50.000  
E 4  27628786.700   145190228.805          50.000    27628791.540   108421259.672          50.000  
E 9  25631144.200   134692503.461          50.000    25631151.860   100582039.609          50.000  
E11  24414232.040   128297670.309          50.000    24414232.620    95806693.465          50.000  
E25  25197533.860   132413887.566          50.000    25197540.140    98880482.914          50.000  
E30  25630869.140   134691086.617          50.000    25630874.680   100580989.383          50.000  
E36  23422398.340   123085496.473          50.000    23422403.560    91914480.293          50.000  
> 2020  5 29 22 44 19.0000000  0 13       0.000000000000
G 2  23218113.120   122012013.137          50.000                                                  
G 5  21044251.780   110588197.938          50.000                                                  
G12  21204980.760   111432916.094          50.000                                                  
G25  20396719.360   107185417.984          50.000    20396722.060    80041056.426          50.000  
G29  21249447.600   111666587.277          50.000                                                  
G31  24453795.360   128505480.293          50.000                                                  
E 2  23923442.100   125718526.684          50.000    23923445.820    93880708.152          50.000  
E 4  27628591.820   145189204.637          50.000    27628596.640   108420494.871          50.000  
E 9  25630682.540   134690077.465          50.000    25630690.200   100580227.992          50.000  
E11  24414580.340   128299500.605          50.000    24414580.920    95808060.242          50.000  
E25  25198031.400   132416502.086          50.000    25198037.660    98882435.313          50.000  
E30  25630436.920   134688815.227          50.000    25630442.440   100579293.215          50.000  
E36  23422413.480   123085576.043          50.000    23422418.700    91914539.711          50.000  
> 2020  5 29 22 44 20.0000000  0 13       0.000000000000
G 2  23218577.520   122014453.578          50.000                                                  
G 5  21044235.500   110588112.371          50.000                                                  
G12  21205464.620   111435458.719          50.000                                                  
G25  20396879.480   107186259.418          50.000    20396882.180    80041684.766          50.000  
G29  21249156.560   111665057.891          50.000                                                  
G31  24453818.040   128505599.484          50.000                                                  
E 2  23923465.220   125718648.242          50.000    23923468.940    93880798.926          50.000  
E 4  27628397.000   145188180.852          50.000    27628401.820   108419730.359          50.000  
E 9  25630220.900   134687651.527          50.000    25630228.560   100578416.418          50.000  
E11  24414928.640   128301330.934          50.000    24414929.220    95809427.047          50.000  
E25  25198528.960   132419116.863          50.000    25198535.240    98884387.906          50.000  
E30  25630004.740   134686544.121          50.000    25630010.260   100577597.262          50.000  
E36  23422428.640   123085655.785          50.000    23422433.880    91914599.258          50.000  
> 2020  5 29 22 44 21.0000000  0 13       0.000000000000
G 2  23219041.940   122016894.066          50.000                                                  
G 5  21044219.340   110588027.496          50.000                                                  
G12  21205948.560   111438001.828          50.000                                                  
G25  20397039.720   107187101.492          50.000    20397042.420    80042313.590          50.000  
G29  21248865.560   111663528.691          50.000                                                  
G31  24453840.820   128505719.230          50.000                                                  
E 2  23923488.460   125718770.309          50.000    23923492.180    93880890.078          50.000  
E 4  27628202.240   145187157.422          50.000    27628207.060   108418966.109          50.000  
E 9  25629759.260   134685225.648          50.000    25629766.940   100576604.887          50.000  
E11  24415276.940   128303161.297          50.000    24415277.520    95810793.879          50.000  
E25  25199026.600   132421731.910          50.000    25199032.880    98886340.699          50.000  
E30  25629572.620   134684273.301          50.000    25629578.140   100575901.523          50.000  
E36  23422443.860   123085735.688          50.000    23422449.080    91914658.926          50.000  
> 2020  5 29 22 44 22.0000000  0 13       0.000000000000
G 2  23219506.360   122019334.609          50.000                                                  
G 5  21044203.320   110587943.313          50.000                                                  
G12  21206432.580   111440545.406          50.000                                                  
G25  20397200.080   107187944.203          50.000    20397202.780    80042942.883          50.000  
G29  21248574.600   111661999.680          50.000                                                  
G31  24453863.720   128505839.520          50.000                                                  
E 2  23923511.760   125718892.840          50.000    23923515.480    93880981.578          50.000  
E 4  27628007.560   145186134.363          50.000    27628012.380   108418202.137          50.000  
E 9  25629297.640   134682799.828          50.000    25629305.320   100574793.398          50.000  
E11  24415625.240   128304991.676          50.000    24415625.840    95812160.715          50.000  
E25  25199524.280   132424347.211          50.000    25199530.540    98888293.684          50.000  
E30  25629140.540   134682002.758          50.000    25629146.080   100574205.988          50.000  
E36  23422459.100   123085815.766          50.000    23422464.320    91914718.727          50.000  
> 2020  5 29 22 44 23.0000000  0 13       0.000000000000
G 2  23219970.780   122021775.195          50.000                                                  
G 5  21044187.440   110587859.828          50.000                                                  
G12  21206916.700   111443089.453          50.000                                                  
G25  20397360.560   107188787.547          50.000    20397363.260    80043572.656          50.000  
G29  21248283.680   111660470.844          50.000                                                  
G31  24453886.720   128505960.367          50.000                                                  
E 2  23923535.180   125719015.867          50.000    23923538.900    93881073.449          50.000  
E 4  27627812.940   145185111.672          50.000    27627817.780   108417438.441          50.000  
E 9  25628836.040   134680374.027          50.000    25628843.700   100572981.926          50.000  
E11  24415973.560   128306822.074          50.000    24415974.160    95813527.574          50.000  
E25  25200022.000   132426962.773          50.000    25200028.280    98890246.859          50.000  
E30  25628708.520   134679732.504          50.000    25628714.060   100572510.672          50.000  
E36  23422474.360   123085896.004          50.000    23422479.600    91914778.645          50.000  
> 2020  5 29 22 44 24.0000000  0 13       0.000000000000
G 2  23220435.220   122024215.828          50.000                                                  
G 5  21044171.680   110587777.031          50.000                                                  
G12  21207400.900   111445633.984          50.000                                                  
G25  20397521.160   107189631.535          50.000    20397523.860    80044202.906          50.000  
G29  21247992.780   111658942.199          50.000                                                  
G31  24453909.820   128506081.766          50.000                                                  
E 2  23923558.680   125719139.379          50.000    23923562.400    93881165.684          50.000  
E 4  27627618.400   145184089.340          50.000    27627623.220   108416675.012          50.000  
E 9  25628374.440   134677948.301          50.000    25628382.100   100571170.508          50.000  
E11  24416321.880   128308652.500          50.000    24416322.480    95814894.445          50.000  
E25  25200519.780   132429578.617          50.000    25200526.060    98892200.250          50.000  
E30  25628276.560   134677462.547          50.000    25628282.100   100570815.570          50.000  
E36  23422489.660   123085976.410          50.000    23422494.900    91914838.688          50.000  
> 2020  5 29 22 44 25.0000000  0 13       0.000000000000
G 2  23220899.660   122026656.504          50.000                                                  
G 5  21044156.060   110587694.938          50.000                                                  
G12  21207885.200   111448178.973          50.000                                                  
G25  20397681.900   107190476.148          50.000    20397684.600    80044833.625          50.000  
G29  21247701.920   111657413.715          50.000                                                  
G31  24453933.020   128506203.703          50.000                                                  
E 2  23923582.280   125719263.355          50.000    23923586.000    93881258.262          50.000  
E 4  27627423.920   145183067.371          50.000    27627428.760   108415911.855          50.000  
E 9  25627912.840   134675522.613          50.000    25627920.500   100569359.121          50.000  
E11  24416670.200   128310482.965          50.000    24416670.800    95816261.352          50.000  
E25  25201017.600   132432194.711          50.000    25201023.880    98894153.824          50.000  
E30  25627844.660   134675192.855          50.000    25627850.180   100569120.676          50.000  
E36  23422505.000   123086056.969          50.000    23422510.220    91914898.844          50.000  
> 2020  5 29 22 44 26.0000000  0 13       0.000000000000
G 2  23221364.120   122029097.219          50.000                                                  
G 5  21044140.560   110587613.535          50.000                                                  
G12  21208369.580   111450724.434          50.000                                                  
G25  20397842.740   107191321.406          50.000    20397845.440    80045464.820          50.000  
G29  21247411.100   111655885.441          50.000                                                  
G31  24453956.340   128506326.203          50.000                                                  
E 2  23923605.960   125719387.840          50.000    23923609.680    93881351.223          50.000  
E 4  27627229.520   145182045.770          50.000    27627234.340   108415148.969          50.000  
E 9  25627451.240   134673096.961          50.000    25627458.920   100567547.758          50.000  
E11  24417018.540   128312313.426          50.000    24417019.120    95817628.258          50.000  
E25  25201515.480   132434811.043          50.000    25201521.760    98896107.578          50.000  
E30  25627412.800   134672923.457          50.000    25627418.340   100567425.996          50.000  
E36  23422520.360   123086137.695          50.000    23422525.580    91914959.129          50.000  
> 2020  5 29 22 44 27.0000000  0 13       0.000000000000
G 2  23221828.580   122031538.000          50.000                                                  
G 5  21044125.220   110587532.859          50.000                                                  
G12  21208854.060   111453270.375          50.000                                                  
G25  20398003.700   107192167.301          50.000    20398006.420    80046096.496          50.000  
G29  21247120.320   111654357.340          50.000                                                  
G31  24453979.740   128506449.246          50.000                                                  
E 2  23923629.740   125719512.785          50.000    23923633.460    93881444.523          50.000  
E 4  27627035.180   145181024.547          50.000    27627040.020   108414386.371          50.000  
E 9  25626989.680   134670671.402          50.000    25626997.340   100565736.469          50.000  
E11  24417366.880   128314143.953          50.000    24417367.460    95818995.207          50.000  
E25  25202013.400   132437427.668          50.000    25202019.680    98898061.551          50.000  
E30  25626981.000   134670654.344          50.000    25626986.540   100565731.531          50.000  
E36  23422535.740   123086218.598          50.000    23422540.980    91915019.539          50.000  
> 2020  5 29 22 44 28.0000000  0 13       0.000000000000
G 2  23222293.060   122033978.816          50.000                                                  
G 5  21044110.000   110587452.859          50.000                                                  
G12  21209338.620   111455816.777          50.000                                                  
G25  20398164.800   107193013.844          50.000    20398167.500    80046728.652          50.000  
G29  21246829.560   111652829.418          50.000                                                  
G31  24454003.260   128506572.840          50.000                                                  
E 2  23923653.620   125719638.238          50.000    23923657.340    93881538.207          50.000  
E 4  27626840.920   145180003.691          50.000    27626845.760   108413624.043          50.000  
E 9  25626528.120   134668245.848          50.000    25626535.780   100563925.176          50.000  
E11  24417715.220   128315974.488          50.000    24417715.800    95820362.164          50.000  
E25  25202511.380   132440044.547          50.000    25202517.660    98900015.715          50.000  
E30  25626549.260   134668385.523          50.000    25626554.800   100564037.281          50.000  
E36  23422551.180   123086299.660          50.000    23422556.400    91915080.074          50.000  
> 2020  5 29 22 44 29.0000000  0 13       0.000000000000
G 2  23222757.540   122036419.688          50.000                                                  
G 5  21044094.900   110587373.551          50.000                                                  
G12  21209823.280   111458363.672          50.000                                                  
G25  20398326.000   107193861.004          50.000    20398328.720    80047361.273          50.000  
G29  21246538.840   111651301.699          50.000                                                  
G31  24454026.900   128506696.992          50.000                                                  
E 2  23923677.580   125719764.152          50.000    23923681.300    93881632.234          50.000  
E 4  27626646.740   145178983.203          50.000    27626651.560   108412861.992          50.000  
E 9  25626066.560   134665820.387          50.000    25626074.220   100562113.961          50.000  
E11  24418063.560   128317805.055          50.000    24418064.140    95821729.145          50.000  
E25  25203009.400   132442661.691          50.000    25203015.680    98901970.074          50.000  
E30  25626117.580   134666116.980          50.000    25626123.100   100562343.242          50.000  
E36  23422566.640   123086380.902          50.000    23422571.860    91915140.742          50.000  
> 2020  5 29 22 44 30.0000000  0 13       0.000000000000
G 2  23223222.020   122038860.594          50.000                                                  
G 5  21044079.940   110587294.934          50.000                                                  
G12  21210308.040   111460911.039          50.000                                                  
G25  20398487.340   107194708.816          50.000    20398490.040    80047994.383          50.000  
G29  21246248.160   111649774.152          50.000                                                  
G31  24454050.620   128506821.691          50.000                                                  
E 2  23923701.640   125719890.578          50.000    23923705.360    93881726.645          50.000  
E 4  27626452.600   145177963.066          50.000    27626457.440   108412100.203          50.000  
E 9  25625605.020   134663394.949          50.000    25625612.680   100560302.758          50.000  
E11  24418411.900   128319635.625          50.000    24418412.500    95823096.129          50.000  
E25  25203507.480   132445279.102          50.000    25203513.760    98903924.633          50.000  
E30  25625685.940   134663848.727          50.000    25625691.460   100560649.418          50.000  
E36  23422582.120   123086462.289          50.000    23422587.360    91915201.520          50.000  
> 2020  5 29 22 44 31.0000000  0 13       0.000000000000
G 2  23223686.520   122041301.555          50.000                                                  
G 5  21044065.120   110587217.012          50.000                                                  
G12  21210792.880   111463458.867          50.000                                                  
G25  20398648.800   107195557.250          50.000    20398651.500    80048627.949          50.000  
G29  21245957.520   111648246.773          50.000                                                  
G31  24454074.460   128506946.938          50.000                                                  
E 2  23923725.780   125720017.449          50.000    23923729.500    93881821.387          50.000  
E 4  27626258.560   145176943.309          50.000    27626263.380   108411338.695          50.000  
E 9  25625143.480   134660969.559          50.000    25625151.140   100558491.594          50.000  
E11  24418760.260   128321466.234          50.000    24418760.840    95824463.141          50.000  
E25  25204005.600   132447896.758          50.000    25204011.880    98905879.375          50.000  
E30  25625254.360   134661580.758          50.000    25625259.880   100558955.805          50.000  
E36  23422597.640   123086543.852          50.000    23422602.880    91915262.426          50.000  
> 2020  5 29 22 44 32.0000000  0 13       0.000000000000
G 2  23224151.040   122043742.555          50.000                                                  
G 5  21044050.420   110587139.785          50.000                                                  
G12  21211277.800   111466007.176          50.000                                                  
G25  20398810.360   107196406.313          50.000    20398813.060    80049261.992          50.000  
G29  21245666.900   111646719.598          50.000                                                  
G31  24454098.400   128507072.734          50.000                                                  
E 2  23923750.020   125720144.828          50.000    23923753.740    93881916.504          50.000  
E 4  27626064.560   145175923.922          50.000    27626069.400   108410577.465          50.000  
E 9  25624681.960   134658544.234          50.000    25624689.600   100556680.477          50.000  
E11  24419108.620   128323296.871          50.000    24419109.200    95825830.176          50.000  
E25  25204503.780   132450514.684          50.000    25204510.060    98907834.316          50.000  
E30  25624822.840   134659313.078          50.000    25624828.360   100557262.410          50.000  
E36  23422613.200   123086625.578          50.000    23422618.420    91915323.457          50.000  
> 2020  5 29 22 44 33.0000000  0 13       0.000000000000
G 2  23224615.560   122046183.609          50.000                                                  
G 5  21044035.860   110587063.266          50.000                                                  
G12  21211762.820   111468555.969          50.000                                                  
G25  20398972.060   107197256.027          50.000    20398974.760    80049896.516          50.000  
G29  21245376.320   111645192.602          50.000                                                  
G31  24454122.440   128507199.082          50.000                                                  
E 2  23923774.340   125720272.699          50.000    23923778.060    93882011.992          50.000  
E 4  27625870.660   145174904.906          50.000    27625875.480   108409816.512          50.000  
E 9  25624220.440   134656118.957          50.000    25624228.100   100554869.395          50.000  
E11  24419456.980   128325127.539          50.000    24419457.580    95827197.230          50.000  
E25  25205002.020   132453132.879          50.000    25205008.300    98909789.465          50.000  
E30  25624391.360   134657045.680          50.000    25624396.880   100555569.223          50.000  
E36  23422628.780   123086707.469          50.000    23422634.000    91915384.605          50.000  
> 2020  5 29 22 44 34.0000000  0 13       0.000000000000
G 2  23225080.080   122048624.707          50.000                                                  
G 5  21044021.420   110586987.434          50.000                                                  
G12  21212247.920   111471105.227          50.000                                                  
G25  20399133.880   107198106.371          50.000    20399136.580    80050531.516          50.000  
G29  21245085.780   111643665.789          50.000                                                  
G31  24454146.580   128507325.984          50.000                                                  
E 2  23923798.760   125720401.027          50.000    23923802.480    93882107.824          50.000  
E 4  27625676.800   145173886.238          50.000    27625681.640   108409055.820          50.000  
E 9  25623758.920   134653693.730          50.000    25623766.580   100553058.348          50.000  
E11  24419805.340   128326958.230          50.000    24419805.940    95828564.305          50.000  
E25  25205500.280   132455751.328          50.000    25205506.560    98911744.797          50.000  
E30  25623959.940   134654778.566          50.000    25623965.460   100553876.250          50.000  
E36  23422644.400   123086789.523          50.000    23422649.620    91915445.883          50.000  
> 2020  5 29 22 44 35.0000000  0 13       0.000000000000
G 2  23225544.620   122051065.855          50.000                                                  
G 5  21044007.120   110586912.297          50.000                                                  
G12  21212733.120   111473654.957          50.000                                                  
G25  20399295.820   107198957.355          50.000    20399298.520    80051166.988          50.000  
G29  21244795.280   111642139.160          50.000                                                  
G31  24454170.840   128507453.441          50.000                                                  
E 2  23923823.280   125720529.855          50.000    23923827.000    93882204.023          50.000  
E 4  27625483.040   145172867.945          50.000    27625487.860   108408295.406          50.000  
E 9  25623297.420   134651268.547          50.000    25623305.080   100551247.340          50.000  
E11  24420153.720   128328788.930          50.000    24420154.320    95829931.387          50.000  
E25  25205998.620   132458370.039          50.000    25206004.900    98913700.328          50.000  
E30  25623528.580   134652511.742          50.000    25623534.100   100552183.492          50.000  
E36  23422660.040   123086871.746          50.000    23422665.260    91915507.281          50.000  
> 2020  5 29 22 44 36.0000000  0 13       0.000000000000
G 2  23226009.160   122053507.047          50.000                                                  
G 5  21043992.960   110586837.863          50.000                                                  
G12  21213218.420   111476205.164          50.000                                                  
G25  20399457.880   107199808.969          50.000    20399460.580    80051802.934          50.000  
G29  21244504.800   111640612.727          50.000                                                  
G31  24454195.200   128507581.465          50.000                                                  
E 2  23923847.880   125720659.164          50.000    23923851.600    93882300.586          50.000  
E 4  27625289.320   145171850.020          50.000    27625294.160   108407535.270          50.000  
E 9  25622835.940   134648843.422          50.000    25622843.600   100549436.371          50.000  
E11  24420502.100   128330619.664          50.000    24420502.680    95831298.492          50.000  
E25  25206496.980   132460989.020          50.000    25206503.260    98915656.059          50.000  
E30  25623097.280   134650245.199          50.000    25623102.800   100550490.949          50.000  
E36  23422675.720   123086954.133          50.000    23422680.940    91915568.805          50.000  
> 2020  5 29 22 44 37.0000000  0 13       0.000000000000
G 2  23226473.700   122055948.273          50.000                                                  
G 5  21043978.920   110586764.109          50.000                                                  
G12  21213703.800   111478755.852          50.000                                                  
G25  20399620.040   107200661.223          50.000    20399622.760    80052439.355          50.000  
G29  21244214.360   111639086.477          50.000                                                  
G31  24454219.660   128507710.039          50.000                                                  
E 2  23923872.580   125720788.953          50.000    23923876.300    93882397.508          50.000  
E 4  27625095.700   145170832.465          50.000    27625100.520   108406775.406          50.000  
E 9  25622374.460   134646418.352          50.000    25622382.120   100547625.445          50.000  
E11  24420850.480   128332450.418          50.000    24420851.080    95832665.613          50.000  
E25  25206995.400   132463608.242          50.000    25207001.680    98917611.969          50.000  
E30  25622666.020   134647978.934          50.000    25622671.540   100548798.605          50.000  
E36  23422691.420   123087036.684          50.000    23422696.660    91915630.449          50.000  
> 2020  5 29 22 44 38.0000000  0 13       0.000000000000
G 2  23226938.280   122058389.555          50.000                                                  
G 5  21043965.020   110586691.070          50.000                                                  
G12  21214189.260   111481307.012          50.000                                                  
G25  20399782.340   107201514.113          50.000    20399785.060    80053076.254          50.000  
G29  21243923.960   111637560.406          50.000                                                  
G31  24454244.240   128507839.160          50.000                                                  
E 2  23923897.380   125720919.227          50.000    23923901.100    93882494.789          50.000  
E 4  27624902.120   145169815.273          50.000    27624906.960   108406015.816          50.000  
E 9  25621913.000   134643993.320          50.000    25621920.660   100545814.547          50.000  
E11  24421198.880   128334281.223          50.000    24421199.460    95834032.770          50.000  
E25  25207493.880   132466227.730          50.000    25207500.160    98919568.078          50.000  
E30  25622234.820   134645712.965          50.000    25622240.340   100547106.488          50.000  
E36  23422707.160   123087119.395          50.000    23422712.400    91915692.215          50.000  
> 2020  5 29 22 44 39.0000000  0 13       0.000000000000
G 2  23227402.840   122060830.879          50.000                                                  
G 5  21043951.260   110586618.719          50.000                                                  
G12  21214674.820   111483858.645          50.000                                                  
G25  20399944.760   107202367.617          50.000    20399947.460    80053713.613          50.000  
G29  21243633.600   111636034.508          50.000                                                  
G31  24454268.920   128507968.832          50.000                                                  
E 2  23923922.260   125721049.977          50.000    23923925.980    93882592.426          50.000  
E 4  27624708.640   145168798.449          50.000    27624713.460   108405256.500          50.000  
E 9  25621451.540   134641568.340          50.000    25621459.200   100544003.684          50.000  
E11  24421547.260   128336112.027          50.000    24421547.860    95835399.930          50.000  
E25  25207992.400   132468847.484          50.000    25207998.680    98921524.387          50.000  
E30  25621803.660   134643447.277          50.000    25621809.180   100545414.582          50.000  
E36  23422722.940   123087202.266          50.000    23422728.160    91915754.098          50.000  
> 2020  5 29 22 44 40.0000000  0 13       0.000000000000
G 2  23227867.420   122063272.262          50.000                                                  
G 5  21043937.620   110586547.066          50.000                                                  
G12  21215160.480   111486410.738          50.000                                                  
G25  20400107.300   107203221.777          50.000    20400110.020    80054351.457          50.000  
G29  21243343.260   111634508.789          50.000                                                  
G31  24454293.700   128508099.039          50.000                                                  
E 2  23923947.240   125721181.219          50.000    23923950.960    93882690.434          50.000  
E 4  27624515.200   145167781.996          50.000    27624520.040   108404497.461          50.000  
E 9  25620990.080   134639143.414          50.000    25620997.740   100542192.867          50.000  
E11  24421895.660   128337942.867          50.000    24421896.260    95836767.113          50.000  
E25  25208490.980   132471467.516          50.000    25208497.260    98923480.902          50.000  
E30  25621372.580   134641181.875          50.000    25621378.100   100543722.883          50.000  
E36  23422738.740   123087285.320          50.000    23422743.960    91915816.121          50.000  
> 2020  5 29 22 44 41.0000000  0 13       0.000000000000
G 2  23228332.000   122065713.664          50.000                                                  
G 5  21043924.120   110586476.105          50.000                                                  
G12  21215646.220   111488963.313          50.000                                                  
G25  20400269.980   107204076.574          50.000    20400272.680    80054989.781          50.000  
G29  21243052.960   111632983.277          50.000                                                  
G31  24454318.580   128508229.809          50.000                                                  
E 2  23923972.300   125721312.945          50.000    23923976.020    93882788.801          50.000  
E 4  27624321.860   145166765.910          50.000    27624326.680   108403738.699          50.000  
E 9  25620528.640   134636718.539          50.000    25620536.300   100540382.086          50.000  
E11  24422244.060   128339773.719          50.000    24422244.660    95838134.309          50.000  
E25  25208989.600   132474087.789          50.000    25208995.880    98925437.602          50.000  
E30  25620941.540   134638916.758          50.000    25620947.060   100542031.402          50.000  
E36  23422754.580   123087368.523          50.000    23422759.800    91915878.254          50.000  
> 2020  5 29 22 44 42.0000000  0 13       0.000000000000
G 2  23228796.600   122068155.117          50.000                                                  
G 5  21043910.740   110586405.832          50.000                                                  
G12  21216132.040   111491516.363          50.000                                                  
G25  20400432.760   107204932.008          50.000    20400435.460    80055628.578          50.000  
G29  21242762.700   111631457.934          50.000                                                  
G31  24454343.560   128508361.121          50.000                                                  
E 2  23923997.460   125721445.152          50.000    23924001.180    93882887.527          50.000  
E 4  27624128.560   145165750.180          50.000    27624133.380   108402980.199          50.000  
E 9  25620067.220   134634293.727          50.000    25620074.880   100538571.352          50.000  
E11  24422592.460   128341604.602          50.000    24422593.060    95839501.527          50.000  
E25  25209488.280   132476708.340          50.000    25209494.560    98927394.504          50.000  
E30  25620510.560   134636651.938          50.000    25620516.080   100540340.145          50.000  
E36  23422770.440   123087451.898          50.000    23422775.660    91915940.512          50.000  
> 2020  5 29 22 44 43.0000000  0 13       0.000000000000
G 2  23229261.200   122070596.629          50.000                                                  
G 5  21043897.500   110586336.258          50.000                                                  
G12  21216617.960   111494069.895          50.000                                                  
G25  20400595.660   107205788.070          50.000    20400598.360    80056267.848          50.000  
G29  21242472.480   111629932.785          50.000                                                  
G31  24454368.660   128508492.988          50.000                                                  
E 2  23924022.700   125721577.844          50.000    23924026.420    93882986.613          50.000  
E 4  27623935.360   145164734.832          50.000    27623940.180   108402221.984          50.000  
E 9  25619605.800   134631868.961          50.000    25619613.460   100536760.652          50.000  
E11  24422940.880   128343435.512          50.000    24422941.460    95840868.766          50.000  
E25  25209987.000   132479329.133          50.000    25209993.280    98929351.590          50.000  
E30  25620079.620   134634387.395          50.000    25620085.140   100538649.090          50.000  
E36  23422786.340   123087535.438          50.000    23422791.560    91916002.898          50.000  
> 2020  5 29 22 44 44.0000000  0 13       0.000000000000
G 2  23229725.820   122073038.180          50.000                                                  
G 5  21043884.400   110586267.383          50.000                                                  
G12  21217103.980   111496623.883          50.000                                                  
G25  20400758.680   107206644.777          50.000    20400761.380    80056907.594          50.000  
G29  21242182.280   111628407.816          50.000                                                  
G31  24454393.860   128508625.402          50.000                                                  
E 2  23924048.060   125721711.027          50.000    23924051.780    93883086.066          50.000  
E 4  27623742.200   145163719.848          50.000    27623747.020   108401464.043          50.000  
E 9  25619144.400   134629444.246          50.000    25619152.040   100534949.988          50.000  
E11  24423289.300   128345266.445          50.000    24423289.880    95842236.020          50.000  
E25  25210485.780   132481950.195          50.000    25210492.060    98931308.875          50.000  
E30  25619648.740   134632123.137          50.000    25619654.280   100536958.250          50.000  
E36  23422802.260   123087619.145          50.000    23422807.500    91916065.406          50.000  
> 2020  5 29 22 44 45.0000000  0 13       0.000000000000
G 2  23230190.440   122075479.777          50.000                                                  
G 5  21043871.420   110586199.203          50.000                                                  
G12  21217590.080   111499178.355          50.000                                                  
G25  20400921.840   107207502.117          50.000    20400924.540    80057547.813          50.000  
G29  21241892.120   111626883.023          50.000                                                  
G31  24454419.160   128508758.367          50.000                                                  
E 2  23924073.480   125721844.684          50.000    23924077.200    93883185.879          50.000  
E 4  27623549.120   145162705.230          50.000    27623553.960   108400706.375          50.000  
E 9  25618683.000   134627019.578          50.000    25618690.640   100533139.363          50.000  
E11  24423637.720   128347097.410          50.000    24423638.300    95843603.297          50.000  
E25  25210984.600   132484571.520          50.000    25210990.880    98933266.355          50.000  
E30  25619217.940   134629859.172          50.000    25619223.460   100535267.629          50.000  
E36  23422818.220   123087703.016          50.000    23422823.460    91916128.035          50.000  
> 2020  5 29 22 44 46.0000000  0 13       0.000000000000
G 2  23230655.060   122077921.430          50.000                                                  
G 5  21043858.580   110586131.703          50.000                                                  
G12  21218076.260   111501733.293          50.000                                                  
G25  20401085.100   107208360.090          50.000    20401087.800    80058188.508          50.000  
G29  21241602.000   111625358.410          50.000                                                  
G31  24454444.560   128508891.875          50.000                                                  
E 2  23924099.020   125721978.820          50.000    23924102.740    93883286.043          50.000  
E 4  27623356.120   145161690.977          50.000    27623360.940   108399948.980          50.000  
E 9  25618221.600   134624594.965          50.000    25618229.260   100531328.777          50.000  
E11  24423986.140   128348928.395          50.000    24423986.740    95844970.590          50.000  
E25  25211483.460   132487193.113          50.000    25211489.760    98935224.039          50.000  
E30  25618787.160   134627595.492          50.000    25618792.680   100533577.215          50.000  
E36  23422834.220   123087787.051          50.000    23422839.440    91916190.789          50.000  
> 2020  5 29 22 44 47.0000000  0 13       0.000000000000
G 2  23231119.700   122080363.137          50.000                                                  
G 5  21043845.860   110586064.895          50.000                                                  
G12  21218562.540   111504288.723          50.000                                                  
G25  20401248.480   107209218.707          50.000    20401251.200    80058829.684          50.000  
G29  21241311.900   111623833.992          50.000                                                  
G31  24454470.080   128509025.938          50.000                                                  
E 2  23924124.640   125722113.449          50.000    23924128.360    93883386.578          50.000  
E 4  27623163.180   145160677.098          50.000    27623168.020   108399191.863          50.000  
E 9  25617760.220   134622170.402          50.000    25617767.880   100529518.230          50.000  
E11  24424334.560   128350759.406          50.000    24424335.160    95846337.902          50.000  
E25  25211982.380   132489814.949          50.000    25211988.680    98937181.902          50.000  
E30  25618356.460   134625332.094          50.000    25618361.980   100531887.020          50.000  
E36  23422850.240   123087871.246          50.000    23422855.460    91916253.664          50.000  
> 2020  5 29 22 44 48.0000000  0 13       0.000000000000
G 2  23231584.360   122082804.891          50.000                                                  
G 5  21043833.280   110585998.793          50.000                                                  
G12  21219048.920   111506844.605          50.000                                                  
G25  20401412.000   107210077.957          50.000    20401414.700    80059471.332          50.000  
G29  21241021.860   111622309.758          50.000                                                  
G31  24454495.700   128509160.555          50.000                                                  
E 2  23924150.340   125722248.559          50.000    23924154.060    93883487.469          50.000  
E 4  27622970.320   145159663.566          50.000    27622975.140   108398435.004          50.000  
E 9  25617298.860   134619745.898          50.000    25617306.500   100527707.723          50.000  
E11  24424683.000   128352590.441          50.000    24424683.600    95847705.234          50.000  
E25  25212481.360   132492437.059          50.000    25212487.640    98939139.969          50.000  
E30  25617925.800   134623068.992          50.000    25617931.320   100530197.039          50.000  
E36  23422866.300   123087955.613          50.000    23422871.520    91916316.664          50.000  
> 2020  5 29 22 44 49.0000000  0 13       0.000000000000
G 2  23232049.020   122085246.688          50.000                                                  
G 5  21043820.840   110585933.387          50.000                                                  
G12  21219535.380   111509400.980          50.000                                                  
G25  20401575.620   107210937.840          50.000    20401578.340    80060113.449          50.000  
G29  21240731.840   111620785.711          50.000                                                  
G31  24454521.420   128509295.727          50.000                                                  
E 2  23924176.140   125722384.152          50.000    23924179.860    93883588.727          50.000  
E 4  27622777.520   145158650.422          50.000    27622782.340   108397678.434          50.000  
E 9  25616837.480   134617321.434          50.000    25616845.140   100525897.250          50.000  
E11  24425031.440   128354421.500          50.000    24425032.040    95849072.582          50.000  
E25  25212980.380   132495059.438          50.000    25212986.660    98941098.238          50.000  
E30  25617495.200   134620806.168          50.000    25617500.720   100528507.273          50.000  
E36  23422882.380   123088040.145          50.000    23422887.600    91916379.789          50.000  
> 2020  5 29 22 44 50.0000000  0 13       0.000000000000
G 2  23232513.680   122087688.527          50.000                                                  
G 5  21043808.520   110585868.680          50.000                                                  
G12  21220021.920   111511957.816          50.000                                                  
G25  20401739.380   107211798.359          50.000    20401742.080    80060756.047          50.000  
G29  21240441.860   111619261.855          50.000                                                  
G31  24454547.240   128509431.441          50.000                                                  
E 2  23924202.040   125722520.227          50.000    23924205.760    93883690.340          50.000  
E 4  27622584.800   145157637.664          50.000    27622589.620   108396922.156          50.000  
E 9  25616376.140   134614897.020          50.000    25616383.780   100524086.816          50.000  
E11  24425379.880   128356252.590          50.000    24425380.480    95850439.957          50.000  
E25  25213479.460   132497682.066          50.000    25213485.740    98943056.691          50.000  
E30  25617064.660   134618543.641          50.000    25617070.180   100526817.723          50.000  
