     3.03           OBSERVATION DATA    M: Mixed            RINEX VERSION / TYPE
sbp2rinex v2.2 (RTKL                    20210504 171524 UTC PGM / RUN BY / DATE 
log: 2020-05-21-US-MTV-1.sbp                                COMMENT             
format: Swift Navigation SBP, option: CONVBASE,EPHALL,OBSALLCOMMENT             
                                                            MARKER NAME         
                                                            MARKER NUMBER       
                                                            MARKER TYPE         
                                                            OBSERVER / AGENCY   
                                                            REC # / TYPE / VERS 
                                                            ANT # / TYPE        
 -2726238.5716 -4347374.6629  3775263.5859                  APPROX POSITION XYZ 
        0.0000        0.0000        0.0000                  ANTENNA: DELTA H/E/N
G    6 C1C L1C S1C C5I L5I S5I                              SYS / # / OBS TYPES 
E    6 C1B L1B S1B C5I L5I S5I                              SYS / # / OBS TYPES 
  2020     5    21    18     9    4.0000000     GPS         TIME OF FIRST OBS   
  2020     5    21    18    44   34.0000000     GPS         TIME OF LAST OBS    
G                                                           SYS / PHASE SHIFT   
E                                                           SYS / PHASE SHIFT   
  0                                                         GLONASS SLOT / FRQ #
 C1C    0.000 C1P    0.000 C2C    0.000 C2P    0.000        GLONASS COD/PHS/BIS 
                                                            END OF HEADER       
> 2020  5 21 18  9  4.0000000  0  6       0.000000000000
E 2  25951589.540   136376513.172          50.000    25951593.300   101839594.055          50.000  
E 7  26826183.300   140972494.828          50.000    26826189.500   105271650.738          50.000  
E15  25344763.480   133187587.918          50.000    25344769.340    99458248.293          50.000  
E27  25487014.700   133935137.027          50.000    25487019.120   100016485.336          50.000  
E30  22464889.300   118053778.793          50.000    22464892.900    88157034.102          50.000  
E36  26429007.560   138885333.027          50.000    26429013.000   103713059.016          50.000  
> 2020  5 21 18  9  5.0000000  0 15       0.000000000000
G 1  24358315.620   128003737.551          50.000    24358317.900    95587200.723          50.000  
G 6  23611001.220   124076581.258          50.000    23611005.220    92654584.922          50.000  
G13  22155808.860   116429549.555          50.000                                                  
G15  23072239.660   121245420.188          50.000                                                  
G17  20547326.500   107976930.344          50.000                                                  
G19  20258645.580   106459922.523          50.000                                                  
G24  23317550.400   122534495.113          50.000    23317553.240    91503028.461          50.000  
G28  21760613.140   114352788.793          50.000                                                  
G30  22644818.460   118999264.219          50.000    22644820.540    88863085.004          50.000  
E 2  25951894.600   136378116.234          50.000    25951898.360   101840791.145          50.000  
E 7  26826621.300   140974796.547          50.000    26826627.500   105273369.555          50.000  
E15  25344216.700   133184714.531          50.000    25344222.560    99456102.586          50.000  
E27  25486683.180   133933394.852          50.000    25486687.600   100015184.359          50.000  
E30  22464881.920   118053740.016          50.000    22464885.520    88157005.145          50.000  
E36  26429379.920   138887289.844          50.000    26429385.360   103714520.273          50.000  
> 2020  5 21 18  9  6.0000000  0 15       0.000000000000
G 1  24358737.660   128005955.320          50.000    24358739.920    95588856.848          50.000  
G 6  23610351.040   124073164.531          50.000    23610355.040    92652033.469          50.000  
G13  22156277.560   116432012.598          50.000                                                  
G15  23072517.360   121246879.563          50.000                                                  
G17  20547503.480   107977860.328          50.000                                                  
G19  20258434.580   106458813.773          50.000                                                  
G24  23316956.120   122531372.141          50.000    23316958.960    91500696.375          50.000  
G28  21760867.300   114354124.414          50.000                                                  
G30  22645392.840   119002282.578          50.000    22645394.920    88865338.973          50.000  
E 2  25952199.680   136379719.418          50.000    25952203.420   101841988.328          50.000  
E 7  26827059.320   140977098.418          50.000    26827065.540   105275088.484          50.000  
E15  25343669.940   133181841.340          50.000    25343675.800    99453957.020          50.000  
E27  25486351.660   133931652.688          50.000    25486356.060   100013883.395          50.000  
E30  22464874.560   118053701.375          50.000    22464878.160    88156976.289          50.000  
E36  26429752.360   138889247.012          50.000    26429757.800   103715981.793          50.000  
> 2020  5 21 18  9  7.0000000  0 15       0.000000000000
G 1  24359159.780   128008173.637          50.000    24359162.060    95590513.379          50.000  
G 6  23609700.880   124069747.902          50.000    23609704.880    92649482.094          50.000  
G13  22156746.340   116434476.070          50.000                                                  
G15  23072795.160   121248339.426          50.000                                                  
G17  20547680.540   107978790.789          50.000                                                  
G19  20258223.700   106457705.625          50.000                                                  
G24  23316361.880   122528249.402          50.000    23316364.720    91498364.461          50.000  
G28  21761121.480   114355460.121          50.000                                                  
G30  22645967.280   119005301.266          50.000    22645969.360    88867593.184          50.000  
E 2  25952504.780   136381322.703          50.000    25952508.520   101843185.586          50.000  
E 7  26827497.400   140979400.453          50.000    26827503.600   105276807.535          50.000  
E15  25343123.240   133178968.340          50.000    25343129.100    99451811.598          50.000  
E27  25486020.140   133929910.547          50.000    25486024.540   100012582.445          50.000  
E30  22464867.240   118053662.871          50.000    22464870.840    88156947.535          50.000  
E36  26430124.860   138891204.531          50.000    26430130.300   103717443.578          50.000  
> 2020  5 21 18  9  8.0000000  0 15       0.000000000000
G 1  24359582.020   128010392.492          50.000    24359584.300    95592170.316          50.000  
G 6  23609050.740   124066331.387          50.000    23609054.740    92646930.801          50.000  
G13  22157215.200   116436939.961          50.000                                                  
G15  23073073.060   121249799.762          50.000                                                  
G17  20547857.680   107979721.727          50.000                                                  
G19  20258012.960   106456598.082          50.000                                                  
G24  23315767.680   122525126.844          50.000    23315770.520    91496032.680          50.000  
G28  21761375.680   114356795.930          50.000                                                  
G30  22646541.780   119008320.262          50.000    22646543.860    88869847.629          50.000  
E 2  25952809.880   136382926.094          50.000    25952813.640   101844382.922          50.000  
E 7  26827935.480   140981702.625          50.000    26827941.680   105278526.688          50.000  
E15  25342576.560   133176095.531          50.000    25342582.420    99449666.320          50.000  
E27  25485688.620   133928168.426          50.000    25485693.040   100011281.508          50.000  
E30  22464859.940   118053624.504          50.000    22464863.540    88156918.887          50.000  
E36  26430497.440   138893162.418          50.000    26430502.880   103718905.637          50.000  
> 2020  5 21 18  9  9.0000000  0 15       0.000000000000
G 1  24360004.360   128012611.898          50.000    24360006.640    95593827.668          50.000  
G 6  23608400.620   124062914.988          50.000    23608404.620    92644379.594          50.000  
G13  22157684.160   116439404.277          50.000                                                  
G15  23073351.040   121251260.563          50.000                                                  
G17  20548034.940   107980653.133          50.000                                                  
G19  20257802.300   106455491.141          50.000                                                  
G24  23315173.520   122522004.523          50.000    23315176.360    91493701.078          50.000  
G28  21761629.880   114358131.840          50.000                                                  
G30  22647116.320   119011339.582          50.000    22647118.420    88872102.316          50.000  
E 2  25953115.020   136384529.625          50.000    25953118.780   101845580.363          50.000  
E 7  26828373.600   140984004.949          50.000    26828379.800   105280245.953          50.000  
E15  25342029.920   133173222.914          50.000    25342035.780    99447521.188          50.000  
E27  25485357.100   133926426.309          50.000    25485361.520   100009980.582          50.000  
E30  22464852.660   118053586.254          50.000    22464856.260    88156890.324          50.000  
E36  26430870.080   138895120.648          50.000    26430875.520   103720367.949          50.000  
> 2020  5 21 18  9 10.0000000  0 15       0.000000000000
G 1  24360426.800   128014831.859          50.000    24360429.080    95595485.426          50.000  
G 6  23607750.520   124059498.691          50.000    23607754.520    92641828.465          50.000  
G13  22158153.180   116441869.008          50.000                                                  
G15  23073629.120   121252721.844          50.000                                                  
G17  20548212.260   107981585.020          50.000                                                  
G19  20257591.780   106454384.805          50.000                                                  
G24  23314579.400   122518882.430          50.000    23314582.240    91491369.648          50.000  
G28  21761884.120   114359467.840          50.000                                                  
G30  22647690.940   119014359.219          50.000    22647693.040    88874357.238          50.000  
E 2  25953420.180   136386133.250          50.000    25953423.940   101846777.875          50.000  
E 7  26828811.740   140986307.438          50.000    26828817.960   105281965.348          50.000  
E15  25341483.320   133170350.512          50.000    25341489.180    99445376.211          50.000  
E27  25485025.600   133924684.219          50.000    25485030.020   100008679.668          50.000  
E30  22464845.400   118053548.145          50.000    22464849.000    88156861.863          50.000  
E36  26431242.780   138897079.242          50.000    26431248.220   103721830.535          50.000  
> 2020  5 21 18  9 11.0000000  0 15       0.000000000000
G 1  24360849.360   128017052.359          50.000    24360851.640    95597143.594          50.000  
G 6  23607100.440   124056082.500          50.000    23607104.440    92639277.414          50.000  
G13  22158622.280   116444334.152          50.000                                                  
G15  23073907.280   121254183.605          50.000                                                  
G17  20548389.680   107982517.375          50.000                                                  
G19  20257381.360   106453279.070          50.000                                                  
G24  23313985.320   122515760.551          50.000    23313988.160    91489038.375          50.000  
G28  21762138.380   114360803.938          50.000                                                  
G30  22648265.640   119017379.191          50.000    22648267.720    88876612.414          50.000  
E 2  25953725.380   136387736.996          50.000    25953729.120   101847975.477          50.000  
E 7  26829249.920   140988610.063          50.000    26829256.120   105283684.836          50.000  
E15  25340936.740   133167478.289          50.000    25340942.600    99443231.371          50.000  
E27  25484694.100   133922942.141          50.000    25484698.500   100007378.766          50.000  
E30  22464838.180   118053510.184          50.000    22464841.780    88156833.516          50.000  
E36  26431615.560   138899038.191          50.000    26431621.000   103723293.387          50.000  
> 2020  5 21 18  9 12.0000000  0 15       0.000000000000
G 1  24361272.000   128019273.410          50.000    24361274.280    95598802.168          50.000  
G 6  23606450.380   124052666.402          50.000    23606454.380    92636726.434          50.000  
G13  22159091.460   116446799.727          50.000                                                  
G15  23074185.540   121255645.848          50.000                                                  
G17  20548567.200   107983450.199          50.000                                                  
G19  20257171.060   106452173.941          50.000                                                  
G24  23313391.300   122512638.891          50.000    23313394.140    91486707.270          50.000  
G28  21762392.640   114362140.129          50.000                                                  
G30  22648840.360   119020399.465          50.000    22648842.460    88878867.809          50.000  
E 2  25954030.580   136389340.844          50.000    25954034.320   101849173.156          50.000  
E 7  26829688.120   140990912.832          50.000    26829694.340   105285404.438          50.000  
E15  25340390.220   133164606.273          50.000    25340396.080    99441086.688          50.000  
E27  25484362.580   133921200.078          50.000    25484367.000   100006077.879          50.000  
E30  22464830.980   118053472.344          50.000    22464834.580    88156805.258          50.000  
E36  26431988.400   138900997.484          50.000    26431993.840   103724756.496          50.000  
> 2020  5 21 18  9 13.0000000  0 15       0.000000000000
G 1  24361694.760   128021495.004          50.000    24361697.040    95600461.148          50.000  
G 6  23605800.340   124049250.418          50.000    23605804.320    92634175.539          50.000  
G13  22159560.720   116449265.703          50.000                                                  
G15  23074463.880   121257108.570          50.000                                                  
G17  20548744.800   107984383.492          50.000                                                  
G19  20256960.880   106451069.414          50.000                                                  
G24  23312797.300   122509517.473          50.000    23312800.140    91484376.340          50.000  
G28  21762646.920   114363476.410          50.000                                                  
G30  22649415.180   119023420.074          50.000    22649417.260    88881123.457          50.000  
E 2  25954335.800   136390944.805          50.000    25954339.560   101850370.914          50.000  
E 7  26830126.360   140993215.777          50.000    26830132.560   105287124.168          50.000  
E15  25339843.720   133161734.434          50.000    25339849.580    99438942.129          50.000  
E27  25484031.080   133919458.031          50.000    25484035.500   100004777.000          50.000  
E30  22464823.800   118053434.633          50.000    22464827.400    88156777.098          50.000  
E36  26432361.320   138902957.137          50.000    26432366.760   103726219.867          50.000  
> 2020  5 21 18  9 14.0000000  0 15       0.000000000000
G 1  24362117.620   128023717.145          50.000    24362119.900    95602120.539          50.000  
G 6  23605150.320   124045834.543          50.000    23605154.300    92631624.723          50.000  
G13  22160030.060   116451732.105          50.000                                                  
G15  23074742.320   121258571.773          50.000                                                  
G17  20548922.480   107985317.266          50.000                                                  
G19  20256750.800   106449965.480          50.000                                                  
G24  23312203.360   122506396.238          50.000    23312206.200    91482045.547          50.000  
G28  21762901.240   114364812.789          50.000                                                  
G30  22649990.040   119026441.000          50.000    22649992.120    88883379.344          50.000  
E 2  25954641.040   136392548.871          50.000    25954644.800   101851568.758          50.000  
E 7  26830564.620   140995518.867          50.000    26830570.840   105288844.004          50.000  
E15  25339297.260   133158862.801          50.000    25339303.120    99436797.730          50.000  
E27  25483699.600   133917716.012          50.000    25483704.000   100003476.141          50.000  
E30  22464816.660   118053397.063          50.000    22464820.260    88156749.043          50.000  
E36  26432734.280   138904917.145          50.000    26432739.740   103727683.512          50.000  
> 2020  5 21 18  9 15.0000000  0 15       0.000000000000
G 1  24362540.580   128025939.832          50.000    24362542.860    95603780.340          50.000  
G 6  23604500.320   124042418.762          50.000    23604504.300    92629073.980          50.000  
G13  22160499.480   116454198.922          50.000                                                  
G15  23075020.860   121260035.434          50.000                                                  
G17  20549100.260   107986251.504          50.000                                                  
G19  20256540.860   106448862.156          50.000                                                  
G24  23311609.440   122503275.199          50.000    23311612.280    91479714.902          50.000  
G28  21763155.560   114366149.270          50.000                                                  
G30  22650564.960   119029462.242          50.000    22650567.040    88885635.465          50.000  
E 2  25954946.300   136394153.059          50.000    25954950.060   101852766.691          50.000  
E 7  26831002.920   140997822.105          50.000    26831009.120   105290563.957          50.000  
E15  25338750.860   133155991.363          50.000    25338756.720    99434653.477          50.000  
E27  25483368.100   133915974.000          50.000    25483372.500   100002175.285          50.000  
E30  22464809.540   118053359.629          50.000    22464813.120    88156721.090          50.000  
E36  26433107.340   138906877.508          50.000    26433112.780   103729147.418          50.000  
> 2020  5 21 18  9 16.0000000  0 15       0.000000000000
G 1  24362963.660   128028163.055          50.000    24362965.940    95605440.535          50.000  
G 6  23603850.340   124039003.113          50.000    23603854.320    92626523.332          50.000  
G13  22160968.980   116456666.160          50.000                                                  
G15  23075299.480   121261499.594          50.000                                                  
G17  20549278.140   107987186.227          50.000                                                  
G19  20256331.020   106447759.438          50.000                                                  
G24  23311015.580   122500154.391          50.000    23311018.400    91477384.430          50.000  
G28  21763409.900   114367485.840          50.000                                                  
G30  22651139.940   119032483.813          50.000    22651142.040    88887891.832          50.000  
E 2  25955251.600   136395757.352          50.000    25955255.360   101853964.699          50.000  
E 7  26831441.240   141000125.488          50.000    26831447.440   105292284.016          50.000  
E15  25338204.480   133153120.117          50.000    25338210.320    99432509.367          50.000  
E27  25483036.600   133914232.012          50.000    25483041.020   100000874.453          50.000  
E30  22464802.440   118053322.324          50.000    22464806.040    88156693.230          50.000  
E36  26433480.440   138908838.230          50.000    26433485.900   103730611.590          50.000  
> 2020  5 21 18  9 17.0000000  0 15       0.000000000000
G 1  24363386.820   128030386.820          50.000    24363389.100    95607101.137          50.000  
G 6  23603200.380   124035587.555          50.000    23603204.360    92623972.754          50.000  
G13  22161438.560   116459133.824          50.000                                                  
G15  23075578.180   121262964.230          50.000                                                  
G17  20549456.100   107988121.418          50.000                                                  
G19  20256121.280   106446657.324          50.000                                                  
G24  23310421.740   122497033.809          50.000    23310424.580    91475054.125          50.000  
G28  21763664.260   114368822.520          50.000                                                  
G30  22651715.000   119035505.699          50.000    22651717.080    88890148.434          50.000  
E 2  25955556.900   136397361.762          50.000    25955560.660   101855162.797          50.000  
E 7  26831879.600   141002429.035          50.000    26831885.800   105294004.195          50.000  
E15  25337658.120   133150249.074          50.000    25337663.980    99430365.406          50.000  
E27  25482705.120   133912490.043          50.000    25482709.540    99999573.633          50.000  
E30  22464795.360   118053285.156          50.000    22464798.960    88156665.477          50.000  
E36  26433853.620   138910799.297          50.000    26433859.080   103732076.023          50.000  
> 2020  5 21 18  9 18.0000000  0 15       0.000000000000
G 1  24363810.100   128032611.141          50.000    24363812.380    95608762.156          50.000  
G 6  23602550.440   124032172.109          50.000    23602554.420    92621422.262          50.000  
G13  22161908.220   116461601.898          50.000                                                  
G15  23075856.980   121264429.355          50.000                                                  
G17  20549634.140   107989057.078          50.000                                                  
G19  20255911.680   106445555.801          50.000                                                  
G24  23309827.960   122493913.457          50.000    23309830.800    91472723.992          50.000  
G28  21763918.640   114370159.289          50.000                                                  
G30  22652290.100   119038527.902          50.000    22652292.180    88892405.273          50.000  
E 2  25955862.240   136398966.285          50.000    25955866.000   101856360.980          50.000  
E 7  26832317.980   141004732.730          50.000    26832324.180   105295724.484          50.000  
E15  25337111.820   133147378.219          50.000    25337117.680    99428221.586          50.000  
E27  25482373.640   133910748.082          50.000    25482378.040    99998272.820          50.000  
E30  22464788.320   118053248.121          50.000    22464791.920    88156637.820          50.000  
E36  26434226.880   138912760.723          50.000    26434232.320   103733540.727          50.000  
> 2020  5 21 18  9 19.0000000  0 15       0.000000000000
G 1  24364233.480   128034835.996          50.000    24364235.760    95610423.570          50.000  
G 6  23601900.520   124028756.770          50.000    23601904.500    92618871.848          50.000  
G13  22162377.960   116464070.391          50.000                                                  
G15  23076135.880   121265894.945          50.000                                                  
G17  20549812.280   107989993.219          50.000                                                  
G19  20255702.180   106444454.895          50.000                                                  
G24  23309234.200   122490793.285          50.000    23309237.040    91470393.996          50.000  
G28  21764173.040   114371496.148          50.000                                                  
G30  22652865.260   119041550.430          50.000    22652867.360    88894662.355          50.000  
E 2  25956167.580   136400570.914          50.000    25956171.340   101857559.242          50.000  
E 7  26832756.380   141007036.566          50.000    26832762.580   105297444.883          50.000  
E15  25336565.560   133144507.563          50.000    25336571.420    99426077.918          50.000  
E27  25482042.160   133909006.133          50.000    25482046.560    99996972.012          50.000  
E30  22464781.280   118053211.223          50.000    22464784.880    88156610.266          50.000  
E36  26434600.180   138914722.504          50.000    26434605.640   103735005.691          50.000  
> 2020  5 21 18  9 20.0000000  0 15       0.000000000000
G 1  24364656.960   128037061.402          50.000    24364659.240    95612085.398          50.000  
G 6  23601250.620   124025341.539          50.000    23601254.620    92616321.516          50.000  
G13  22162847.780   116466539.293          50.000                                                  
G15  23076414.860   121267361.023          50.000                                                  
G17  20549990.520   107990929.832          50.000                                                  
G19  20255492.800   106443354.582          50.000                                                  
G24  23308640.500   122487673.328          50.000    23308643.340    91468064.160          50.000  
G28  21764427.440   114372833.098          50.000                                                  
G30  22653440.500   119044573.281          50.000    22653442.580    88896919.676          50.000  
E 2  25956472.960   136402175.652          50.000    25956476.720   101858757.586          50.000  
E 7  26833194.820   141009340.563          50.000    26833201.020   105299165.398          50.000  
E15  25336019.320   133141637.098          50.000    25336025.180    99423934.391          50.000  
E27  25481710.680   133907264.207          50.000    25481715.080    99995671.223          50.000  
E30  22464774.300   118053174.453          50.000    22464777.900    88156582.809          50.000  
E36  26434973.580   138916684.637          50.000    26434979.020   103736470.922          50.000  
> 2020  5 21 18  9 21.0000000  0 15       0.000000000000
G 1  24365080.540   128039287.352          50.000    24365082.820    95613747.637          50.000  
G 6  23600600.740   124021926.414          50.000    23600604.740    92613771.262          50.000  
G13  22163317.680   116469008.621          50.000                                                  
G15  23076693.940   121268827.574          50.000                                                  
G17  20550168.840   107991866.910          50.000                                                  
G19  20255283.520   106442254.863          50.000                                                  
G24  23308046.840   122484553.602          50.000    23308049.680    91465734.496          50.000  
G28  21764681.880   114374170.145          50.000                                                  
G30  22654015.800   119047596.453          50.000    22654017.880    88899177.238          50.000  
E 2  25956778.360   136403780.508          50.000    25956782.120   101859956.016          50.000  
E 7  26833633.280   141011644.715          50.000    26833639.480   105300886.031          50.000  
E15  25335473.120   133138766.828          50.000    25335478.980    99421791.008          50.000  
E27  25481379.200   133905522.297          50.000    25481383.620    99994370.449          50.000  
E30  22464767.320   118053137.824          50.000    22464770.920    88156555.457          50.000  
E36  26435347.020   138918647.133          50.000    26435352.480   103737936.422          50.000  
> 2020  5 21 18  9 22.0000000  0 15       0.000000000000
G 1  24365504.220   128041513.820          50.000    24365506.500    95615410.250          50.000  
G 6  23599950.880   124018511.383          50.000    23599954.880    92611221.074          50.000  
G13  22163787.660   116471478.348          50.000                                                  
G15  23076973.120   121270294.570          50.000                                                  
G17  20550347.260   107992804.492          50.000                                                  
G19  20255074.380   106441155.754          50.000                                                  
G24  23307453.220   122481434.129          50.000    23307456.040    91463405.035          50.000  
G28  21764936.320   114375507.297          50.000                                                  
G30  22654591.140   119050619.934          50.000    22654593.240    88901435.031          50.000  
E 2  25957083.760   136405385.461          50.000    25957087.520   101861154.520          50.000  
E 7  26834071.780   141013949.012          50.000    26834077.980   105302606.770          50.000  
E15  25334926.980   133135896.762          50.000    25334932.820    99419647.777          50.000  
E27  25481047.740   133903780.406          50.000    25481052.140    99993069.684          50.000  
E30  22464760.380   118053101.324          50.000    22464763.980    88156528.199          50.000  
E36  26435720.540   138920609.977          50.000    26435725.980   103739402.176          50.000  
> 2020  5 21 18  9 23.0000000  0 15       0.000000000000
G 1  24365928.020   128043740.859          50.000    24365930.300    95617073.297          50.000  
G 6  23599301.060   124015096.469          50.000    23599305.040    92608670.977          50.000  
G13  22164257.720   116473948.496          50.000                                                  
G15  23077252.360   121271762.066          50.000                                                  
G17  20550525.760   107993742.512          50.000                                                  
G19  20254865.340   106440057.246          50.000                                                  
G24  23306859.620   122478314.832          50.000    23306862.460    91461075.688          50.000  
G28  21765190.800   114376844.531          50.000                                                  
G30  22655166.560   119053643.746          50.000    22655168.640    88903693.070          50.000  
E 2  25957389.200   136406990.535          50.000    25957392.960   101862353.113          50.000  
E 7  26834510.300   141016253.457          50.000    26834516.500   105304327.621          50.000  
E15  25334380.860   133133026.879          50.000    25334386.700    99417504.684          50.000  
E27  25480716.260   133902038.527          50.000    25480720.680    99991768.934          50.000  
E30  22464753.460   118053064.957          50.000    22464757.060    88156501.043          50.000  
E36  26436094.120   138922573.168          50.000    26436099.580   103740868.199          50.000  
> 2020  5 21 18  9 24.0000000  0 15       0.000000000000
G 1  24366351.920   128045968.438          50.000    24366354.200    95618736.750          50.000  
G 6  23598651.240   124011681.652          50.000    23598655.220    92606120.953          50.000  
G13  22164727.840   116476419.070          50.000                                                  
G15  23077531.720   121273230.047          50.000                                                  
G17  20550704.340   107994681.012          50.000                                                  
G19  20254656.400   106438959.336          50.000                                                  
G24  23306266.080   122475195.746          50.000    23306268.920    91458746.504          50.000  
G28  21765445.280   114378181.859          50.000                                                  
G30  22655742.020   119056667.867          50.000    22655744.120    88905951.344          50.000  
E 2  25957694.660   136408595.730          50.000    25957698.420   101863551.797          50.000  
E 7  26834948.840   141018558.051          50.000    26834955.060   105306048.586          50.000  
E15  25333834.760   133130157.211          50.000    25333840.620    99415361.750          50.000  
E27  25480384.800   133900296.664          50.000    25480389.200    99990468.191          50.000  
E30  22464746.560   118053028.719          50.000    22464750.160    88156473.980          50.000  
E36  26436467.780   138924536.715          50.000    26436473.220   103742334.480          50.000  
> 2020  5 21 18  9 25.0000000  0 15       0.000000000000
G 1  24366775.920   128048196.563          50.000    24366778.200    95620400.605          50.000  
G 6  23598001.440   124008266.957          50.000    23598005.420    92603571.020          50.000  
G13  22165198.060   116478890.051          50.000                                                  
G15  23077811.160   121274698.508          50.000                                                  
G17  20550883.020   107995619.984          50.000                                                  
G19  20254447.600   106437862.035          50.000                                                  
G24  23305672.580   122472076.867          50.000    23305675.420    91456417.469          50.000  
G28  21765699.780   114379519.281          50.000                                                  
G30  22656317.560   119059692.313          50.000    22656319.660    88908209.855          50.000  
E 2  25958000.140   136410201.020          50.000    25958003.900   101864750.551          50.000  
E 7  26835387.420   141020862.805          50.000    26835393.640   105307769.664          50.000  
E15  25333288.720   133127287.719          50.000    25333294.580    99413218.949          50.000  
E27  25480053.340   133898554.816          50.000    25480057.740    99989167.461          50.000  
E30  22464739.700   118052992.629          50.000    22464743.300    88156447.031          50.000  
E36  26436841.500   138926500.621          50.000    26436846.940   103743801.035          50.000  
> 2020  5 21 18  9 26.0000000  0 15       0.000000000000
G 1  24367200.020   128050425.242          50.000    24367202.300    95622064.879          50.000  
G 6  23597351.660   124004852.371          50.000    23597355.660    92601021.168          50.000  
G13  22165668.360   116481361.445          50.000                                                  
G15  23078090.680   121276167.441          50.000                                                  
G17  20551061.800   107996559.426          50.000                                                  
G19  20254238.900   106436765.324          50.000                                                  
G24  23305079.120   122468958.219          50.000    23305081.960    91454088.613          50.000  
G28  21765954.300   114380856.797          50.000                                                  
G30  22656893.160   119062717.082          50.000    22656895.260    88910468.609          50.000  
E 2  25958305.640   136411806.434          50.000    25958309.400   101865949.398          50.000  
E 7  26835826.040   141023167.707          50.000    26835832.240   105309490.855          50.000  
E15  25332742.720   133124418.430          50.000    25332748.580    99411076.297          50.000  
E27  25479721.880   133896813.000          50.000    25479726.280    99987866.758          50.000  
E30  22464732.840   118052956.664          50.000    22464736.440    88156420.172          50.000  
E36  26437215.280   138928464.875          50.000    26437220.720   103745267.848          50.000  
> 2020  5 21 18  9 27.0000000  0 15       0.000000000000
G 1  24367624.240   128052654.461          50.000    24367626.500    95623729.551          50.000  
G 6  23596701.900   124001437.895          50.000    23596705.900    92598471.395          50.000  
G13  22166138.720   116483833.258          50.000                                                  
G15  23078370.300   121277636.859          50.000                                                  
G17  20551240.660   107997499.344          50.000                                                  
G19  20254030.320   106435669.227          50.000                                                  
G24  23304485.700   122465839.781          50.000    23304488.540    91451759.906          50.000  
G28  21766208.840   114382194.406          50.000                                                  
G30  22657468.820   119065742.172          50.000    22657470.900    88912727.602          50.000  
E 2  25958611.160   136413411.953          50.000    25958614.920   101867148.324          50.000  
E 7  26836264.680   141025472.754          50.000    26836270.880   105311212.160          50.000  
E15  25332196.740   133121549.344          50.000    25332202.600    99408933.801          50.000  
E27  25479390.420   133895071.191          50.000    25479394.840    99986566.055          50.000  
E30  22464726.040   118052920.836          50.000    22464729.620    88156393.422          50.000  
E36  26437589.140   138930429.496          50.000    26437594.580   103746734.934          50.000  
> 2020  5 21 18  9 28.0000000  0 15       0.000000000000
G 1  24368048.540   128054884.227          50.000    24368050.820    95625394.633          50.000  
G 6  23596052.180   123998023.520          50.000    23596056.160    92595921.699          50.000  
G13  22166609.180   116486305.500          50.000                                                  
G15  23078650.020   121279106.754          50.000                                                  
G17  20551419.600   107998439.738          50.000                                                  
G19  20253821.860   106434573.734          50.000                                                  
G24  23303892.320   122462721.559          50.000    23303895.160    91449431.359          50.000  
G28  21766463.400   114383532.113          50.000                                                  
G30  22658044.540   119068767.594          50.000    22658046.620    88914986.840          50.000  
E 2  25958916.700   136415017.582          50.000    25958920.460   101868347.332          50.000  
E 7  26836703.340   141027777.973          50.000    26836709.540   105312933.586          50.000  
E15  25331650.820   133118680.445          50.000    25331656.660    99406791.441          50.000  
E27  25479058.960   133893329.398          50.000    25479063.380    99985265.363          50.000  
E30  22464719.240   118052885.145          50.000    22464722.840    88156366.766          50.000  
E36  26437963.060   138932394.457          50.000    26437968.500   103748202.273          50.000  
> 2020  5 21 18  9 29.0000000  0 15       0.000000000000
G 1  24368472.960   128057114.535          50.000    24368475.240    95627060.121          50.000  
G 6  23595402.460   123994609.262          50.000    23595406.440    92593372.090          50.000  
G13  22167079.700   116488778.152          50.000                                                  
G15  23078929.820   121280577.133          50.000                                                  
G17  20551598.660   107999380.609          50.000                                                  
G19  20253613.500   106433478.852          50.000                                                  
G24  23303298.980   122459603.547          50.000    23303301.820    91447102.977          50.000  
G28  21766717.980   114384869.922          50.000                                                  
G30  22658620.320   119071793.324          50.000    22658622.400    88917246.313          50.000  
E 2  25959222.260   136416623.324          50.000    25959226.020   101869546.426          50.000  
E 7  26837142.040   141030083.320          50.000    26837148.240   105314655.113          50.000  
E15  25331104.920   133115811.734          50.000    25331110.760    99404649.223          50.000  
E27  25478727.520   133891587.617          50.000    25478731.920    99983964.684          50.000  
E30  22464712.480   118052849.578          50.000    22464716.060    88156340.207          50.000  
E36  26438337.040   138934359.773          50.000    26438342.500   103749669.879          50.000  
> 2020  5 21 18  9 30.0000000  0 15       0.000000000000
G 1  24368897.480   128059345.391          50.000    24368899.760    95628726.020          50.000  
G 6  23594752.780   123991195.117          50.000    23594756.760    92590822.570          50.000  
G13  22167550.320   116491251.223          50.000                                                  
G15  23079209.720   121282047.984          50.000                                                  
G17  20551777.780   108000321.941          50.000                                                  
G19  20253405.280   106432384.570          50.000                                                  
G24  23302705.700   122456485.793          50.000    23302708.540    91444774.785          50.000  
G28  21766972.580   114386207.805          50.000                                                  
G30  22659196.160   119074819.363          50.000    22659198.240    88919506.016          50.000  
E 2  25959527.840   136418229.184          50.000    25959531.600   101870745.605          50.000  
E 7  26837580.760   141032388.824          50.000    26837586.960   105316376.754          50.000  
E15  25330559.060   133112943.242          50.000    25330564.920    99402507.172          50.000  
E27  25478396.080   133889845.863          50.000    25478400.480    99982664.023          50.000  
E30  22464705.740   118052814.160          50.000    22464709.320    88156313.758          50.000  
E36  26438711.100   138936325.445          50.000    26438716.540   103751137.750          50.000  
> 2020  5 21 18  9 31.0000000  0 15       0.000000000000
G 1  24369322.100   128061576.789          50.000    24369324.380    95630392.320          50.000  
G 6  23594103.100   123987781.078          50.000    23594107.080    92588273.125          50.000  
G13  22168021.000   116493724.711          50.000                                                  
G15  23079489.700   121283519.316          50.000                                                  
G17  20551957.000   108001263.754          50.000                                                  
G19  20253197.160   106431290.895          50.000                                                  
G24  23302112.440   122453368.219          50.000    23302115.280    91442446.727          50.000  
G28  21767227.180   114387545.801          50.000                                                  
G30  22659772.060   119077845.734          50.000    22659774.140    88921765.965          50.000  
E 2  25959833.460   136419835.145          50.000    25959837.220   101871944.863          50.000  
E 7  26838019.500   141034694.484          50.000    26838025.720   105318098.512          50.000  
E15  25330013.240   133110074.926          50.000    25330019.080    99400365.246          50.000  
E27  25478064.620   133888104.113          50.000    25478069.040    99981363.367          50.000  
E30  22464699.020   118052778.867          50.000    22464702.620    88156287.402          50.000  
E36  26439085.220   138938291.477          50.000    26439090.680   103752605.891          50.000  
> 2020  5 21 18  9 32.0000000  0 15       0.000000000000
G 1  24369746.820   128063808.730          50.000    24369749.100    95632059.027          50.000  
G 6  23593453.440   123984367.137          50.000    23593457.440    92585723.754          50.000  
G13  22168491.780   116496198.625          50.000                                                  
G15  23079769.780   121284991.129          50.000                                                  
G17  20552136.320   108002206.039          50.000                                                  
G19  20252989.140   106430197.816          50.000                                                  
G24  23301519.220   122450250.863          50.000    23301522.060    91440118.836          50.000  
G28  21767481.820   114388883.891          50.000                                                  
G30  22660348.020   119080872.434          50.000    22660350.100    88924026.164          50.000  
E 2  25960139.080   136421441.227          50.000    25960142.840   101873144.207          50.000  
E 7  26838458.300   141037000.293          50.000    26838464.500   105319820.379          50.000  
E15  25329467.440   133107206.809          50.000    25329473.300    99398223.469          50.000  
E27  25477733.180   133886362.391          50.000    25477737.600    99980062.730          50.000  
E30  22464692.320   118052743.707          50.000    22464695.920    88156261.148          50.000  
E36  26439459.420   138940257.859          50.000    26439464.860   103754074.289          50.000  
> 2020  5 21 18  9 33.0000000  0 15       0.000000000000
G 1  24370171.640   128066041.207          50.000    24370173.920    95633726.137          50.000  
G 6  23592803.820   123980953.328          50.000    23592807.800    92583174.484          50.000  
G13  22168962.620   116498672.949          50.000                                                  
G15  23080049.940   121286463.414          50.000                                                  
G17  20552315.720   108003148.797          50.000                                                  
G19  20252781.260   106429105.355          50.000                                                  
G24  23300926.060   122447133.734          50.000    23300928.900    91437791.109          50.000  
G28  21767736.460   114390222.086          50.000                                                  
G30  22660924.040   119083899.445          50.000    22660926.120    88926286.594          50.000  
E 2  25960444.740   136423047.422          50.000    25960448.480   101874343.637          50.000  
E 7  26838897.100   141039306.258          50.000    26838903.320   105321542.367          50.000  
E15  25328921.700   133104338.895          50.000    25328927.560    99396081.852          50.000  
E27  25477401.760   133884620.691          50.000    25477406.160    99978762.113          50.000  
E30  22464685.660   118052708.680          50.000    22464689.260    88156234.992          50.000  
E36  26439833.660   138942224.594          50.000    26439839.120   103755542.957          50.000  
> 2020  5 21 18  9 34.0000000  0 15       0.000000000000
G 1  24370596.580   128068274.238          50.000    24370598.860    95635393.656          50.000  
G 6  23592154.220   123977539.613          50.000    23592158.200    92580625.285          50.000  
G13  22169433.560   116501147.684          50.000                                                  
G15  23080330.200   121287936.180          50.000                                                  
G17  20552495.200   108004092.027          50.000                                                  
G19  20252573.480   106428013.484          50.000                                                  
G24  23300332.920   122444016.813          50.000    23300335.760    91435463.539          50.000  
G28  21767991.140   114391560.367          50.000                                                  
G30  22661500.120   119086926.777          50.000    22661502.220    88928547.262          50.000  
E 2  25960750.400   136424653.738          50.000    25960754.160   101875543.160          50.000  
E 7  26839335.940   141041612.359          50.000    26839342.140   105323264.457          50.000  
E15  25328376.000   133101471.191          50.000    25328381.840    99393940.383          50.000  
E27  25477070.320   133882878.996          50.000    25477074.720    99977461.496          50.000  
E30  22464679.020   118052673.797          50.000    22464682.620    88156208.941          50.000  
E36  26440208.000   138944191.684          50.000    26440213.440   103757011.887          50.000  
> 2020  5 21 18  9 38.0000000  0 15       0.000000000000
G 1  24372296.900   128077209.508          50.000    24372299.200    95642066.094          50.000  
G 6  23589555.780   123963884.820          50.000    23589559.760    92570428.539          50.000  
G13  22171318.440   116511052.801          50.000                                                  
G15  23081452.740   121293835.156          50.000                                                  
G17  20553213.960   108007869.078          50.000                                                  
G19  20251743.620   106423652.496          50.000                                                  
G24  23297961.280   122431553.695          50.000    23297964.100    91426156.664          50.000  
G28  21769009.600   114396912.441          50.000                                                  
G30  22663804.640   119099037.156          50.000    22663806.740    88937590.723          50.000  
E 2  25961972.700   136431076.914          50.000    25961976.440   101880339.688          50.000  
E 7  26841092.120   141050841.141          50.000    26841098.340   105330156.066          50.000  
E15  25326193.460   133090001.875          50.000    25326199.300    99385375.633          50.000  
E27  25475745.080   133875914.863          50.000    25475749.500    99972261.012          50.000  
E30  22464652.600   118052534.941          50.000    22464656.200    88156105.250          50.000  
E36  26441705.540   138952061.297          50.000    26441710.980   103762888.539          50.000  
> 2020  5 21 18  9 39.0000000  0 15       0.000000000000
G 1  24372722.360   128079445.254          50.000    24372724.640    95643735.648          50.000  
G 6  23588906.280   123960471.664          50.000    23588910.260    92567879.754          50.000  
G13  22171789.760   116513529.621          50.000                                                  
G15  23081733.460   121295310.297          50.000                                                  
G17  20553393.900   108008814.664          50.000                                                  
G19  20251536.420   106422563.641          50.000                                                  
G24  23297368.340   122428437.840          50.000    23297371.180    91423829.891          50.000  
G28  21769264.360   114398251.195          50.000                                                  
G30  22664381.040   119102066.082          50.000    22664383.120    88939852.582          50.000  
E 2  25962278.460   136432683.773          50.000    25962282.220   101881539.617          50.000  
E 7  26841531.100   141053148.000          50.000    26841537.320   105331878.719          50.000  
E15  25325647.940   133087135.137          50.000    25325653.780    99383234.891          50.000  
E27  25475413.680   133874173.258          50.000    25475418.080    99970960.465          50.000  
E30  22464646.080   118052500.723          50.000    22464649.680    88156079.695          50.000  
E36  26442080.200   138954030.148          50.000    26442085.640   103764358.785          50.000  
> 2020  5 21 18  9 40.0000000  0 15       0.000000000000
G 1  24373147.900   128081681.539          50.000    24373150.200    95645405.598          50.000  
G 6  23588256.800   123957058.609          50.000    23588260.780    92565331.047          50.000  
G13  22172261.160   116516006.852          50.000                                                  
G15  23082014.260   121296785.914          50.000                                                  
G17  20553573.920   108009760.723          50.000                                                  
G19  20251329.320   106421475.391          50.000                                                  
G24  23296775.460   122425322.211          50.000    23296778.300    91421503.285          50.000  
G28  21769519.120   114399590.016          50.000                                                  
G30  22664957.480   119105095.328          50.000    22664959.580    88942114.680          50.000  
E 2  25962584.260   136434290.746          50.000    25962588.020   101882739.629          50.000  
E 7  26841970.120   141055455.000          50.000    26841976.320   105333601.480          50.000  
E15  25325102.440   133084268.598          50.000    25325108.300    99381094.293          50.000  
E27  25475082.260   133872431.668          50.000    25475086.660    99969659.926          50.000  
E30  22464639.600   118052466.633          50.000    22464643.200    88156054.238          50.000  
E36  26442454.920   138955999.355          50.000    26442460.380   103765829.293          50.000  
> 2020  5 21 18  9 41.0000000  0 15       0.000000000000
G 1  24373573.560   128083918.379          50.000    24373575.860    95647075.965          50.000  
G 6  23587607.320   123953645.664          50.000    23587611.300    92562782.422          50.000  
G13  22172732.640   116518484.500          50.000                                                  
G15  23082295.140   121298262.004          50.000                                                  
G17  20553754.040   108010707.250          50.000                                                  
G19  20251122.360   106420387.738          50.000                                                  
G24  23296182.620   122422206.813          50.000    23296185.460    91419176.852          50.000  
G28  21769773.920   114400928.965          50.000                                                  
G30  22665533.980   119108124.891          50.000    22665536.080    88944377.016          50.000  
E 2  25962890.080   136435897.832          50.000    25962893.840   101883939.723          50.000  
E 7  26842409.160   141057762.160          50.000    26842415.360   105335324.359          50.000  
E15  25324557.000   133081402.262          50.000    25324562.860    99378953.848          50.000  
E27  25474750.840   133870690.098          50.000    25474755.260    99968359.402          50.000  
E30  22464633.140   118052432.684          50.000    22464636.740    88156028.887          50.000  
E36  26442829.720   138957968.914          50.000    26442835.180   103767300.070          50.000  
> 2020  5 21 18  9 42.0000000  0 15       0.000000000000
G 1  24373999.320   128086155.754          50.000    24374001.600    95648746.727          50.000  
G 6  23586957.880   123950232.836          50.000    23586961.860    92560233.883          50.000  
G13  22173204.200   116520962.563          50.000                                                  
G15  23082576.120   121299738.586          50.000                                                  
G17  20553934.240   108011654.254          50.000                                                  
G19  20250915.500   106419300.695          50.000                                                  
G24  23295589.820   122419091.645          50.000    23295592.660    91416850.594          50.000  
G28  21770028.720   114402268.004          50.000                                                  
G30  22666110.560   119111154.781          50.000    22666112.660    88946639.594          50.000  
E 2  25963195.920   136437505.023          50.000    25963199.680   101885139.898          50.000  
E 7  26842848.220   141060069.469          50.000    26842854.440   105337047.348          50.000  
E15  25324011.600   133078536.113          50.000    25324017.440    99376813.543          50.000  
E27  25474419.440   133868948.543          50.000    25474423.840    99967058.891          50.000  
E30  22464626.700   118052398.875          50.000    22464630.300    88156003.645          50.000  
E36  26443204.580   138959938.824          50.000    26443210.040   103768771.105          50.000  
> 2020  5 21 18  9 43.0000000  0 15       0.000000000000
G 1  24374425.200   128088393.684          50.000    24374427.480    95650417.910          50.000  
G 6  23586308.460   123946820.113          50.000    23586312.440    92557685.422          50.000  
G13  22173675.840   116523441.043          50.000                                                  
G15  23082857.200   121301215.641          50.000                                                  
G17  20554114.540   108012601.723          50.000                                                  
G19  20250708.760   106418214.254          50.000                                                  
G24  23294997.080   122415976.715          50.000    23294999.900    91414524.512          50.000  
G28  21770283.560   114403607.133          50.000                                                  
G30  22666687.180   119114184.988          50.000    22666689.280    88948902.410          50.000  
E 2  25963501.780   136439112.344          50.000    25963505.540   101886340.168          50.000  
E 7  26843287.320   141062376.922          50.000    26843293.520   105338770.445          50.000  
E15  25323466.220   133075670.172          50.000    25323472.080    99374673.395          50.000  
E27  25474088.040   133867207.004          50.000    25474092.440    99965758.391          50.000  
E30  22464620.300   118052365.191          50.000    22464623.900    88155978.488          50.000  
E36  26443579.520   138961909.094          50.000    26443584.960   103770242.410          50.000  
> 2020  5 21 18  9 44.0000000  0 15       0.000000000000
G 1  24374851.160   128090632.141          50.000    24374853.440    95652089.484          50.000  
G 6  23585659.060   123943407.496          50.000    23585663.040    92555137.039          50.000  
G13  22174147.560   116525919.930          50.000                                                  
G15  23083138.380   121302693.184          50.000                                                  
G17  20554294.940   108013549.672          50.000                                                  
G19  20250502.120   106417128.410          50.000                                                  
G24  23294404.360   122412862.012          50.000    23294407.200    91412198.598          50.000  
G28  21770538.400   114404946.332          50.000                                                  
G30  22667263.880   119117215.504          50.000    22667265.980    88951165.457          50.000  
E 2  25963807.660   136440719.754          50.000    25963811.420   101887540.508          50.000  
E 7  26843726.440   141064684.523          50.000    26843732.640   105340493.652          50.000  
E15  25322920.880   133072804.418          50.000    25322926.740    99372533.383          50.000  
E27  25473756.640   133865465.473          50.000    25473761.040    99964457.898          50.000  
E30  22464613.920   118052331.652          50.000    22464617.520    88155953.441          50.000  
E36  26443954.500   138963879.703          50.000    26443959.960   103771713.969          50.000  
