     3.03           OBSERVATION DATA    M: Mixed            RINEX VERSION / TYPE
sbp2rinex v2.2 (RTKL                    20210504 171524 UTC PGM / RUN BY / DATE 
log: 2020-05-28-US-MTV-1.sbp                                COMMENT             
format: Swift Navigation SBP, option: CONVBASE,EPHALL,OBSALLCOMMENT             
                                                            MARKER NAME         
                                                            MARKER NUMBER       
                                                            MARKER TYPE         
                                                            OBSERVER / AGENCY   
                                                            REC # / TYPE / VERS 
                                                            ANT # / TYPE        
 -2726197.8094 -4347423.0940  3775245.4708                  APPROX POSITION XYZ 
        0.0000        0.0000        0.0000                  ANTENNA: DELTA H/E/N
G    6 C1C L1C S1C C5I L5I S5I                              SYS / # / OBS TYPES 
E    6 C1B L1B S1B C5I L5I S5I                              SYS / # / OBS TYPES 
  2020     5    28    19    10   15.0000000     GPS         TIME OF FIRST OBS   
  2020     5    28    19    45   41.0000000     GPS         TIME OF LAST OBS    
G                                                           SYS / PHASE SHIFT   
E                                                           SYS / PHASE SHIFT   
  0                                                         GLONASS SLOT / FRQ #
 C1C    0.000 C1P    0.000 C2C    0.000 C2P    0.000        GLONASS COD/PHS/BIS 
                                                            END OF HEADER       
> 2020  5 28 19 10 15.0000000  0 12       0.000000000000
G 2  21972013.360   115463713.746          50.000                                                  
G 6  20958227.080   110136172.637          50.000    20958229.860    82244543.656          50.000  
G12  22794311.080   119784899.113          50.000                                                  
G17  22444314.640   117945620.781          50.000                                                  
G19  20674101.260   108643130.262          50.000                                                  
G24  21137453.000   111078005.535          50.000    21137455.360    82947857.844          50.000  
G28  23428409.540   123117238.910          50.000                                                  
E 2  24564655.880   129088128.387          50.000    24564659.560    96396969.309          50.000  
E15  25378244.800   133363522.844          50.000    25378251.540    99589625.094          50.000  
E27  26724605.840   140438703.879          50.000    26724611.800   104873039.445          50.000  
E30  22361312.580   117509473.617          50.000    22361316.580    87750570.730          50.000  
E36  25389950.440   133425047.363          50.000    25389956.060    99635571.934          50.000  
> 2020  5 28 19 10 16.0000000  0 12       0.000000000000
G 2  21971531.520   115461181.629          50.000                                                  
G 6  20957992.200   110134938.289          50.000    20957994.980    82243621.902          50.000  
G12  22793811.380   119782273.188          50.000                                                  
G17  22444778.500   117948058.363          50.000                                                  
G19  20674423.280   108644822.449          50.000                                                  
G24  21137312.760   111077268.586          50.000    21137315.120    82947307.523          50.000  
G28  23428785.560   123119214.887          50.000                                                  
E 2  24564918.540   129089508.695          50.000    24564922.240    96398000.059          50.000  
E15  25377724.620   133360789.254          50.000    25377731.360    99587583.777          50.000  
E27  26724153.260   140436325.582          50.000    26724159.220   104871263.445          50.000  
E30  22361151.760   117508628.539          50.000    22361155.760    87749939.668          50.000  
E36  25390361.880   133427209.504          50.000    25390367.500    99637186.520          50.000  
> 2020  5 28 19 10 17.0000000  0 12       0.000000000000
G 2  21971049.740   115458649.918          50.000                                                  
G 6  20957757.420   110133704.590          50.000    20957760.220    82242700.633          50.000  
G12  22793311.700   119779647.332          50.000                                                  
G17  22445242.380   117950496.047          50.000                                                  
G19  20674745.360   108646514.980          50.000                                                  
G24  21137172.640   111076532.262          50.000    21137175.000    82946757.668          50.000  
G28  23429161.600   123121191.035          50.000                                                  
E 2  24565181.240   129090889.246          50.000    24565184.940    96399030.988          50.000  
E15  25377204.480   133358055.895          50.000    25377211.200    99585542.637          50.000  
E27  26723700.680   140433947.277          50.000    26723706.640   104869487.441          50.000  
E30  22360991.000   117507783.668          50.000    22360995.000    87749308.758          50.000  
E36  25390773.380   133429371.918          50.000    25390779.000    99638801.309          50.000  
> 2020  5 28 19 10 18.0000000  0 12       0.000000000000
G 2  21970568.060   115456118.617          50.000                                                  
G 6  20957522.780   110132471.523          50.000    20957525.560    82241779.840          50.000  
G12  22792812.040   119777021.563          50.000                                                  
G17  22445706.280   117952933.828          50.000                                                  
G19  20675067.500   108648207.887          50.000                                                  
G24  21137032.640   111075796.539          50.000    21137035.000    82946208.270          50.000  
G28  23429537.680   123123167.340          50.000                                                  
E 2  24565444.000   129092270.063          50.000    24565447.700    96400062.117          50.000  
E15  25376684.380   133355322.777          50.000    25376691.120    99583501.672          50.000  
E27  26723248.100   140431568.949          50.000    26723254.060   104867711.418          50.000  
E30  22360830.260   117506939.016          50.000    22360834.260    87748678.012          50.000  
E36  25391184.920   133431534.598          50.000    25391190.540    99640416.297          50.000  
> 2020  5 28 19 10 19.0000000  0 12       0.000000000000
G 2  21970086.440   115453587.715          50.000                                                  
G 6  20957288.260   110131239.090          50.000    20957291.040    82240859.516          50.000  
G12  22792312.380   119774395.875          50.000                                                  
G17  22446170.200   117955371.711          50.000                                                  
G19  20675389.720   108649901.156          50.000                                                  
G24  21136892.760   111075061.441          50.000    21136895.120    82945659.332          50.000  
G28  23429913.780   123125143.793          50.000                                                  
E 2  24565706.820   129093651.109          50.000    24565710.500    96401093.418          50.000  
E15  25376164.320   133352589.871          50.000    25376171.060    99581460.867          50.000  
E27  26722795.520   140429190.621          50.000    26722801.480   104865935.395          50.000  
E30  22360669.560   117506094.566          50.000    22360673.560    87748047.414          50.000  
E36  25391596.520   133433697.555          50.000    25391602.140    99642031.488          50.000  
> 2020  5 28 19 10 20.0000000  0 12       0.000000000000
G 2  21969604.900   115451057.219          50.000                                                  
G 6  20957053.860   110130007.297          50.000    20957056.640    82239939.672          50.000  
G12  22791812.740   119771770.270          50.000                                                  
G17  22446634.120   117957809.695          50.000                                                  
G19  20675712.000   108651594.785          50.000                                                  
G24  21136753.000   111074326.961          50.000    21136755.340    82945110.855          50.000  
G28  23430289.920   123127120.406          50.000                                                  
E 2  24565969.660   129095032.406          50.000    24565973.360    96402124.902          50.000  
E15  25375644.320   133349857.195          50.000    25375651.040    99579420.234          50.000  
E27  26722342.920   140426812.270          50.000    26722348.900   104864159.355          50.000  
E30  22360508.920   117505250.348          50.000    22360512.920    87747416.992          50.000  
E36  25392008.160   133435860.781          50.000    25392013.800    99643646.887          50.000  
> 2020  5 28 19 10 21.0000000  0 12       0.000000000000
G 2  21969123.440   115448527.133          50.000                                                  
G 6  20956819.580   110128776.148          50.000    20956822.360    82239020.309          50.000  
G12  22791313.120   119769144.734          50.000                                                  
G17  22447098.080   117960247.777          50.000                                                  
G19  20676034.360   108653288.773          50.000                                                  
G24  21136613.360   111073593.125          50.000    21136615.700    82944562.859          50.000  
G28  23430666.100   123129097.176          50.000                                                  
E 2  24566232.560   129096413.941          50.000    24566236.260    96403156.570          50.000  
E15  25375124.340   133347124.750          50.000    25375131.080    99577379.770          50.000  
E27  26721890.340   140424433.914          50.000    26721896.300   104862383.313          50.000  
E30  22360348.300   117504406.332          50.000    22360352.300    87746786.719          50.000  
E36  25392419.860   133438024.285          50.000    25392425.500    99645262.488          50.000  
> 2020  5 28 19 10 22.0000000  0 12       0.000000000000
G 2  21968642.060   115445997.438          50.000                                                  
G 6  20956585.420   110127545.617          50.000    20956588.200    82238101.406          50.000  
G12  22790813.520   119766519.270          50.000                                                  
G17  22447562.040   117962685.957          50.000                                                  
G19  20676356.780   108654983.121          50.000                                                  
G24  21136473.820   111072859.895          50.000    21136476.180    82944015.320          50.000  
G28  23431042.300   123131074.105          50.000                                                  
E 2  24566495.520   129097795.742          50.000    24566499.200    96404188.434          50.000  
E15  25374604.420   133344392.531          50.000    25374611.160    99575339.480          50.000  
E27  26721437.760   140422055.539          50.000    26721443.720   104860607.254          50.000  
E30  22360187.740   117503562.508          50.000    22360191.720    87746156.594          50.000  
E36  25392831.620   133440188.059          50.000    25392837.240    99646878.293          50.000  
> 2020  5 28 19 10 23.0000000  0 12       0.000000000000
G 2  21968160.740   115443468.160          50.000                                                  
G 6  20956351.380   110126315.742          50.000    20956354.160    82237182.992          50.000  
G12  22790313.920   119763893.887          50.000                                                  
G17  22448026.040   117965124.234          50.000                                                  
G19  20676679.280   108656677.832          50.000                                                  
G24  21136334.420   111072127.301          50.000    21136336.760    82943468.254          50.000  
G28  23431418.520   123133051.168          50.000                                                  
E 2  24566758.500   129099177.766          50.000    24566762.200    96405220.461          50.000  
E15  25374084.540   133341660.555          50.000    25374091.280    99573299.367          50.000  
E27  26720985.160   140419677.168          50.000    26720991.120   104858831.199          50.000  
E30  22360027.200   117502718.914          50.000    22360031.200    87745526.637          50.000  
E36  25393243.420   133442352.102          50.000    25393249.060    99648494.297          50.000  
> 2020  5 28 19 10 24.0000000  0 12       0.000000000000
G 2  21967679.520   115440939.289          50.000                                                  
G 6  20956117.460   110125086.520          50.000    20956120.240    82236265.066          50.000  
G12  22789814.340   119761268.590          50.000                                                  
G17  22448490.040   117967562.617          50.000                                                  
G19  20677001.840   108658372.910          50.000                                                  
G24  21136195.120   111071395.332          50.000    21136197.480    82942921.652          50.000  
G28  23431794.780   123135028.418          50.000                                                  
E 2  24567021.540   129100560.039          50.000    24567025.240    96406252.680          50.000  
E15  25373564.700   133338928.813          50.000    25373571.440    99571259.434          50.000  
E27  26720532.560   140417298.770          50.000    26720538.520   104857055.125          50.000  
E30  22359866.720   117501875.531          50.000    22359870.700    87744896.840          50.000  
E36  25393655.280   133444516.430          50.000    25393660.920    99650110.516          50.000  
> 2020  5 28 19 10 25.0000000  0 12       0.000000000000
G 2  21967198.360   115438410.828          50.000                                                  
G 6  20955883.660   110123857.918          50.000    20955886.460    82235347.605          50.000  
G12  22789314.780   119758643.367          50.000                                                  
G17  22448954.080   117970001.094          50.000                                                  
G19  20677324.480   108660068.344          50.000                                                  
G24  21136055.940   111070663.949          50.000    21136058.300    82942375.492          50.000  
G28  23432171.060   123137005.805          50.000                                                  
E 2  24567284.620   129101942.559          50.000    24567288.320    96407285.082          50.000  
E15  25373044.920   133336197.285          50.000    25373051.640    99569219.656          50.000  
E27  26720079.980   140414920.371          50.000    26720085.940   104855279.051          50.000  
E30  22359706.260   117501032.355          50.000    22359710.260    87744267.195          50.000  
E36  25394067.180   133446681.016          50.000    25394072.820    99651726.926          50.000  
> 2020  5 28 19 10 26.0000000  0 12       0.000000000000
G 2  21966717.300   115435882.781          50.000                                                  
G 6  20955650.000   110122629.953          50.000    20955652.780    82234430.621          50.000  
G12  22788815.220   119756018.223          50.000                                                  
G17  22449418.120   117972439.668          50.000                                                  
G19  20677647.180   108661764.141          50.000                                                  
G24  21135916.880   111069933.176          50.000    21135919.240    82941829.785          50.000  
G28  23432547.380   123138983.352          50.000                                                  
E 2  24567547.760   129103325.328          50.000    24567551.460    96408317.668          50.000  
E15  25372525.160   133333465.980          50.000    25372531.900    99567180.047          50.000  
E27  26719627.380   140412541.949          50.000    26719633.340   104853502.957          50.000  
E30  22359545.860   117500189.398          50.000    22359549.840    87743637.715          50.000  
E36  25394479.140   133448845.879          50.000    25394484.780    99653343.543          50.000  
> 2020  5 28 19 10 27.0000000  0 12       0.000000000000
G 2  21966236.300   115433355.133          50.000                                                  
G 6  20955416.440   110121402.637          50.000    20955419.220    82233514.117          50.000  
G12  22788315.680   119753393.156          50.000                                                  
G17  22449882.180   117974878.344          50.000                                                  
G19  20677969.940   108663460.301          50.000                                                  
G24  21135777.940   111069203.027          50.000    21135780.300    82941284.543          50.000  
G28  23432923.720   123140961.055          50.000                                                  
E 2  24567810.940   129104708.336          50.000    24567814.640    96409350.430          50.000  
E15  25372005.460   133330734.918          50.000    25372012.180    99565140.617          50.000  
E27  26719174.780   140410163.520          50.000    26719180.740   104851726.855          50.000  
E30  22359385.480   117499346.652          50.000    22359389.480    87743008.391          50.000  
E36  25394891.160   133451011.012          50.000    25394896.800    99654960.363          50.000  
> 2020  5 28 19 10 28.0000000  0 12       0.000000000000
G 2  21965755.380   115430827.895          50.000                                                  
G 6  20955183.000   110120175.953          50.000    20955185.800    82232598.090          50.000  
G12  22787816.160   119750768.164          50.000                                                  
G17  22450346.260   117977317.121          50.000                                                  
G19  20678292.780   108665156.816          50.000                                                  
G24  21135639.120   111068473.500          50.000    21135641.480    82940739.766          50.000  
G28  23433300.100   123142938.922          50.000                                                  
E 2  24568074.160   129106091.590          50.000    24568077.860    96410383.379          50.000  
E15  25371485.800   133328004.078          50.000    25371492.520    99563101.355          50.000  
E27  26718722.160   140407785.078          50.000    26718728.120   104849950.750          50.000  
E30  22359225.160   117498504.121          50.000    22359229.140    87742379.227          50.000  
E36  25395303.220   133453176.418          50.000    25395308.860    99656577.387          50.000  
> 2020  5 28 19 10 29.0000000  0 12       0.000000000000
G 2  21965274.540   115428301.066          50.000                                                  
G 6  20954949.700   110118949.906          50.000    20954952.480    82231682.535          50.000  
G12  22787316.660   119748143.254          50.000                                                  
G17  22450810.380   117979755.992          50.000                                                  
G19  20678615.680   108666853.691          50.000                                                  
G24  21135500.420   111067744.590          50.000    21135502.760    82940195.449          50.000  
G28  23433676.500   123144916.934          50.000                                                  
E 2  24568337.440   129107475.098          50.000    24568341.140    96411416.520          50.000  
E15  25370966.180   133325273.477          50.000    25370972.900    99561062.273          50.000  
E27  26718269.560   140405406.641          50.000    26718275.520   104848174.645          50.000  
E30  22359064.860   117497661.793          50.000    22359068.860    87741750.219          50.000  
E36  25395715.340   133455342.102          50.000    25395720.980    99658194.617          50.000  
> 2020  5 28 19 10 30.0000000  0 12       0.000000000000
G 2  21964793.780   115425774.645          50.000                                                  
G 6  20954716.520   110117724.508          50.000    20954719.300    82230767.465          50.000  
G12  22786817.180   119745518.430          50.000                                                  
G17  22451274.500   117982194.965          50.000                                                  
G19  20678938.660   108668550.934          50.000                                                  
G24  21135361.820   111067016.301          50.000    21135364.180    82939651.598          50.000  
G28  23434052.940   123146895.105          50.000                                                  
E 2  24568600.760   129108858.844          50.000    24568604.440    96412449.836          50.000  
E15  25370446.600   133322543.102          50.000    25370453.340    99559023.355          50.000  
E27  26717816.960   140403028.164          50.000    26717822.920   104846398.512          50.000  
E30  22358904.620   117496819.691          50.000    22358908.620    87741121.375          50.000  
E36  25396127.500   133457508.059          50.000    25396133.140    99659812.051          50.000  
> 2020  5 28 19 10 31.0000000  0 12       0.000000000000
G 2  21964313.100   115423248.629          50.000                                                  
G 6  20954483.440   110116499.734          50.000    20954486.240    82229852.863          50.000  
G12  22786317.700   119742893.672          50.000                                                  
G17  22451738.640   117984634.043          50.000                                                  
G19  20679261.700   108670248.539          50.000                                                  
G24  21135223.360   111066288.672          50.000    21135225.720    82939108.238          50.000  
G28  23434429.400   123148873.438          50.000                                                  
E 2  24568864.120   129110242.832          50.000    24568867.820    96413483.336          50.000  
E15  25369927.080   133319812.949          50.000    25369933.800    99556984.609          50.000  
E27  26717364.340   140400649.684          50.000    26717370.300   104844622.375          50.000  
E30  22358744.400   117495977.789          50.000    22358748.400    87740492.684          50.000  
E36  25396539.720   133459674.273          50.000    25396545.360    99661429.680          50.000  
> 2020  5 28 19 10 32.0000000  0 12       0.000000000000
G 2  21963832.480   115420723.020          50.000                                                  
G 6  20954250.500   110115275.598          50.000    20954253.280    82228938.734          50.000  
G12  22785818.240   119740269.000          50.000                                                  
G17  22452202.800   117987073.207          50.000                                                  
G19  20679584.820   108671946.500          50.000                                                  
G24  21135085.020   111065561.672          50.000    21135087.360    82938565.348          50.000  
G28  23434805.900   123150851.922          50.000                                                  
E 2  24569127.520   129111627.063          50.000    24569131.220    96414517.012          50.000  
E15  25369407.580   133317083.039          50.000    25369414.320    99554946.043          50.000  
E27  26716911.740   140398271.207          50.000    26716917.700   104842846.238          50.000  
E30  22358584.240   117495136.102          50.000    22358588.240    87739864.148          50.000  
E36  25396952.000   133461840.770          50.000    25396957.640    99663047.516          50.000  
> 2020  5 28 19 10 33.0000000  0 12       0.000000000000
G 2  21963351.960   115418197.809          50.000                                                  
G 6  20954017.680   110114052.117          50.000    20954020.460    82228025.098          50.000  
G12  22785318.800   119737644.406          50.000                                                  
G17  22452666.980   117989512.477          50.000                                                  
G19  20679908.000   108673644.820          50.000                                                  
G24  21134946.780   111064835.285          50.000    21134949.140    82938022.918          50.000  
G28  23435182.420   123152830.566          50.000                                                  
E 2  24569390.980   129113011.543          50.000    24569394.680    96415550.875          50.000  
E15  25368888.140   133314353.348          50.000    25368894.880    99552907.637          50.000  
E27  26716459.120   140395892.703          50.000    26716465.080   104841070.086          50.000  
E30  22358424.120   117494294.641          50.000    22358428.120    87739235.785          50.000  
E36  25397364.320   133464007.531          50.000    25397369.960    99664665.551          50.000  
> 2020  5 28 19 10 34.0000000  0 12       0.000000000000
G 2  21962871.500   115415673.020          50.000                                                  
G 6  20953784.980   110112829.270          50.000    20953787.760    82227111.934          50.000  
G12  22784819.360   119735019.898          50.000                                                  
G17  22453131.160   117991951.848          50.000                                                  
G19  20680231.240   108675343.508          50.000                                                  
G24  21134808.680   111064109.535          50.000    21134811.040    82937480.961          50.000  
G28  23435558.980   123154809.359          50.000                                                  
E 2  24569654.500   129114396.273          50.000    24569658.180    96416584.926          50.000  
E15  25368368.740   133311623.887          50.000    25368375.480    99550869.402          50.000  
E27  26716006.500   140393514.195          50.000    26716012.460   104839293.930          50.000  
E30  22358264.020   117493453.375          50.000    22358268.020    87738607.566          50.000  
E36  25397776.700   133466174.566          50.000    25397782.320    99666283.793          50.000  
> 2020  5 28 19 10 35.0000000  0 12       0.000000000000
G 2  21962391.120   115413148.629          50.000                                                  
G 6  20953552.400   110111607.051          50.000    20953555.180    82226199.238          50.000  
G12  22784319.960   119732395.465          50.000                                                  
G17  22453595.380   117994391.316          50.000                                                  
G19  20680554.560   108677042.547          50.000                                                  
G24  21134670.680   111063384.371          50.000    21134673.040    82936939.445          50.000  
G28  23435935.560   123156788.313          50.000                                                  
E 2  24569918.040   129115781.230          50.000    24569921.740    96417619.148          50.000  
E15  25367849.380   133308894.656          50.000    25367856.120    99548831.344          50.000  
E27  26715553.880   140391135.660          50.000    26715559.840   104837517.754          50.000  
E30  22358103.980   117492612.320          50.000    22358107.980    87737979.508          50.000  
E36  25398189.120   133468341.883          50.000    25398194.760    99667902.238          50.000  
> 2020  5 28 19 10 36.0000000  0 12       0.000000000000
G 2  21961910.820   115410624.648          50.000                                                  
G 6  20953319.940   110110385.488          50.000    20953322.720    82225287.031          50.000  
G12  22783820.560   119729771.113          50.000                                                  
G17  22454059.620   117996830.879          50.000                                                  
G19  20680877.940   108678741.953          50.000                                                  
G24  21134532.820   111062659.852          50.000    21134535.160    82936398.406          50.000  
G28  23436312.160   123158767.414          50.000                                                  
E 2  24570181.640   129117166.453          50.000    24570185.340    96418653.566          50.000  
E15  25367330.080   133306165.676          50.000    25367336.800    99546793.469          50.000  
E27  26715101.260   140388757.121          50.000    26715107.220   104835741.574          50.000  
E30  22357943.980   117491771.492          50.000    22357947.980    87737351.617          50.000  
E36  25398601.600   133470509.461          50.000    25398607.240    99669520.887          50.000  
> 2020  5 28 19 10 37.0000000  0 12       0.000000000000
G 2  21961430.600   115408101.074          50.000                                                  
G 6  20953087.600   110109164.559          50.000    20953090.400    82224375.297          50.000  
G12  22783321.180   119727146.832          50.000                                                  
G17  22454523.880   117999270.543          50.000                                                  
G19  20681201.400   108680441.723          50.000                                                  
G24  21134395.060   111061935.965          50.000    21134397.420    82935857.840          50.000  
G28  23436688.800   123160746.680          50.000                                                  
E 2  24570445.280   129118551.914          50.000    24570448.980    96419688.164          50.000  
E15  25366810.800   133303436.895          50.000    25366817.540    99544755.746          50.000  
E27  26714648.640   140386378.574          50.000    26714654.600   104833965.383          50.000  
E30  22357784.000   117490930.863          50.000    22357788.000    87736723.875          50.000  
E36  25399014.120   133472677.316          50.000    25399019.760    99671139.738          50.000  
> 2020  5 28 19 10 38.0000000  0 12       0.000000000000
G 2  21960950.460   115405577.906          50.000                                                  
G 6  20952855.400   110107944.258          50.000    20952858.180    82223464.035          50.000  
G12  22782821.800   119724522.629          50.000                                                  
G17  22454988.140   118001710.301          50.000                                                  
G19  20681524.920   108682141.852          50.000                                                  
G24  21134257.420   111061212.688          50.000    21134259.780    82935317.730          50.000  
G28  23437065.480   123162726.094          50.000                                                  
E 2  24570708.980   129119937.621          50.000    24570712.680    96420722.945          50.000  
E15  25366291.580   133300708.359          50.000    25366298.320    99542718.203          50.000  
E27  26714196.020   140384000.008          50.000    26714201.960   104832189.188          50.000  
E30  22357624.080   117490090.457          50.000    22357628.080    87736096.297          50.000  
E36  25399426.700   133474845.441          50.000    25399432.340    99672758.793          50.000  
> 2020  5 28 19 10 39.0000000  0 12       0.000000000000
G 2  21960470.400   115403055.160          50.000                                                  
G 6  20952623.300   110106724.602          50.000    20952626.080    82222553.254          50.000  
G12  22782322.440   119721898.504          50.000                                                  
G17  22455452.440   118004150.156          50.000                                                  
G19  20681848.520   108683842.340          50.000                                                  
G24  21134119.900   111060490.016          50.000    21134122.260    82934778.074          50.000  
G28  23437442.180   123164705.660          50.000                                                  
E 2  24570972.720   129121323.570          50.000    24570976.420    96421757.906          50.000  
E15  25365772.400   133297980.066          50.000    25365779.140    99540680.844          50.000  
E27  26713743.380   140381621.449          50.000    26713749.340   104830412.992          50.000  
E30  22357464.200   117489250.270          50.000    22357468.200    87735468.883          50.000  
E36  25399839.340   133477013.836          50.000    25399844.980    99674378.047          50.000  
> 2020  5 28 19 10 40.0000000  0 12       0.000000000000
G 2  21959990.420   115400532.832          50.000                                                  
G 6  20952391.320   110105505.594          50.000    20952394.120    82221642.957          50.000  
G12  22781823.100   119719274.473          50.000                                                  
G17  22455916.740   118006590.117          50.000                                                  
G19  20682172.180   108685543.191          50.000                                                  
G24  21133982.520   111059767.984          50.000    21133984.860    82934238.895          50.000  
G28  23437818.920   123166685.395          50.000                                                  
E 2  24571236.500   129122709.766          50.000    24571240.200    96422793.055          50.000  
E15  25365253.260   133295251.980          50.000    25365260.000    99538643.637          50.000  
E27  26713290.760   140379242.871          50.000    26713296.720   104828636.781          50.000  
E30  22357304.360   117488410.281          50.000    22357308.360    87734841.621          50.000  
E36  25400252.020   133479182.508          50.000    25400257.660    99675997.508          50.000  
> 2020  5 28 19 10 41.0000000  0 12       0.000000000000
G 2  21959510.500   115398010.891          50.000                                                  
G 6  20952159.480   110104287.219          50.000    20952162.260    82220733.133          50.000  
G12  22781323.780   119716650.508          50.000                                                  
G17  22456381.060   118009030.172          50.000                                                  
G19  20682495.900   108687244.395          50.000                                                  
G24  21133845.240   111059046.570          50.000    21133847.580    82933700.176          50.000  
G28  23438195.680   123168665.281          50.000                                                  
E 2  24571500.340   129124096.211          50.000    24571504.020    96423828.383          50.000  
E15  25364734.180   133292524.137          50.000    25364740.900    99536606.613          50.000  
E27  26712838.120   140376864.273          50.000    26712844.080   104826860.559          50.000  
E30  22357144.560   117487570.508          50.000    22357148.540    87734214.520          50.000  
E36  25400664.760   133481351.445          50.000    25400670.400    99677617.168          50.000  
> 2020  5 28 19 10 42.0000000  0 12       0.000000000000
G 2  21959030.680   115395489.375          50.000                                                  
G 6  20951927.740   110103069.480          50.000    20951930.540    82219823.781          50.000  
G12  22780824.480   119714026.621          50.000                                                  
G17  22456845.420   118011470.320          50.000                                                  
G19  20682819.700   108688945.965          50.000                                                  
G24  21133708.060   111058325.781          50.000    21133710.420    82933161.926          50.000  
G28  23438572.460   123170645.328          50.000                                                  
E 2  24571764.200   129125482.898          50.000    24571767.900    96424863.895          50.000  
E15  25364215.120   133289796.523          50.000    25364221.860    99534569.762          50.000  
E27  26712385.480   140374485.664          50.000    26712391.440   104825084.324          50.000  
E30  22356984.800   117486730.953          50.000    22356988.780    87733587.578          50.000  
E36  25401077.540   133483520.652          50.000    25401083.180    99679237.031          50.000  
> 2020  5 28 19 10 43.0000000  0 12       0.000000000000
G 2  21958550.920   115392968.262          50.000                                                  
G 6  20951696.140   110101852.387          50.000    20951698.920    82218914.914          50.000  
G12  22780325.180   119711402.816          50.000                                                  
G17  22457309.780   118013910.566          50.000                                                  
G19  20683143.580   108690647.891          50.000                                                  
G24  21133571.020   111057605.602          50.000    21133573.380    82932624.129          50.000  
G28  23438949.280   123172625.527          50.000                                                  
E 2  24572028.140   129126869.828          50.000    24572031.840    96425899.590          50.000  
E15  25363696.120   133287069.133          50.000    25363702.840    99532533.074          50.000  
E27  26711932.860   140372107.051          50.000    26711938.800   104823308.086          50.000  
E30  22356825.060   117485891.605          50.000    22356829.060    87732960.793          50.000  
E36  25401490.380   133485690.129          50.000    25401496.020    99680857.094          50.000  
> 2020  5 28 19 10 44.0000000  0 12       0.000000000000
G 2  21958071.240   115390447.559          50.000                                                  
G 6  20951464.660   110100635.926          50.000    20951467.440    82218006.520          50.000  
G12  22779825.900   119708779.086          50.000                                                  
G17  22457774.160   118016350.910          50.000                                                  
G19  20683467.500   108692350.188          50.000                                                  
G24  21133434.100   111056886.051          50.000    21133436.460    82932086.805          50.000  
G28  23439326.140   123174605.895          50.000                                                  
E 2  24572292.100   129128256.996          50.000    24572295.800    96426935.461          50.000  
E15  25363177.160   133284341.984          50.000    25363183.880    99530496.566          50.000  
E27  26711480.220   140369728.414          50.000    26711486.160   104821531.836          50.000  
E30  22356665.380   117485052.465          50.000    22356669.380    87732334.164          50.000  
E36  25401903.280   133487859.879          50.000    25401908.920    99682477.359          50.000  
> 2020  5 28 19 10 45.0000000  0 12       0.000000000000
G 2  21957591.640   115387927.254          50.000                                                  
G 6  20951233.300   110099420.105          50.000    20951236.080    82217098.602          50.000  
G12  22779326.640   119706155.441          50.000                                                  
G17  22458238.560   118018791.348          50.000                                                  
G19  20683791.500   108694052.828          50.000                                                  
G24  21133297.300   111056167.133          50.000    21133299.640    82931549.949          50.000  
G28  23439703.020   123176586.414          50.000                                                  
E 2  24572556.120   129129644.414          50.000    24572559.820    96427971.520          50.000  
E15  25362658.240   133281615.051          50.000    25362664.960    99528460.223          50.000  
E27  26711027.560   140367349.770          50.000    26711033.520   104819755.574          50.000  
E30  22356505.740   117484213.543          50.000    22356509.740    87731707.695          50.000  
E36  25402316.220   133490029.898          50.000    25402321.860    99684097.828          50.000  
> 2020  5 28 19 10 46.0000000  0 12       0.000000000000
G 2  21957112.120   115385407.363          50.000                                                  
G 6  20951002.060   110098204.930          50.000    20951004.840    82216191.168          50.000  
G12  22778827.380   119703531.875          50.000                                                  
G17  22458702.980   118021231.883          50.000                                                  
G19  20684115.580   108695755.844          50.000                                                  
G24  21133160.620   111055448.879          50.000    21133162.960    82931013.590          50.000  
G28  23440079.920   123178567.078          50.000                                                  
E 2  24572820.180   129131032.078          50.000    24572823.880    96429007.762          50.000  
E15  25362139.360   133278888.355          50.000    25362146.100    99526424.055          50.000  
E27  26710574.920   140364971.117          50.000    26710580.880   104817979.309          50.000  
E30  22356346.140   117483374.832          50.000    22356350.140    87731081.387          50.000  
E36  25402729.220   133492200.191          50.000    25402734.840    99685718.500          50.000  
> 2020  5 28 19 10 47.0000000  0 12       0.000000000000
G 2  21956632.680   115382887.887          50.000                                                  
G 6  20950770.940   110096990.391          50.000    20950773.720    82215284.207          50.000  
G12  22778328.160   119700908.395          50.000                                                  
G17  22459167.420   118023672.520          50.000                                                  
G19  20684439.720   108697459.234          50.000                                                  
G24  21133024.040   111054731.211          50.000    21133026.400    82930477.672          50.000  
G28  23440456.860   123180547.914          50.000                                                  
E 2  24573084.300   129132419.988          50.000    24573088.000    96430044.188          50.000  
E15  25361620.540   133276161.891          50.000    25361627.260    99524388.059          50.000  
E27  26710122.280   140362592.453          50.000    26710128.240   104816203.039          50.000  
E30  22356186.580   117482536.344          50.000    22356190.580    87730455.238          50.000  
E36  25403142.260   133494370.754          50.000    25403147.900    99687339.375          50.000  
> 2020  5 28 19 10 48.0000000  0 12       0.000000000000
G 2  21956153.320   115380368.809          50.000                                                  
G 6  20950539.940   110095776.492          50.000    20950542.720    82214377.723          50.000  
G12  22777828.940   119698284.988          50.000                                                  
G17  22459631.880   118026113.246          50.000                                                  
G19  20684763.940   108699162.996          50.000                                                  
G24  21132887.600   111054014.172          50.000    21132889.940    82929942.219          50.000  
G28  23440833.840   123182528.902          50.000                                                  
E 2  24573348.460   129133808.145          50.000    24573352.160    96431080.797          50.000  
E15  25361101.760   133273435.664          50.000    25361108.480    99522352.242          50.000  
E27  26709669.640   140360213.781          50.000    26709675.580   104814426.758          50.000  
E30  22356027.060   117481698.063          50.000    22356031.060    87729829.250          50.000  
E36  25403555.360   133496541.582          50.000    25403560.980    99688960.449          50.000  
> 2020  5 28 19 10 49.0000000  0 12       0.000000000000
G 2  21955674.040   115377850.141          50.000                                                  
G 6  20950309.060   110094563.234          50.000    20950311.840    82213471.719          50.000  
G12  22777329.740   119695661.664          50.000                                                  
G17  22460096.340   118028554.074          50.000                                                  
G19  20685088.220   108700867.117          50.000                                                  
G24  21132751.260   111053297.738          50.000    21132753.620    82929407.223          50.000  
G28  23441210.840   123184510.043          50.000                                                  
E 2  24573612.660   129135196.547          50.000    24573616.360    96432117.590          50.000  
E15  25360583.020   133270709.668          50.000    25360589.740    99520316.598          50.000  
E27  26709216.980   140357835.086          50.000    26709222.940   104812650.461          50.000  
E30  22355867.580   117480859.996          50.000    22355871.580    87729203.422          50.000  
E36  25403968.500   133498712.691          50.000    25403974.140    99690581.730          50.000  
> 2020  5 28 19 10 50.0000000  0 12       0.000000000000
G 2  21955194.820   115375331.895          50.000                                                  
G 6  20950078.300   110093350.613          50.000    20950081.080    82212566.191          50.000  
G12  22776830.540   119693038.422          50.000                                                  
G17  22460560.840   118030995.000          50.000                                                  
G19  20685412.580   108702571.582          50.000                                                  
G24  21132615.040   111052581.910          50.000    21132617.400    82928872.676          50.000  
G28  23441587.860   123186491.352          50.000                                                  
E 2  24573876.900   129136585.191          50.000    24573880.600    96433154.566          50.000  
E15  25360064.320   133267983.891          50.000    25360071.040    99518281.113          50.000  
E27  26708764.320   140355456.395          50.000    26708770.280   104810874.164          50.000  
E30  22355708.140   117480022.141          50.000    22355712.140    87728577.750          50.000  
E36  25404381.700   133500884.066          50.000    25404387.340    99692203.211          50.000  
> 2020  5 28 19 10 51.0000000  0 12       0.000000000000
G 2  21954715.700   115372814.043          50.000                                                  
G 6  20949847.680   110092138.633          50.000    20949850.460    82211661.141          50.000  
G12  22776331.380   119690415.258          50.000                                                  
G17  22461025.360   118033436.023          50.000                                                  
G19  20685737.000   108704276.418          50.000                                                  
G24  21132478.940   111051866.711          50.000    21132481.300    82928338.598          50.000  
G28  23441964.920   123188472.813          50.000                                                  
E 2  24574141.200   129137974.078          50.000    24574144.900    96434191.723          50.000  
E15  25359545.660   133265258.352          50.000    25359552.380    99516245.813          50.000  
E27  26708311.680   140353077.688          50.000    26708317.620   104809097.863          50.000  
E30  22355548.740   117479184.496          50.000    22355552.740    87727952.242          50.000  
E36  25404794.960   133503055.711          50.000    25404800.580    99693824.891          50.000  
> 2020  5 28 19 10 52.0000000  0 12       0.000000000000
G 2  21954236.640   115370296.609          50.000                                                  
G 6  20949617.160   110090927.285          50.000    20949619.940    82210756.566          50.000  
G12  22775832.220   119687792.188          50.000                                                  
G17  22461489.880   118035877.141          50.000                                                  
G19  20686061.480   108705981.609          50.000                                                  
G24  21132342.980   111051152.145          50.000    21132345.320    82927804.992          50.000  
G28  23442342.020   123190454.430          50.000                                                  
E 2  24574405.540   129139363.215          50.000    24574409.240    96435229.063          50.000  
E15  25359027.060   133262533.047          50.000    25359033.780    99514210.684          50.000  
E27  26707859.020   140350698.965          50.000    26707864.980   104807321.543          50.000  
E30  22355389.400   117478347.070          50.000    22355393.380    87727326.891          50.000  
E36  25405208.260   133505227.629          50.000    25405213.900    99695446.777          50.000  
> 2020  5 28 19 10 53.0000000  0 12       0.000000000000
G 2  21953757.660   115367779.574          50.000                                                  
G 6  20949386.780   110089716.582          50.000    20949389.560    82209852.469          50.000  
G12  22775333.080   119685169.184          50.000                                                  
G17  22461954.440   118038318.359          50.000                                                  
G19  20686386.040   108707687.156          50.000                                                  
G24  21132207.120   111050438.203          50.000    21132209.460    82927271.855          50.000  
G28  23442719.140   123192436.188          50.000                                                  
E 2  24574669.940   129140752.590          50.000    24574673.640    96436266.582          50.000  
E15  25358508.480   133259807.977          50.000    25358515.200    99512175.730          50.000  
E27  26707406.360   140348320.238          50.000    26707412.320   104805545.223          50.000  
E30  22355230.080   117477509.855          50.000    22355234.060    87726701.699          50.000  
E36  25405621.600   133507399.820          50.000    25405627.240    99697068.867          50.000  
> 2020  5 28 19 10 54.0000000  0 12       0.000000000000
G 2  21953278.760   115365262.957          50.000                                                  
G 6  20949156.500   110088506.523          50.000    20949159.280    82208948.855          50.000  
G12  22774833.940   119682546.254          50.000                                                  
G17  22462419.000   118040759.668          50.000                                                  
G19  20686710.660   108709393.070          50.000                                                  
G24  21132071.380   111049724.883          50.000    21132073.720    82926739.180          50.000  
G28  23443096.280   123194418.113          50.000                                                  
E 2  24574934.380   129142142.223          50.000    24574938.080    96437304.293          50.000  
E15  25357989.960   133257083.129          50.000    25357996.680    99510140.941          50.000  
E27  26706953.700   140345941.492          50.000    26706959.660   104803768.887          50.000  
E30  22355070.800   117476672.855          50.000    22355074.800    87726076.664          50.000  
E36  25406035.020   133509572.281          50.000    25406040.660    99698691.160          50.000  
> 2020  5 28 19 10 55.0000000  0 12       0.000000000000
G 2  21952799.940   115362746.754          50.000                                                  
G 6  20948926.360   110087297.109          50.000    20948929.140    82208045.723          50.000  
G12  22774334.840   119679923.418          50.000                                                  
G17  22462883.580   118043201.078          50.000                                                  
G19  20687035.360   108711099.336          50.000                                                  
G24  21131935.760   111049012.195          50.000    21131938.100    82926206.977          50.000  
G28  23443473.460   123196400.199          50.000                                                  
E 2  24575198.860   129143532.113          50.000    24575202.560    96438342.199          50.000  
E15  25357471.480   133254358.523          50.000    25357478.220    99508106.336          50.000  
E27  26706501.040   140343562.734          50.000    26706506.980   104801992.543          50.000  
E30  22354911.560   117475836.074          50.000    22354915.560    87725451.797          50.000  
E36  25406448.480   133511745.008          50.000    25406454.100    99700313.648          50.000  
> 2020  5 28 19 10 56.0000000  0 12       0.000000000000
G 2  21952321.200   115360230.961          50.000                                                  
G 6  20948696.340   110086088.328          50.000    20948699.120    82207143.063          50.000  
G12  22773835.740   119677300.652          50.000                                                  
G17  22463348.180   118045642.586          50.000                                                  
G19  20687360.120   108712805.961          50.000                                                  
G24  21131800.260   111048300.137          50.000    21131802.600    82925675.246          50.000  
G28  23443850.680   123198382.426          50.000                                                  
E 2  24575463.400   129144922.219          50.000    24575467.100    96439380.266          50.000  
E15  25356953.060   133251634.129          50.000    25356959.780    99506071.887          50.000  
E27  26706048.380   140341183.969          50.000    26706054.320   104800216.195          50.000  
E30  22354752.360   117474999.500          50.000    22354756.360    87724827.078          50.000  
E36  25406861.980   133513918.008          50.000    25406867.620    99701936.344          50.000  
> 2020  5 28 19 10 57.0000000  0 12       0.000000000000
G 2  21951842.540   115357715.574          50.000                                                  
G 6  20948466.440   110084880.184          50.000    20948469.220    82206240.879          50.000  
G12  22773336.660   119674677.961          50.000                                                  
G17  22463812.820   118048084.184          50.000                                                  
G19  20687684.940   108714512.941          50.000                                                  
G24  21131664.860   111047588.680          50.000    21131667.220    82925143.961          50.000  
G28  23444227.900   123200364.801          50.000                                                  
E 2  24575727.980   129146312.574          50.000    24575731.680    96440418.516          50.000  
E15  25356434.660   133248909.973          50.000    25356441.380    99504037.613          50.000  
E27  26705595.700   140338805.191          50.000    26705601.660   104798439.836          50.000  
E30  22354593.220   117474163.133          50.000    22354597.200    87724202.523          50.000  
E36  25407275.540   133516091.273          50.000    25407281.180    99703559.234          50.000  
> 2020  5 28 19 10 58.0000000  0 12       0.000000000000
G 2  21951363.960   115355200.594          50.000                                                  
G 6  20948236.660   110083672.684          50.000    20948239.440    82205339.172          50.000  
G12  22772837.600   119672055.359          50.000                                                  
G17  22464277.460   118050525.883          50.000                                                  
G19  20688009.840   108716220.277          50.000                                                  
G24  21131529.600   111046877.871          50.000    21131531.960    82924613.164          50.000  
G28  23444605.180   123202347.340          50.000                                                  
E 2  24575992.600   129147703.180          50.000    24575996.300    96441456.953          50.000  
E15  25355916.320   133246186.051          50.000    25355923.040    99502003.520          50.000  
E27  26705143.040   140336426.406          50.000    26705148.980   104796663.473          50.000  
E30  22354434.100   117473326.984          50.000    22354438.100    87723578.125          50.000  
E36  25407689.160   133518264.813          50.000    25407694.780    99705182.332          50.000  
> 2020  5 28 19 10 59.0000000  0 12       0.000000000000
G 2  21950885.460   115352686.035          50.000                                                  
G 6  20948007.000   110082465.828          50.000    20948009.780    82204437.949          50.000  
G12  22772338.540   119669432.824          50.000                                                  
G17  22464742.100   118052967.668          50.000                                                  
G19  20688334.800   108717927.980          50.000                                                  
G24  21131394.440   111046167.637          50.000    21131396.800    82924082.793          50.000  
G28  23444982.460   123204330.027          50.000                                                  
E 2  24576257.260   129149094.043          50.000    24576260.960    96442495.586          50.000  
E15  25355398.020   133243462.371          50.000    25355404.740    99499969.605          50.000  
E27  26704690.360   140334047.598          50.000    26704696.320   104794887.094          50.000  
E30  22354275.020   117472491.051          50.000    22354279.020    87722953.887          50.000  
E36  25408102.820   133520438.621          50.000    25408108.460    99706805.629          50.000  
> 2020  5 28 19 11  0.0000000  0 12       0.000000000000
G 2  21950407.020   115350171.875          50.000                                                  
G 6  20947777.460   110081259.609          50.000    20947780.240    82203537.203          50.000  
G12  22771839.500   119666810.387          50.000                                                  
G17  22465206.780   118055409.559          50.000                                                  
G19  20688659.840   108719636.043          50.000                                                  
G24  21131259.420   111045458.063          50.000    21131261.780    82923552.918          50.000  
G28  23445359.800   123206312.879          50.000                                                  
E 2  24576521.980   129150485.137          50.000    24576525.680    96443534.391          50.000  
E15  25354879.760   133240738.902          50.000    25354886.480    99497935.844          50.000  
E27  26704237.680   140331668.789          50.000    26704243.640   104793110.707          50.000  
E30  22354116.000   117471655.328          50.000    22354119.980    87722329.809          50.000  
E36  25408516.520   133522612.695          50.000    25408522.160    99708429.125          50.000  
> 2020  5 28 19 11  1.0000000  0 12       0.000000000000
G 2  21949928.680   115347658.133          50.000                                                  
G 6  20947548.040   110080054.020          50.000    20947550.820    82202636.926          50.000  
G12  22771340.480   119664188.031          50.000                                                  
G17  22465671.480   118057851.547          50.000                                                  
