     3.03           OBSERVATION DATA    M: Mixed            RINEX VERSION / TYPE
sbp2rinex v2.2 (RTKL                    20210504 171527 UTC PGM / RUN BY / DATE 
log: 2020-07-17-US-MTV-1.sbp                                COMMENT             
format: Swift Navigation SBP, option: CONVBASE,EPHALL,OBSALLCOMMENT             
                                                            MARKER NAME         
                                                            MARKER NUMBER       
                                                            MARKER TYPE         
                                                            OBSERVER / AGENCY   
                                                            REC # / TYPE / VERS 
                                                            ANT # / TYPE        
 -2724627.9910 -4348080.7364  3775613.8604                  APPROX POSITION XYZ 
        0.0000        0.0000        0.0000                  ANTENNA: DELTA H/E/N
G    6 C1C L1C S1C C5I L5I S5I                              SYS / # / OBS TYPES 
E    6 C1B L1B S1B C5I L5I S5I                              SYS / # / OBS TYPES 
  2020     7    17    22    17   46.0000000     GPS         TIME OF FIRST OBS   
  2020     7    17    23     0    3.0000000     GPS         TIME OF LAST OBS    
G                                                           SYS / PHASE SHIFT   
E                                                           SYS / PHASE SHIFT   
  0                                                         GLONASS SLOT / FRQ #
 C1C    0.000 C1P    0.000 C2C    0.000 C2P    0.000        GLONASS COD/PHS/BIS 
                                                            END OF HEADER       
> 2020  7 17 22 17 46.0000000  0 14       0.000000000000
G10  22833652.040   119991590.434          50.000    22833652.940    89604105.832          50.000  
G13  23437279.820   123163779.082          50.000                                                  
G15  21678844.720   113922910.297          50.000                                                  
G16  23356681.140   122740187.668          50.000                                                  
G20  20535995.260   107917382.250          50.000                                                  
G21  23038152.320   121066321.352          50.000                                                  
G26  22679773.020   119182920.105          50.000    22679774.720    89000223.082          50.000  
G29  21654168.060   113793406.453          50.000                                                  
E 3  27033233.300   142060564.785          50.000    27033238.500   106084173.824          50.000  
E 7  25570395.020   134373291.219          50.000    25570401.000   100343676.246          50.000  
E 8  22440543.640   117925854.945          50.000    22440546.360    88061508.027          50.000  
E13  23564112.880   123830232.738          50.000    23564116.380    92470618.043          50.000  
E15  26061939.560   136956367.906          50.000    26061945.700   102272595.363          50.000  
E26  24429558.440   128378155.648          50.000    24429563.780    95866789.977          50.000  
> 2020  7 17 22 17 47.0000000  0 14       0.000000000000
G10  22833120.780   119988798.652          50.000    22833121.680    89602021.063          50.000  
G13  23437421.780   123164525.121          50.000                                                  
G15  21678786.820   113922606.059          50.000                                                  
G16  23356491.280   122739190.016          50.000                                                  
G20  20535744.600   107916065.000          50.000                                                  
G21  23037821.040   121064580.402          50.000                                                  
G26  22680002.360   119184125.281          50.000    22680004.060    89001123.047          50.000  
G29  21654635.740   113795864.141          50.000                                                  
E 3  27033608.920   142062538.684          50.000    27033614.120   106085647.836          50.000  
E 7  25569877.800   134370573.230          50.000    25569883.780   100341646.582          50.000  
E 8  22440453.300   117925380.215          50.000    22440456.020    88061153.520          50.000  
E13  23564125.040   123830296.625          50.000    23564128.540    92470665.750          50.000  
E15  26062258.300   136958042.875          50.000    26062264.440   102273846.152          50.000  
E26  24429238.480   128376474.262          50.000    24429243.840    95865534.395          50.000  
> 2020  7 17 22 17 48.0000000  0 14       0.000000000000
G10  22832589.580   119986007.184          50.000    22832590.480    89599936.527          50.000  
G13  23437563.860   123165271.789          50.000                                                  
G15  21678729.060   113922302.516          50.000                                                  
G16  23356301.560   122738192.992          50.000                                                  
G20  20535494.020   107914748.195          50.000                                                  
G21  23037489.760   121062839.523          50.000                                                  
G26  22680231.800   119185330.973          50.000    22680233.480    89002023.402          50.000  
G29  21655103.520   113798322.262          50.000                                                  
E 3  27033984.620   142064512.918          50.000    27033989.800   106087122.105          50.000  
E 7  25569360.620   134367855.441          50.000    25569366.600   100339617.066          50.000  
E 8  22440363.060   117924905.969          50.000    22440365.780    88060799.375          50.000  
E13  23564137.240   123830360.652          50.000    23564140.720    92470713.566          50.000  
E15  26062577.060   136959717.945          50.000    26062583.200   102275097.016          50.000  
E26  24428918.520   128374792.902          50.000    24428923.880    95864278.836          50.000  
> 2020  7 17 22 17 49.0000000  0 14       0.000000000000
G10  22832058.440   119983216.020          50.000    22832059.320    89597852.219          50.000  
G13  23437706.080   123166019.098          50.000                                                  
G15  21678671.420   113921999.645          50.000                                                  
G16  23356111.960   122737196.590          50.000                                                  
G20  20535243.520   107913431.836          50.000                                                  
G21  23037158.500   121061098.707          50.000                                                  
G26  22680461.340   119186537.195          50.000    22680463.020    89002924.152          50.000  
G29  21655571.360   113800780.797          50.000                                                  
E 3  27034360.360   142066487.473          50.000    27034365.540   106088596.609          50.000  
E 7  25568843.480   134365137.852          50.000    25568849.460   100337587.699          50.000  
E 8  22440272.900   117924432.180          50.000    22440275.620    88060445.574          50.000  
E13  23564149.440   123830424.820          50.000    23564152.920    92470761.480          50.000  
E15  26062895.840   136961393.125          50.000    26062901.980   102276347.965          50.000  
E26  24428598.580   128373111.566          50.000    24428603.940    95863023.293          50.000  
> 2020  7 17 22 17 50.0000000  0 14       0.000000000000
G10  22831527.360   119980425.160          50.000    22831528.240    89595768.133          50.000  
G13  23437848.400   123166767.031          50.000                                                  
G15  21678613.920   113921697.477          50.000                                                  
G16  23355922.460   122736200.824          50.000                                                  
G20  20534993.120   107912115.934          50.000                                                  
G21  23036827.240   121059357.965          50.000                                                  
G26  22680690.980   119187743.926          50.000    22680692.660    89003825.281          50.000  
G29  21656039.280   113803239.766          50.000                                                  
E 3  27034736.160   142068462.355          50.000    27034741.360   106090071.355          50.000  
E 7  25568326.380   134362420.465          50.000    25568332.360   100335558.480          50.000  
E 8  22440182.820   117923958.855          50.000    22440185.540    88060092.113          50.000  
E13  23564161.680   123830489.125          50.000    23564165.160    92470809.500          50.000  
E15  26063214.640   136963068.422          50.000    26063220.780   102277598.996          50.000  
E26  24428278.640   128371430.258          50.000    24428283.980    95861767.770          50.000  
> 2020  7 17 22 17 51.0000000  0 14       0.000000000000
G10  22830996.320   119977634.613          50.000    22830997.220    89593684.289          50.000  
G13  23437990.860   123167515.605          50.000                                                  
G15  21678556.560   113921395.996          50.000                                                  
G16  23355733.100   122735205.680          50.000                                                  
G20  20534742.800   107910800.484          50.000                                                  
G21  23036496.000   121057617.285          50.000                                                  
G26  22680920.700   119188951.176          50.000    22680922.400    89004726.801          50.000  
G29  21656507.300   113805699.168          50.000                                                  
E 3  27035112.040   142070437.582          50.000    27035117.220   106091546.363          50.000  
E 7  25567809.320   134359703.285          50.000    25567815.300   100333529.418          50.000  
E 8  22440092.860   117923486.023          50.000    22440095.580    88059739.027          50.000  
E13  23564173.940   123830553.582          50.000    23564177.420    92470857.633          50.000  
E15  26063533.460   136964743.828          50.000    26063539.600   102278850.109          50.000  
E26  24427958.700   128369748.980          50.000    24427964.060    95860512.273          50.000  
> 2020  7 17 22 17 52.0000000  0 14       0.000000000000
G10  22830465.360   119974844.379          50.000    22830466.260    89591600.672          50.000  
G13  23438133.420   123168264.813          50.000                                                  
G15  21678499.320   113921095.199          50.000                                                  
G16  23355543.840   122734211.160          50.000                                                  
G20  20534492.560   107909485.473          50.000                                                  
G21  23036164.760   121055876.672          50.000                                                  
G26  22681150.540   119190158.945          50.000    22681152.220    89005628.703          50.000  
G29  21656975.380   113808158.992          50.000                                                  
E 3  27035487.980   142072413.125          50.000    27035493.160   106093021.605          50.000  
E 7  25567292.300   134356986.301          50.000    25567298.280   100331500.504          50.000  
E 8  22440002.960   117923013.648          50.000    22440005.680    88059386.281          50.000  
E13  23564186.240   123830618.156          50.000    23564189.720    92470905.855          50.000  
E15  26063852.300   136966419.336          50.000    26063858.440   102280101.297          50.000  
E26  24427638.760   128368067.715          50.000    24427644.120    95859256.781          50.000  
> 2020  7 17 22 17 53.0000000  0 14       0.000000000000
G10  22829934.460   119972054.441          50.000    22829935.340    89589517.277          50.000  
G13  23438276.120   123169014.664          50.000                                                  
G15  21678442.200   113920795.094          50.000                                                  
G16  23355354.720   122733217.281          50.000                                                  
G20  20534242.400   107908170.914          50.000                                                  
G21  23035833.560   121054136.125          50.000                                                  
G26  22681380.460   119191367.227          50.000    22681382.160    89006530.988          50.000  
G29  21657443.560   113810619.254          50.000                                                  
E 3  27035863.980   142074389.000          50.000    27035869.160   106094497.094          50.000  
E 7  25566775.320   134354269.527          50.000    25566781.280   100329471.746          50.000  
E 8  22439913.160   117922541.758          50.000    22439915.880    88059033.895          50.000  
E13  23564198.540   123830682.871          50.000    23564202.040    92470954.184          50.000  
E15  26064171.160   136968094.949          50.000    26064177.300   102281352.570          50.000  
E26  24427318.840   128366386.488          50.000    24427324.180    95858001.320          50.000  
> 2020  7 17 22 17 54.0000000  0 14       0.000000000000
G10  22829403.600   119969264.816          50.000    22829404.500    89587434.117          50.000  
G13  23438418.920   123169765.133          50.000                                                  
G15  21678385.220   113920495.664          50.000                                                  
G16  23355165.700   122732224.020          50.000                                                  
G20  20533992.340   107906856.805          50.000                                                  
G21  23035502.340   121052395.629          50.000                                                  
G26  22681610.500   119192576.035          50.000    22681612.180    89007433.672          50.000  
G29  21657911.800   113813079.930          50.000                                                  
E 3  27036240.020   142076365.199          50.000    27036245.220   106095972.828          50.000  
E 7  25566258.360   134351552.941          50.000    25566264.340   100327443.129          50.000  
E 8  22439823.460   117922070.320          50.000    22439826.180    88058681.848          50.000  
E13  23564210.880   123830747.727          50.000    23564214.380    92471002.613          50.000  
E15  26064490.040   136969770.684          50.000    26064496.180   102282603.926          50.000  
E26  24426998.920   128364705.277          50.000    24427004.260    95856745.871          50.000  
> 2020  7 17 22 17 55.0000000  0 14       0.000000000000
G10  22828872.820   119966475.488          50.000    22828873.700    89585351.180          50.000  
G13  23438561.860   123170516.242          50.000                                                  
G15  21678328.380   113920196.934          50.000                                                  
G16  23354976.800   122731231.383          50.000                                                  
G20  20533742.340   107905543.137          50.000                                                  
G21  23035171.160   121050655.207          50.000                                                  
G26  22681840.620   119193785.355          50.000    22681842.300    89008336.734          50.000  
G29  21658380.140   113815541.035          50.000                                                  
E 3  27036616.160   142078341.727          50.000    27036621.340   106097448.805          50.000  
E 7  25565741.440   134348836.551          50.000    25565747.420   100325414.656          50.000  
E 8  22439733.840   117921599.359          50.000    22439736.560    88058330.156          50.000  
E13  23564223.260   123830812.719          50.000    23564226.740    92471051.148          50.000  
E15  26064808.940   136971446.539          50.000    26064815.080   102283855.379          50.000  
E26  24426679.000   128363024.082          50.000    24426684.340    95855490.434          50.000  
> 2020  7 17 22 17 56.0000000  0 14       0.000000000000
G10  22828342.080   119963686.488          50.000    22828342.980    89583268.484          50.000  
G13  23438704.900   123171267.984          50.000                                                  
G15  21678271.660   113919898.883          50.000                                                  
G16  23354788.040   122730239.379          50.000                                                  
G20  20533492.460   107904229.918          50.000                                                  
G21  23034839.980   121048914.855          50.000                                                  
G26  22682070.840   119194995.195          50.000    22682072.540    89009240.188          50.000  
G29  21658848.560   113818002.574          50.000                                                  
E 3  27036992.340   142080318.590          50.000    27036997.520   106098925.031          50.000  
E 7  25565224.580   134346120.359          50.000    25565230.540   100323386.332          50.000  
E 8  22439644.300   117921128.844          50.000    22439647.020    88057978.797          50.000  
E13  23564235.640   123830877.844          50.000    23564239.140    92471099.777          50.000  
E15  26065127.860   136973122.480          50.000    26065134.000   102285106.891          50.000  
E26  24426359.080   128361342.934          50.000    24426364.440    95854235.031          50.000  
> 2020  7 17 22 17 57.0000000  0 14       0.000000000000
G10  22827811.420   119960897.781          50.000    22827812.300    89581186.012          50.000  
G13  23438848.080   123172020.359          50.000                                                  
G15  21678215.080   113919601.523          50.000                                                  
G16  23354599.380   122729247.996          50.000                                                  
G20  20533242.640   107902917.156          50.000                                                  
G21  23034508.800   121047174.559          50.000                                                  
G26  22682301.160   119196205.543          50.000    22682302.860    89010144.020          50.000  
G29  21659317.060   113820464.535          50.000                                                  
E 3  27037368.580   142082295.781          50.000    27037373.780   106100401.504          50.000  
E 7  25564707.740   134343404.375          50.000    25564713.720   100321358.164          50.000  
E 8  22439554.860   117920658.824          50.000    22439557.580    88057627.809          50.000  
E13  23564248.060   123830943.117          50.000    23564251.560    92471148.523          50.000  
E15  26065446.800   136974798.539          50.000    26065452.940   102286358.492          50.000  
E26  24426039.160   128359661.789          50.000    24426044.520    95852979.633          50.000  
> 2020  7 17 22 17 58.0000000  0 14       0.000000000000
G10  22827280.800   119958109.391          50.000    22827281.680    89579103.773          50.000  
G13  23438991.380   123172773.375          50.000                                                  
G15  21678158.620   113919304.855          50.000                                                  
G16  23354410.840   122728257.254          50.000                                                  
G20  20532992.920   107901604.848          50.000                                                  
G21  23034177.660   121045434.336          50.000                                                  
G26  22682531.600   119197416.434          50.000    22682533.280    89011048.254          50.000  
G29  21659785.640   113822926.934          50.000                                                  
E 3  27037744.900   142084273.301          50.000    27037750.080   106101878.223          50.000  
E 7  25564190.940   134340688.605          50.000    25564196.920   100319330.156          50.000  
E 8  22439465.500   117920189.273          50.000    22439468.220    88057277.168          50.000  
E13  23564260.520   123831008.523          50.000    23564264.000    92471197.363          50.000  
E15  26065765.780   136976474.719          50.000    26065771.920   102287610.184          50.000  
E26  24425719.260   128357980.684          50.000    24425724.620    95851724.262          50.000  
> 2020  7 17 22 17 59.0000000  0 14       0.000000000000
G10  22826750.240   119955321.301          50.000    22826751.120    89577021.762          50.000  
G13  23439134.780   123173527.027          50.000                                                  
G15  21678102.300   113919008.871          50.000                                                  
G16  23354222.440   122727267.133          50.000                                                  
G20  20532743.280   107900292.980          50.000                                                  
G21  23033846.520   121043694.176          50.000                                                  
G26  22682762.120   119198627.820          50.000    22682763.800    89011952.859          50.000  
G29  21660254.300   113825389.750          50.000                                                  
E 3  27038121.260   142086251.145          50.000    27038126.460   106103355.184          50.000  
E 7  25563674.180   134337973.020          50.000    25563680.160   100317302.281          50.000  
E 8  22439376.240   117919720.199          50.000    22439378.960    88056926.891          50.000  
E13  23564272.980   123831074.066          50.000    23564276.480    92471246.309          50.000  
E15  26066084.760   136978151.012          50.000    26066090.900   102288861.961          50.000  
E26  24425399.360   128356299.602          50.000    24425404.720    95850468.906          50.000  
> 2020  7 17 22 18  0.0000000  0 14       0.000000000000
G10  22826219.740   119952533.523          50.000    22826220.620    89574939.980          50.000  
G13  23439278.320   123174281.297          50.000                                                  
G15  21678046.100   113918713.570          50.000                                                  
G16  23354034.140   122726277.637          50.000                                                  
G20  20532493.720   107898981.563          50.000                                                  
G21  23033515.380   121041954.086          50.000                                                  
G26  22682992.740   119199839.730          50.000    22682994.420    89012857.859          50.000  
G29  21660723.040   113827852.996          50.000                                                  
E 3  27038497.700   142088229.324          50.000    27038502.900   106104832.395          50.000  
E 7  25563157.460   134335257.633          50.000    25563163.440   100315274.559          50.000  
E 8  22439287.060   117919251.578          50.000    22439289.780    88056576.945          50.000  
E13  23564285.480   123831139.750          50.000    23564288.980    92471295.355          50.000  
E15  26066403.780   136979827.402          50.000    26066409.920   102290113.809          50.000  
E26  24425079.460   128354618.539          50.000    24425084.820    95849213.570          50.000  
> 2020  7 17 22 18  1.0000000  0 14       0.000000000000
G10  22825689.300   119949746.051          50.000    22825690.180    89572858.430          50.000  
G13  23439421.980   123175036.211          50.000                                                  
G15  21677990.040   113918418.957          50.000                                                  
G16  23353845.960   122725288.785          50.000                                                  
G20  20532244.260   107897670.590          50.000                                                  
G21  23033184.260   121040214.051          50.000                                                  
G26  22683223.440   119201052.156          50.000    22683225.140    89013763.238          50.000  
G29  21661191.860   113830316.668          50.000                                                  
E 3  27038874.200   142090207.824          50.000    27038879.380   106106309.848          50.000  
E 7  25562640.780   134332542.461          50.000    25562646.760   100313246.996          50.000  
E 8  22439197.980   117918783.430          50.000    22439200.700    88056227.352          50.000  
E13  23564298.020   123831205.566          50.000    23564301.500    92471344.504          50.000  
E15  26066722.800   136981503.910          50.000    26066728.940   102291365.746          50.000  
E26  24424759.580   128352937.512          50.000    24424764.920    95847958.258          50.000  
> 2020  7 17 22 18  2.0000000  0 14       0.000000000000
G10  22825158.920   119946958.891          50.000    22825159.800    89570777.105          50.000  
G13  23439565.760   123175791.762          50.000                                                  
G15  21677934.120   113918125.035          50.000                                                  
G16  23353657.920   122724300.555          50.000                                                  
G20  20531994.860   107896360.070          50.000                                                  
G21  23032853.160   121038474.086          50.000                                                  
G26  22683454.260   119202265.090          50.000    22683455.960    89014669.004          50.000  
G29  21661660.760   113832780.762          50.000                                                  
E 3  27039250.760   142092186.656          50.000    27039255.940   106107787.543          50.000  
E 7  25562124.140   134329827.473          50.000    25562130.100   100311219.574          50.000  
E 8  22439108.980   117918315.758          50.000    22439111.700    88055878.117          50.000  
E13  23564310.560   123831271.516          50.000    23564314.040    92471393.754          50.000  
E15  26067041.840   136983180.523          50.000    26067047.980   102292617.762          50.000  
E26  24424439.700   128351256.496          50.000    24424445.040    95846702.953          50.000  
> 2020  7 17 22 18  3.0000000  0 14       0.000000000000
G10  22824628.600   119944172.031          50.000    22824629.480    89568696.012          50.000  
G13  23439709.640   123176547.945          50.000                                                  
G15  21677878.300   113917831.793          50.000                                                  
G16  23353469.980   122723312.941          50.000                                                  
G20  20531745.580   107895050.012          50.000                                                  
G21  23032522.060   121036734.184          50.000                                                  
G26  22683685.180   119203478.555          50.000    22683686.860    89015575.160          50.000  
G29  21662129.740   113835245.297          50.000                                                  
E 3  27039627.380   142094165.824          50.000    27039632.580   106109265.492          50.000  
E 7  25561607.540   134327112.703          50.000    25561613.500   100309192.309          50.000  
E 8  22439020.080   117917848.563          50.000    22439022.800    88055529.238          50.000  
E13  23564323.140   123831337.617          50.000    23564326.620    92471443.117          50.000  
E15  26067360.920   136984857.258          50.000    26067367.060   102293869.867          50.000  
E26  24424119.800   128349575.512          50.000    24424125.160    95845447.672          50.000  
> 2020  7 17 22 18  4.0000000  0 14       0.000000000000
G10  22824098.340   119941385.473          50.000    22824099.220    89566615.141          50.000  
G13  23439853.660   123177304.754          50.000                                                  
G15  21677822.640   113917539.242          50.000                                                  
G16  23353282.160   122722325.961          50.000                                                  
G20  20531496.360   107893740.391          50.000                                                  
G21  23032191.000   121034994.359          50.000                                                  
G26  22683916.200   119204692.531          50.000    22683917.880    89016481.699          50.000  
G29  21662598.800   113837710.254          50.000                                                  
E 3  27040004.060   142096145.313          50.000    27040009.260   106110743.684          50.000  
E 7  25561090.960   134324398.121          50.000    25561096.940   100307165.188          50.000  
E 8  22438931.260   117917381.828          50.000    22438933.980    88055180.703          50.000  
E13  23564335.740   123831403.852          50.000    23564339.220    92471492.574          50.000  
E15  26067680.020   136986534.086          50.000    26067686.160   102295122.043          50.000  
E26  24423799.940   128347894.551          50.000    24423805.280    95844192.414          50.000  
> 2020  7 17 22 18  5.0000000  0 14       0.000000000000
G10  22823568.120   119938599.227          50.000    22823569.020    89564534.508          50.000  
G13  23439997.800   123178062.195          50.000                                                  
G15  21677767.100   113917247.379          50.000                                                  
G16  23353094.460   122721339.617          50.000                                                  
G20  20531247.240   107892431.215          50.000                                                  
G21  23031859.920   121033254.582          50.000                                                  
G26  22684147.300   119205907.023          50.000    22684149.000    89017388.625          50.000  
G29  21663067.960   113840175.637          50.000                                                  
E 3  27040380.820   142098125.125          50.000    27040386.000   106112222.113          50.000  
E 7  25560574.440   134321683.738          50.000    25560580.400   100305138.215          50.000  
E 8  22438842.540   117916915.555          50.000    22438845.240    88054832.512          50.000  
E13  23564348.380   123831470.219          50.000    23564351.860    92471542.137          50.000  
E15  26067999.120   136988211.043          50.000    26068005.260   102296374.316          50.000  
E26  24423480.060   128346213.617          50.000    24423485.420    95842937.168          50.000  
> 2020  7 17 22 18  6.0000000  0 14       0.000000000000
G10  22823037.980   119935813.301          50.000    22823038.860    89562454.109          50.000  
G13  23440142.060   123178820.262          50.000                                                  
G15  21677711.680   113916956.203          50.000                                                  
G16  23352906.880   122720353.887          50.000                                                  
G20  20530998.180   107891122.496          50.000                                                  
G21  23031528.860   121031514.871          50.000                                                  
G26  22684378.520   119207122.047          50.000    22684380.200    89018295.945          50.000  
G29  21663537.180   113842641.445          50.000                                                  
E 3  27040757.620   142100105.273          50.000    27040762.820   106113700.793          50.000  
E 7  25560057.940   134318969.570          50.000    25560063.920   100303111.402          50.000  
E 8  22438753.900   117916449.766          50.000    22438756.620    88054484.684          50.000  
E13  23564361.020   123831536.727          50.000    23564364.520    92471591.801          50.000  
E15  26068318.260   136989888.105          50.000    26068324.400   102297626.668          50.000  
E26  24423160.200   128344532.715          50.000    24423165.540    95841681.949          50.000  
> 2020  7 17 22 18  7.0000000  0 14       0.000000000000
G10  22822507.900   119933027.676          50.000    22822508.780    89560373.934          50.000  
G13  23440286.440   123179578.973          50.000                                                  
G15  21677656.400   113916665.707          50.000                                                  
G16  23352719.420   122719368.789          50.000                                                  
G20  20530749.240   107889814.227          50.000                                                  
G21  23031197.820   121029775.238          50.000                                                  
G26  22684609.820   119208337.566          50.000    22684611.500    89019203.641          50.000  
G29  21664006.500   113845107.688          50.000                                                  
E 3  27041134.500   142102085.742          50.000    27041139.680   106115179.715          50.000  
E 7  25559541.500   134316255.605          50.000    25559547.460   100301084.742          50.000  
E 8  22438665.340   117915984.449          50.000    22438668.060    88054137.207          50.000  
E13  23564373.720   123831603.379          50.000    23564377.200    92471641.570          50.000  
E15  26068637.420   136991565.270          50.000    26068643.560   102298879.094          50.000  
E26  24422840.340   128342851.828          50.000    24422845.680    95840426.742          50.000  
> 2020  7 17 22 18  8.0000000  0 14       0.000000000000
G10  22821977.860   119930242.355          50.000    22821978.760    89558293.992          50.000  
G13  23440430.940   123180338.316          50.000                                                  
G15  21677601.260   113916375.910          50.000                                                  
G16  23352532.080   122718384.324          50.000                                                  
G20  20530500.360   107888506.402          50.000                                                  
G21  23030866.800   121028035.664          50.000                                                  
G26  22684841.220   119209553.605          50.000    22684842.920    89020111.723          50.000  
G29  21664475.880   113847574.344          50.000                                                  
E 3  27041511.420   142104066.543          50.000    27041516.620   106116658.887          50.000  
E 7  25559025.080   134313541.824          50.000    25559031.040   100299058.219          50.000  
E 8  22438576.880   117915519.594          50.000    22438579.600    88053790.074          50.000  
E13  23564386.420   123831670.160          50.000    23564389.900    92471691.441          50.000  
E15  26068956.600   136993242.547          50.000    26068962.740   102300131.605          50.000  
E26  24422520.480   128341170.961          50.000    24422525.820    95839171.551          50.000  
> 2020  7 17 22 18  9.0000000  0 14       0.000000000000
G10  22821447.900   119927457.348          50.000    22821448.780    89556214.277          50.000  
G13  23440575.560   123181098.297          50.000                                                  
G15  21677546.240   113916086.801          50.000                                                  
G16  23352344.880   122717400.492          50.000                                                  
G20  20530251.580   107887199.039          50.000                                                  
G21  23030535.780   121026296.164          50.000                                                  
G26  22685072.720   119210770.160          50.000    22685074.420    89021020.184          50.000  
G29  21664945.360   113850041.438          50.000                                                  
E 3  27041888.420   142106047.676          50.000    27041893.620   106118138.301          50.000  
E 7  25558508.700   134310828.262          50.000    25558514.680   100297031.859          50.000  
E 8  22438488.520   117915055.203          50.000    22438491.240    88053443.289          50.000  
E13  23564399.160   123831737.086          50.000    23564402.640    92471741.418          50.000  
E15  26069275.780   136994919.941          50.000    26069281.940   102301384.203          50.000  
E26  24422200.620   128339490.133          50.000    24422205.980    95837916.387          50.000  
> 2020  7 17 22 18 10.0000000  0 15       0.000000000000
G10  22820917.980   119924672.645          50.000    22820918.860    89554134.793          50.000  
G13  23440720.300   123181858.910          50.000                                                  
G15  21677491.360   113915798.383          50.000                                                  
G16  23352157.780   122716417.297          50.000                                                  
G20  20530002.880   107885892.113          50.000                                                  
G21  23030204.780   121024556.730          50.000                                                  
G26  22685304.340   119211987.242          50.000    22685306.020    89021929.043          50.000  
G29  21665414.920   113852508.949          50.000                                                  
E 3  27042265.480   142108029.137          50.000    27042270.680   106119617.961          50.000  
E 7  25557992.360   134308114.887          50.000    25557998.340   100295005.637          50.000  
E 8  22438400.240   117914591.293          50.000    22438402.960    88053096.863          50.000  
E13  23564411.920   123831804.141          50.000    23564415.400    92471791.492          50.000  
E15  26069595.000   136996597.430          50.000    26069601.140   102302636.875          50.000  
E21  26978614.960   141773519.109          50.000    26978621.120   105869814.359          50.000  
E26  24421880.780   128337809.320          50.000    24421886.120    95836661.238          50.000  
> 2020  7 17 22 18 11.0000000  0 15       0.000000000000
G10  22820388.140   119921888.266          50.000    22820389.020    89552055.551          50.000  
G13  23440865.160   123182620.172          50.000                                                  
G15  21677436.600   113915510.648          50.000                                                  
G16  23351970.800   122715434.742          50.000                                                  
G20  20529754.260   107884585.637          50.000                                                  
G21  23029873.780   121022817.352          50.000                                                  
G26  22685536.020   119213204.828          50.000    22685537.720    89022838.281          50.000  
G29  21665884.540   113854976.895          50.000                                                  
E 3  27042642.600   142110010.918          50.000    27042647.800   106121097.863          50.000  
E 7  25557476.060   134305401.734          50.000    25557482.040   100292979.582          50.000  
E 8  22438312.040   117914127.855          50.000    22438314.760    88052750.789          50.000  
E13  23564424.700   123831871.340          50.000    23564428.180    92471841.672          50.000  
E15  26069914.240   136998275.063          50.000    26069920.400   102303889.648          50.000  
E21  26979088.340   141776006.707          50.000    26979094.500   105871671.980          50.000  
E26  24421560.940   128336128.539          50.000    24421566.280    95835406.109          50.000  
> 2020  7 17 22 18 12.0000000  0 15       0.000000000000
G10  22819858.340   119919104.172          50.000    22819859.220    89549976.523          50.000  
G13  23441010.140   123183382.047          50.000                                                  
G15  21677381.980   113915223.598          50.000                                                  
G16  23351783.940   122714452.828          50.000                                                  
G20  20529505.740   107883279.617          50.000                                                  
G21  23029542.800   121021078.047          50.000                                                  
G26  22685767.820   119214422.930          50.000    22685769.520    89023747.898          50.000  
G29  21666354.260   113857445.254          50.000                                                  
E 3  27043019.780   142111993.027          50.000    27043024.980   106122578.012          50.000  
E 7  25556959.800   134302688.770          50.000    25556965.780   100290953.672          50.000  
E 8  22438223.940   117913664.887          50.000    22438226.660    88052405.070          50.000  
E13  23564437.520   123831938.676          50.000    23564441.000    92471891.957          50.000  
E15  26070233.500   136999952.785          50.000    26070239.660   102305142.496          50.000  
E21  26979561.740   141778494.438          50.000    26979567.900   105873529.699          50.000  
E26  24421241.100   128334447.781          50.000    24421246.440    95834150.996          50.000  
> 2020  7 17 22 18 13.0000000  0 15       0.000000000000
G10  22819328.600   119916320.398          50.000    22819329.480    89547897.730          50.000  
G13  23441155.240   123184144.570          50.000                                                  
G15  21677327.480   113914937.230          50.000                                                  
G16  23351597.220   122713471.543          50.000                                                  
G20  20529257.300   107881974.055          50.000                                                  
G21  23029211.840   121019338.801          50.000                                                  
G26  22685999.720   119215641.559          50.000    22686001.420    89024657.914          50.000  
G29  21666824.060   113859914.043          50.000                                                  
E 3  27043397.040   142113975.473          50.000    27043402.220   106124058.406          50.000  
E 7  25556443.580   134299976.012          50.000    25556449.560   100288927.910          50.000  
E 8  22438135.940   117913202.391          50.000    22438138.660    88052059.699          50.000  
E13  23564450.360   123832006.152          50.000    23564453.840    92471942.344          50.000  
E15  26070552.800   137001630.625          50.000    26070558.940   102306395.426          50.000  
E21  26980035.160   141780982.297          50.000    26980041.320   105875387.516          50.000  
E26  24420921.260   128332767.051          50.000    24420926.620    95832895.906          50.000  
> 2020  7 17 22 18 14.0000000  0 15       0.000000000000
G10  22818798.920   119913536.934          50.000    22818799.800    89545819.172          50.000  
G13  23441300.460   123184907.723          50.000                                                  
G15  21677273.120   113914651.555          50.000                                                  
G16  23351410.600   122712490.863          50.000                                                  
G20  20529008.940   107880668.934          50.000                                                  
G21  23028880.880   121017599.625          50.000                                                  
G26  22686231.720   119216860.699          50.000    22686233.420    89025568.313          50.000  
G29  21667293.940   113862383.254          50.000                                                  
E 3  27043774.340   142115958.242          50.000    27043779.540   106125539.047          50.000  
E 7  25555927.400   134297263.445          50.000    25555933.360   100286902.293          50.000  
E 8  22438048.020   117912740.359          50.000    22438050.740    88051714.676          50.000  
E13  23564463.220   123832073.758          50.000    23564466.700    92471992.828          50.000  
E15  26070872.080   137003308.551          50.000    26070878.240   102307648.422          50.000  
E21  26980508.600   141783470.293          50.000    26980514.780   105877245.434          50.000  
E26  24420601.440   128331086.336          50.000    24420606.780    95831640.828          50.000  
> 2020  7 17 22 18 15.0000000  0 15       0.000000000000
G10  22818269.300   119910753.770          50.000    22818270.180    89543740.836          50.000  
G13  23441445.800   123185671.512          50.000                                                  
G15  21677218.900   113914366.563          50.000                                                  
G16  23351224.100   122711510.816          50.000                                                  
G20  20528760.680   107879364.266          50.000                                                  
G21  23028549.940   121015860.504          50.000                                                  
G26  22686463.820   119218080.355          50.000    22686465.500    89026479.094          50.000  
G29  21667763.900   113864852.906          50.000                                                  
E 3  27044151.720   142117941.336          50.000    27044156.900   106127019.926          50.000  
E 7  25555411.260   134294551.086          50.000    25555417.220   100284876.832          50.000  
E 8  22437960.180   117912278.805          50.000    22437962.900    88051370.008          50.000  
E13  23564476.120   123832141.504          50.000    23564479.600    92472043.422          50.000  
E15  26071191.420   137004986.613          50.000    26071197.560   102308901.520          50.000  
E21  26980982.080   141785958.418          50.000    26980988.260   105879103.449          50.000  
E26  24420281.620   128329405.656          50.000    24420286.960    95830385.777          50.000  
> 2020  7 17 22 18 16.0000000  0 15       0.000000000000
G10  22817739.740   119907970.930          50.000    22817740.620    89541662.742          50.000  
G13  23441591.280   123186435.945          50.000                                                  
G15  21677164.800   113914082.273          50.000                                                  
G16  23351037.720   122710531.410          50.000                                                  
G20  20528512.480   107878060.051          50.000                                                  
G21  23028219.000   121014121.453          50.000                                                  
G26  22686696.000   119219300.531          50.000    22686697.700    89027390.262          50.000  
G29  21668233.940   113867322.988          50.000                                                  
E 3  27044529.140   142119924.758          50.000    27044534.340   106128501.055          50.000  
E 7  25554895.160   134291838.945          50.000    25554901.120   100282851.531          50.000  
E 8  22437872.440   117911817.719          50.000    22437875.160    88051025.691          50.000  
E13  23564489.040   123832209.398          50.000    23564492.520    92472094.121          50.000  
E15  26071510.760   137006664.770          50.000    26071516.900   102310154.688          50.000  
E21  26981455.580   141788446.676          50.000    26981461.760   105880961.563          50.000  
E26  24419961.780   128327724.988          50.000    24419967.140    95829130.730          50.000  
> 2020  7 17 22 18 17.0000000  0 15       0.000000000000
G10  22817210.240   119905188.379          50.000    22817211.120    89539584.867          50.000  
G13  23441736.860   123187200.996          50.000                                                  
G15  21677110.820   113913798.664          50.000                                                  
G16  23350851.460   122709552.629          50.000                                                  
G20  20528264.380   107876756.277          50.000                                                  
G21  23027888.080   121012382.465          50.000                                                  
G26  22686928.300   119220521.227          50.000    22686929.980    89028301.820          50.000  
G29  21668704.060   113869793.480          50.000                                                  
E 3  27044906.640   142121908.516          50.000    27044911.840   106129982.430          50.000  
E 7  25554379.080   134289126.980          50.000    25554385.040   100280826.363          50.000  
E 8  22437784.780   117911357.090          50.000    22437787.500    88050681.715          50.000  
E13  23564501.980   123832277.418          50.000    23564505.460    92472144.914          50.000  
E15  26071830.120   137008343.039          50.000    26071836.260   102311407.941          50.000  
E21  26981929.120   141790935.063          50.000    26981935.280   105882819.773          50.000  
E26  24419641.980   128326044.363          50.000    24419647.320    95827875.723          50.000  
> 2020  7 17 22 18 18.0000000  0 15       0.000000000000
G10  22816680.800   119902406.145          50.000    22816681.680    89537507.223          50.000  
G13  23441882.560   123187966.680          50.000                                                  
G15  21677056.980   113913515.746          50.000                                                  
G16  23350665.320   122708574.457          50.000                                                  
G20  20528016.380   107875452.957          50.000                                                  
G21  23027557.180   121010643.539          50.000                                                  
G26  22687160.680   119221742.422          50.000    22687162.380    89029213.750          50.000  
G29  21669174.260   113872264.414          50.000                                                  
E 3  27045284.200   142123892.590          50.000    27045289.400   106131464.043          50.000  
E 7  25553863.040   134286415.223          50.000    25553869.020   100278801.355          50.000  
E 8  22437697.220   117910896.941          50.000    22437699.940    88050338.098          50.000  
E13  23564514.960   123832345.586          50.000    23564518.440    92472195.820          50.000  
E15  26072149.520   137010021.430          50.000    26072155.660   102312661.285          50.000  
E21  26982402.660   141793423.586          50.000    26982408.840   105884678.082          50.000  
E26  24419322.160   128324363.754          50.000    24419327.520    95826620.719          50.000  
> 2020  7 17 22 18 19.0000000  0 15       0.000000000000
G10  22816151.420   119899624.219          50.000    22816152.300    89535429.813          50.000  
G13  23442028.380   123188733.008          50.000                                                  
G15  21677003.280   113913233.512          50.000                                                  
G16  23350479.320   122707596.930          50.000                                                  
G20  20527768.440   107874150.090          50.000                                                  
G21  23027226.280   121008904.695          50.000                                                  
G26  22687393.180   119222964.156          50.000    22687394.860    89030126.086          50.000  
G29  21669644.540   113874735.766          50.000                                                  
E 3  27045661.820   142125876.992          50.000    27045667.020   106132945.902          50.000  
E 7  25553347.060   134283703.676          50.000    25553353.020   100276776.496          50.000  
E 8  22437609.760   117910437.270          50.000    22437612.460    88049994.836          50.000  
E13  23564527.940   123832413.887          50.000    23564531.440    92472246.820          50.000  
E15  26072468.920   137011699.926          50.000    26072475.060   102313914.707          50.000  
E21  26982876.240   141795912.246          50.000    26982882.400   105886536.496          50.000  
E26  24419002.360   128322683.172          50.000    24419007.720    95825365.742          50.000  
> 2020  7 17 22 18 20.0000000  0 15       0.000000000000
G10  22815622.100   119896842.602          50.000    22815622.980    89533352.633          50.000  
G13  23442174.340   123189499.965          50.000                                                  
G15  21676949.700   113912951.973          50.000                                                  
G16  23350293.400   122706620.012          50.000                                                  
G20  20527520.600   107872847.656          50.000                                                  
G21  23026895.400   121007165.902          50.000                                                  
G26  22687625.760   119224186.383          50.000    22687627.440    89031038.785          50.000  
G29  21670114.900   113877207.547          50.000                                                  
E 3  27046039.500   142127861.730          50.000    27046044.700   106134428.008          50.000  
E 7  25552831.100   134280992.328          50.000    25552837.080   100274751.789          50.000  
E 8  22437522.360   117909978.047          50.000    22437525.080    88049651.910          50.000  
E13  23564540.960   123832482.320          50.000    23564544.460    92472297.926          50.000  
E15  26072788.340   137013378.531          50.000    26072794.500   102315168.211          50.000  
E21  26983349.840   141798401.020          50.000    26983356.000   105888394.996          50.000  
E26  24418682.560   128321002.613          50.000    24418687.920    95824110.777          50.000  
> 2020  7 17 22 18 21.0000000  0 15       0.000000000000
G10  22815092.820   119894061.285          50.000    22815093.700    89531275.676          50.000  
G13  23442320.400   123190267.551          50.000                                                  
G15  21676896.260   113912671.125          50.000                                                  
G16  23350107.620   122705643.730          50.000                                                  
G20  20527272.840   107871545.684          50.000                                                  
G21  23026564.540   121005427.188          50.000                                                  
G26  22687858.440   119225409.137          50.000    22687860.120    89031951.883          50.000  
G29  21670585.340   113879679.754          50.000                                                  
E 3  27046417.260   142129846.785          50.000    27046422.440   106135910.355          50.000  
E 7  25552315.180   134278281.172          50.000    25552321.160   100272727.227          50.000  
E 8  22437435.060   117909519.297          50.000    22437437.780    88049309.340          50.000  
E13  23564554.020   123832550.898          50.000    23564557.500    92472349.137          50.000  
E15  26073107.800   137015057.254          50.000    26073113.940   102316421.801          50.000  
E21  26983823.460   141800889.934          50.000    26983829.640   105890253.598          50.000  
E26  24418362.760   128319322.078          50.000    24418368.120    95822855.832          50.000  
> 2020  7 17 22 18 22.0000000  0 15       0.000000000000
G10  22814563.620   119891280.289          50.000    22814564.500    89529198.961          50.000  
G13  23442466.600   123191035.777          50.000                                                  
G15  21676842.940   113912390.957          50.000                                                  
G16  23349921.960   122704668.082          50.000                                                  
G20  20527025.160   107870244.156          50.000                                                  
G21  23026233.680   121003688.539          50.000                                                  
G26  22688091.220   119226632.406          50.000    22688092.920    89032865.359          50.000  
G29  21671055.880   113882152.391          50.000                                                  
E 3  27046795.060   142131832.180          50.000    27046800.260   106137392.953          50.000  
E 7  25551799.320   134275570.230          50.000    25551805.280   100270702.824          50.000  
E 8  22437347.860   117909061.047          50.000    22437350.580    88048967.137          50.000  
E13  23564567.100   123832619.617          50.000    23564570.580    92472400.453          50.000  
E15  26073427.260   137016736.082          50.000    26073433.420   102317675.469          50.000  
E21  26984297.120   141803378.984          50.000    26984303.280   105892112.305          50.000  
E26  24418042.980   128317641.570          50.000    24418048.320    95821600.910          50.000  
> 2020  7 17 22 18 23.0000000  0 15       0.000000000000
G10  22814034.460   119888499.602          50.000    22814035.340    89527122.473          50.000  
G13  23442612.900   123191804.633          50.000                                                  
G15  21676789.760   113912111.484          50.000                                                  
G16  23349736.420   122703693.063          50.000                                                  
G20  20526777.580   107868943.078          50.000                                                  
G21  23025902.840   121001949.953          50.000                                                  
G26  22688324.100   119227856.184          50.000    22688325.780    89033779.219          50.000  
G29  21671526.480   113884625.457          50.000                                                  
E 3  27047172.920   142133817.895          50.000    27047178.120   106138875.789          50.000  
E 7  25551283.480   134272859.477          50.000    25551289.440   100268678.559          50.000  
E 8  22437260.740   117908603.250          50.000    22437263.460    88048625.277          50.000  
E13  23564580.200   123832688.480          50.000    23564583.680    92472451.875          50.000  
E15  26073746.760   137018415.027          50.000    26073752.900   102318929.227          50.000  
E21  26984770.780   141805868.148          50.000    26984776.960   105893971.098          50.000  
E26  24417723.200   128315961.086          50.000    24417728.540    95820346.004          50.000  
> 2020  7 17 22 18 24.0000000  0 15       0.000000000000
G10  22813505.380   119885719.230          50.000    22813506.260    89525046.227          50.000  
G13  23442759.320   123192574.125          50.000                                                  
G15  21676736.720   113911832.695          50.000                                                  
G16  23349551.000   122702718.664          50.000                                                  
G20  20526530.080   107867642.449          50.000                                                  
G21  23025572.000   121000211.434          50.000                                                  
G26  22688557.080   119229080.492          50.000    22688558.760    89034693.477          50.000  
G29  21671997.180   113887098.945          50.000                                                  
E 3  27047550.860   142135803.930          50.000    27047556.060   106140358.871          50.000  
E 7  25550767.680   134270148.953          50.000    25550773.640   100266654.469          50.000  
E 8  22437173.720   117908145.926          50.000    22437176.440    88048283.770          50.000  
E13  23564593.320   123832757.469          50.000    23564596.820    92472503.395          50.000  
E15  26074066.280   137020094.063          50.000    26074072.420   102320183.051          50.000  
E21  26985244.480   141808357.461          50.000    26985250.660   105895829.996          50.000  
