     3.03           OBSERVATION DATA    M: Mixed            RINEX VERSION / TYPE
sbp2rinex v2.2 (RTKL                    20210504 171525 UTC PGM / RUN BY / DATE 
log: 2020-06-04-US-MTV-1.sbp                                COMMENT             
format: Swift Navigation SBP, option: CONVBASE,EPHALL,OBSALLCOMMENT             
                                                            MARKER NAME         
                                                            MARKER NUMBER       
                                                            MARKER TYPE         
                                                            OBSERVER / AGENCY   
                                                            REC # / TYPE / VERS 
                                                            ANT # / TYPE        
 -2725676.0816 -4348357.6486  3774543.0508                  APPROX POSITION XYZ 
        0.0000        0.0000        0.0000                  ANTENNA: DELTA H/E/N
G    6 C1C L1C S1C C5I L5I S5I                              SYS / # / OBS TYPES 
E    6 C1B L1B S1B C5I L5I S5I                              SYS / # / OBS TYPES 
  2020     6     4    20    57   34.0000000     GPS         TIME OF FIRST OBS   
  2020     6     4    21    26   54.0000000     GPS         TIME OF LAST OBS    
G                                                           SYS / PHASE SHIFT   
E                                                           SYS / PHASE SHIFT   
  0                                                         GLONASS SLOT / FRQ #
 C1C    0.000 C1P    0.000 C2C    0.000 C2P    0.000        GLONASS COD/PHS/BIS 
                                                            END OF HEADER       
> 2020  6  4 20 57 34.0000000  0 13       0.000000000000
G 2  21241225.900   111623416.770          50.000                                                  
G 5  22557348.840   118539572.180          50.000                                                  
G 6  22902992.180   120355981.523          50.000    22902995.060    89876218.902          50.000  
G12  20079349.140   105517700.719          50.000                                                  
G19  24528828.620   128899838.750          50.000                                                  
G24  23555026.280   123782422.305          50.000    23555029.920    92434917.402          50.000  
G25  21035179.460   110540555.984          50.000    21035181.520    82546518.887          50.000  
G29  23010227.760   120919543.633          50.000                                                  
E 2  24667275.080   129627397.355          50.000    24667278.740    96799670.547          50.000  
E15  25038250.040   131576847.574          50.000    25038256.060    98255422.285          50.000  
E27  26489761.160   139204600.676          50.000    26489766.020   103951473.008          50.000  
E30  22260591.160   116980169.492          50.000    22260594.880    87355308.918          50.000  
E36  25647529.020   134778633.668          50.000    25647534.380   100646367.496          50.000  
> 2020  6  4 20 57 35.0000000  0 13       0.000000000000
G 2  21241511.460   111624917.484          50.000                                                  
G 5  22556812.200   118536752.059          50.000                                                  
G 6  22903572.060   120359028.836          50.000    22903574.940    89878494.492          50.000  
G12  20079311.040   105517500.543          50.000                                                  
G19  24529362.100   128902642.207          50.000                                                  
G24  23555614.580   123785513.918          50.000    23555618.240    92437226.074          50.000  
G25  21034799.480   110538559.215          50.000    21034801.540    82545027.789          50.000  
G29  23009807.980   120917337.617          50.000                                                  
E 2  24667700.920   129629635.176          50.000    24667704.580    96801341.641          50.000  
E15  25037901.000   131575013.297          50.000    25037907.000    98254052.531          50.000  
E27  26489273.700   139202039.027          50.000    26489278.560   103949560.090          50.000  
E30  22260528.640   116979840.969          50.000    22260532.360    87355063.594          50.000  
E36  25647965.120   134780925.465          50.000    25647970.500   100648078.902          50.000  
> 2020  6  4 20 57 36.0000000  0 13       0.000000000000
G 2  21241797.120   111626418.566          50.000                                                  
G 5  22556275.600   118533932.277          50.000                                                  
G 6  22904151.980   120362076.352          50.000    22904154.860    89880770.230          50.000  
G12  20079273.060   105517300.922          50.000                                                  
G19  24529895.600   128905445.684          50.000                                                  
G24  23556202.920   123788605.652          50.000    23556206.580    92439534.832          50.000  
G25  21034419.600   110536562.859          50.000    21034421.660    82543537.004          50.000  
G29  23009388.220   120915131.746          50.000                                                  
E 2  24668126.820   129631873.309          50.000    24668130.480    96803012.977          50.000  
E15  25037552.000   131573179.258          50.000    25037558.000    98252682.961          50.000  
E27  26488786.260   139199477.535          50.000    26488791.120   103947647.289          50.000  
E30  22260466.200   116979512.863          50.000    22260469.920    87354818.578          50.000  
E36  25648401.260   134783217.316          50.000    25648406.620   100649790.348          50.000  
> 2020  6  4 20 57 37.0000000  0 13       0.000000000000
G 2  21242082.820   111627920.012          50.000                                                  
G 5  22555739.080   118531112.801          50.000                                                  
G 6  22904731.960   120365124.074          50.000    22904734.820    89883046.129          50.000  
G12  20079235.160   105517101.832          50.000                                                  
G19  24530429.080   128908249.176          50.000                                                  
G24  23556791.280   123791697.492          50.000    23556794.940    92441843.676          50.000  
G25  21034039.780   110534566.934          50.000    21034041.840    82542046.539          50.000  
G29  23008968.480   120912925.988          50.000                                                  
E 2  24668552.780   129634111.750          50.000    24668556.440    96804684.535          50.000  
E15  25037203.040   131571345.473          50.000    25037209.040    98251313.574          50.000  
E27  26488298.860   139196916.203          50.000    26488303.720   103945734.609          50.000  
E30  22260403.860   116979185.191          50.000    22260407.560    87354573.887          50.000  
E36  25648837.380   134785509.219          50.000    25648842.760   100651501.832          50.000  
> 2020  6  4 20 57 38.0000000  0 13       0.000000000000
G 2  21242368.620   111629421.801          50.000                                                  
G 5  22555202.600   118528293.652          50.000                                                  
G 6  22905311.960   120368172.008          50.000    22905314.820    89885322.180          50.000  
G12  20079197.380   105516903.285          50.000                                                  
G19  24530962.580   128911052.672          50.000                                                  
G24  23557379.660   123794789.438          50.000    23557383.300    92444152.590          50.000  
G25  21033660.040   110532571.414          50.000    21033662.100    82540556.383          50.000  
G29  23008548.740   120910720.340          50.000                                                  
E 2  24668978.800   129636350.496          50.000    24668982.460    96806356.328          50.000  
E15  25036854.120   131569511.922          50.000    25036860.120    98249944.363          50.000  
E27  26487811.480   139194355.039          50.000    26487816.340   103943822.047          50.000  
E30  22260341.580   116978857.926          50.000    22260345.300    87354329.504          50.000  
E36  25649273.540   134787801.176          50.000    25649278.900   100653213.359          50.000  
> 2020  6  4 20 57 39.0000000  0 13       0.000000000000
G 2  21242654.460   111630923.953          50.000                                                  
G 5  22554666.200   118525474.816          50.000                                                  
G 6  22905892.000   120371220.141          50.000    22905894.860    89887598.383          50.000  
G12  20079159.700   105516705.285          50.000                                                  
G19  24531496.060   128913856.176          50.000                                                  
G24  23557968.060   123797881.488          50.000    23557971.700    92446461.590          50.000  
G25  21033280.400   110530576.320          50.000    21033282.460    82539066.539          50.000  
G29  23008129.060   120908514.820          50.000                                                  
E 2  24669404.880   129638589.539          50.000    24669408.540    96808028.340          50.000  
E15  25036505.260   131567678.625          50.000    25036511.260    98248575.348          50.000  
E27  26487324.140   139191794.031          50.000    26487329.000   103941909.613          50.000  
E30  22260279.380   116978531.094          50.000    22260283.100    87354085.438          50.000  
E36  25649709.680   134790093.176          50.000    25649715.060   100654924.918          50.000  
> 2020  6  4 20 57 40.0000000  0 13       0.000000000000
G 2  21242940.380   111632426.461          50.000                                                  
G 5  22554129.860   118522656.305          50.000                                                  
G 6  22906472.080   120374268.473          50.000    22906474.940    89889874.734          50.000  
G12  20079122.140   105516507.816          50.000                                                  
G19  24532029.560   128916659.688          50.000                                                  
G24  23558556.480   123800973.660          50.000    23558560.140    92448770.680          50.000  
G25  21032900.820   110528581.648          50.000    21032902.880    82537577.012          50.000  
G29  23007709.380   120906309.418          50.000                                                  
E 2  24669831.020   129640828.898          50.000    24669834.680    96809700.586          50.000  
E15  25036156.440   131565845.566          50.000    25036162.440    98247206.504          50.000  
E27  26486836.820   139189233.176          50.000    26486841.680   103939997.285          50.000  
E30  22260217.260   116978204.676          50.000    22260220.980    87353841.684          50.000  
E36  25650145.860   134792385.238          50.000    25650151.220   100656636.520          50.000  
> 2020  6  4 20 57 41.0000000  0 13       0.000000000000
G 2  21243226.360   111633929.328          50.000                                                  
G 5  22553593.560   118519838.102          50.000                                                  
G 6  22907052.200   120377317.016          50.000    22907055.060    89892151.242          50.000  
G12  20079084.660   105516310.902          50.000                                                  
G19  24532563.040   128919463.207          50.000                                                  
G24  23559144.920   123804065.953          50.000    23559148.580    92451079.855          50.000  
G25  21032521.320   110526587.387          50.000    21032523.380    82536087.789          50.000  
G29  23007289.720   120904104.137          50.000                                                  
E 2  24670257.200   129643068.555          50.000    24670260.860    96811373.059          50.000  
E15  25035807.660   131564012.730          50.000    25035813.660    98245837.828          50.000  
E27  26486349.540   139186672.477          50.000    26486354.400   103938085.074          50.000  
E30  22260155.240   116977878.688          50.000    22260158.940    87353598.250          50.000  
E36  25650582.020   134794677.348          50.000    25650587.400   100658348.160          50.000  
> 2020  6  4 20 57 42.0000000  0 13       0.000000000000
G 2  21243512.420   111635432.551          50.000                                                  
G 5  22553057.340   118517020.223          50.000                                                  
G 6  22907632.360   120380365.758          50.000    22907635.220    89894427.898          50.000  
G12  20079047.280   105516114.520          50.000                                                  
G19  24533096.540   128922266.746          50.000                                                  
G24  23559733.400   123807158.375          50.000    23559737.040    92453389.129          50.000  
G25  21032141.900   110524593.555          50.000    21032143.960    82534598.891          50.000  
G29  23006870.100   120901898.988          50.000                                                  
E 2  24670683.460   129645308.527          50.000    24670687.120    96813045.766          50.000  
E15  25035458.940   131562180.172          50.000    25035464.940    98244469.359          50.000  
E27  26485862.280   139184111.941          50.000    26485867.140   103936172.988          50.000  
E30  22260093.280   116977553.129          50.000    22260097.000    87353355.141          50.000  
E36  25651018.220   134796969.516          50.000    25651023.580   100660059.844          50.000  
> 2020  6  4 20 57 43.0000000  0 13       0.000000000000
G 2  21243798.540   111636936.133          50.000                                                  
G 5  22552521.180   118514202.664          50.000                                                  
G 6  22908212.540   120383414.711          50.000    22908215.420    89896704.715          50.000  
G12  20079010.020   105515918.688          50.000                                                  
G19  24533630.040   128925070.297          50.000                                                  
G24  23560321.880   123810250.906          50.000    23560325.540    92455698.488          50.000  
G25  21031762.580   110522600.152          50.000    21031764.640    82533110.313          50.000  
G29  23006450.500   120899693.953          50.000                                                  
E 2  24671109.780   129647548.805          50.000    24671113.440    96814718.699          50.000  
E15  25035110.240   131560347.840          50.000    25035116.260    98243101.059          50.000  
E27  26485375.060   139181551.563          50.000    26485379.920   103934261.016          50.000  
E30  22260031.400   116977227.984          50.000    22260035.120    87353112.336          50.000  
E36  25651454.400   134799261.734          50.000    25651459.780   100661771.563          50.000  
> 2020  6  4 20 57 44.0000000  0 13       0.000000000000
G 2  21244084.740   111638440.066          50.000                                                  
G 5  22551985.080   118511385.418          50.000                                                  
G 6  22908792.780   120386463.871          50.000    22908795.660    89898981.684          50.000  
G12  20078972.860   105515723.402          50.000                                                  
G19  24534163.540   128927873.852          50.000                                                  
G24  23560910.400   123813343.516          50.000    23560914.040    92458007.902          50.000  
G25  21031383.320   110520607.164          50.000    21031385.380    82531622.043          50.000  
G29  23006030.920   120897489.039          50.000                                                  
E 2  24671536.140   129649789.395          50.000    24671539.800    96816391.863          50.000  
E15  25034761.620   131558515.762          50.000    25034767.620    98241732.953          50.000  
E27  26484887.860   139178991.348          50.000    26484892.720   103932349.168          50.000  
E30  22259969.620   116976903.273          50.000    22259973.340    87352869.859          50.000  
E36  25651890.620   134801554.008          50.000    25651895.980   100663483.324          50.000  
> 2020  6  4 20 57 45.0000000  0 13       0.000000000000
G 2  21244370.980   111639944.359          50.000                                                  
G 5  22551449.040   118508568.496          50.000                                                  
G 6  22909373.060   120389513.227          50.000    22909375.940    89901258.801          50.000  
G12  20078935.800   105515528.648          50.000                                                  
G19  24534697.040   128930677.426          50.000                                                  
G24  23561498.920   123816436.234          50.000    23561502.560    92460317.398          50.000  
G25  21031004.140   110518614.590          50.000    21031006.200    82530134.078          50.000  
G29  23005611.360   120895284.254          50.000                                                  
E 2  24671962.560   129652030.281          50.000    24671966.240    96818065.254          50.000  
E15  25034413.020   131556683.918          50.000    25034419.040    98240365.016          50.000  
E27  26484400.700   139176431.281          50.000    26484405.560   103930437.434          50.000  
E30  22259907.900   116976578.961          50.000    22259911.620    87352627.676          50.000  
E36  25652326.820   134803846.328          50.000    25652332.200   100665195.121          50.000  
> 2020  6  4 20 57 46.0000000  0 13       0.000000000000
G 2  21244657.320   111641449.012          50.000                                                  
G 5  22550913.040   118505751.898          50.000                                                  
G 6  22909953.380   120392562.797          50.000    22909956.240    89903536.074          50.000  
G12  20078898.840   105515334.441          50.000                                                  
G19  24535230.540   128933481.012          50.000                                                  
G24  23562087.460   123819529.063          50.000    23562091.120    92462626.977          50.000  
G25  21030625.060   110516622.438          50.000    21030627.120    82528646.434          50.000  
G29  23005191.820   120893079.590          50.000                                                  
E 2  24672389.060   129654271.480          50.000    24672392.720    96819738.875          50.000  
E15  25034064.480   131554852.316          50.000    25034070.500    98238997.262          50.000  
E27  26483913.560   139173871.383          50.000    26483918.420   103928525.820          50.000  
E30  22259846.280   116976255.086          50.000    22259849.980    87352385.824          50.000  
E36  25652763.060   134806138.691          50.000    25652768.420   100666906.953          50.000  
> 2020  6  4 20 57 47.0000000  0 13       0.000000000000
G 2  21244943.700   111642954.016          50.000                                                  
G 5  22550377.120   118502935.617          50.000                                                  
G 6  22910533.720   120395612.555          50.000    22910536.600    89905813.492          50.000  
G12  20078862.000   105515140.777          50.000                                                  
G19  24535764.060   128936284.598          50.000                                                  
G24  23562676.040   123822622.004          50.000    23562679.680    92464936.637          50.000  
G25  21030246.040   110514630.715          50.000    21030248.100    82527159.109          50.000  
G29  23004772.300   120890875.035          50.000                                                  
E 2  24672815.600   129656512.973          50.000    24672819.260    96821412.719          50.000  
E15  25033715.980   131553020.953          50.000    25033722.000    98237629.688          50.000  
E27  26483426.460   139171311.645          50.000    26483431.320   103926614.328          50.000  
E30  22259784.720   116975931.629          50.000    22259788.440    87352144.277          50.000  
E36  25653199.280   134808431.117          50.000    25653204.660   100668618.828          50.000  
> 2020  6  4 20 57 48.0000000  0 13       0.000000000000
G 2  21245230.180   111644459.391          50.000                                                  
G 5  22549841.260   118500119.656          50.000                                                  
G 6  22911114.120   120398662.535          50.000    22911117.000    89908091.074          50.000  
G12  20078825.240   105514947.660          50.000                                                  
G19  24536297.560   128939088.215          50.000                                                  
G24  23563264.620   123825715.051          50.000    23563268.280    92467246.379          50.000  
G25  21029867.100   110512639.414          50.000    21029869.160    82525672.098          50.000  
G29  23004352.820   120888670.613          50.000                                                  
E 2  24673242.200   129658754.797          50.000    24673245.860    96823086.805          50.000  
E15  25033367.540   131551189.859          50.000    25033373.540    98236262.313          50.000  
E27  26482939.400   139168752.063          50.000    26482944.240   103924702.957          50.000  
E30  22259723.260   116975608.609          50.000    22259726.960    87351903.063          50.000  
E36  25653635.540   134810723.598          50.000    25653640.900   100670330.746          50.000  
> 2020  6  4 20 57 49.0000000  0 13       0.000000000000
G 2  21245516.700   111645965.109          50.000                                                  
G 5  22549305.460   118497304.023          50.000                                                  
G 6  22911694.540   120401712.711          50.000    22911697.420    89910368.801          50.000  
G12  20078788.600   105514755.090          50.000                                                  
G19  24536831.080   128941891.832          50.000                                                  
G24  23563853.240   123828808.219          50.000    23563856.880    92469556.211          50.000  
G25  21029488.260   110510648.520          50.000    21029490.320    82524185.391          50.000  
G29  23003933.360   120886466.305          50.000                                                  
E 2  24673668.860   129660996.910          50.000    24673672.520    96824761.109          50.000  
E15  25033019.140   131549358.996          50.000    25033025.140    98234895.109          50.000  
E27  26482452.360   139166192.648          50.000    26482457.200   103922791.703          50.000  
E30  22259661.860   116975286.008          50.000    22259665.580    87351662.160          50.000  
E36  25654071.780   134813016.133          50.000    25654077.160   100672042.703          50.000  
> 2020  6  4 20 57 50.0000000  0 13       0.000000000000
G 2  21245803.300   111647471.188          50.000                                                  
G 5  22548769.740   118494488.734          50.000                                                  
G 6  22912275.020   120404763.086          50.000    22912277.880    89912646.676          50.000  
G12  20078752.060   105514563.059          50.000                                                  
G19  24537364.600   128944695.465          50.000                                                  
G24  23564441.860   123831901.500          50.000    23564445.520    92471866.129          50.000  
G25  21029109.480   110508658.051          50.000    21029111.540    82522699.004          50.000  
G29  23003513.900   120884262.117          50.000                                                  
E 2  24674095.580   129663239.332          50.000    24674099.240    96826435.645          50.000  
E15  25032670.780   131547528.375          50.000    25032676.780    98233528.090          50.000  
E27  26481965.340   139163633.379          50.000    26481970.200   103920880.563          50.000  
E30  22259600.560   116974963.824          50.000    22259604.260    87351421.566          50.000  
E36  25654508.040   134815308.711          50.000    25654513.420   100673754.691          50.000  
> 2020  6  4 20 57 51.0000000  0 13       0.000000000000
G 2  21246089.960   111648977.625          50.000                                                  
G 5  22548234.060   118491673.770          50.000                                                  
G 6  22912855.520   120407813.672          50.000    22912858.400    89914924.707          50.000  
G12  20078715.620   105514371.563          50.000                                                  
G19  24537898.100   128947499.094          50.000                                                  
G24  23565030.520   123834994.898          50.000    23565034.180    92474176.133          50.000  
G25  21028730.780   110506668.008          50.000    21028732.840    82521212.934          50.000  
G29  23003094.480   120882058.043          50.000                                                  
E 2  24674522.360   129665482.059          50.000    24674526.020    96828110.406          50.000  
E15  25032322.480   131545697.996          50.000    25032328.480    98232161.250          50.000  
E27  26481478.360   139161074.273          50.000    26481483.200   103918969.543          50.000  
E30  22259539.320   116974642.066          50.000    22259543.040    87351181.293          50.000  
E36  25654944.320   134817601.352          50.000    25654949.700   100675466.727          50.000  
> 2020  6  4 20 57 52.0000000  0 13       0.000000000000
G 2  21246376.700   111650484.422          50.000                                                  
G 5  22547698.460   118488859.141          50.000                                                  
G 6  22913436.060   120410864.457          50.000    22913438.940    89917202.895          50.000  
G12  20078679.280   105514180.625          50.000                                                  
G19  24538431.620   128950302.750          50.000                                                  
G24  23565619.200   123838088.391          50.000    23565622.840    92476486.207          50.000  
G25  21028352.180   110504678.375          50.000    21028354.240    82519727.168          50.000  
G29  23002675.100   120879854.098          50.000                                                  
E 2  24674949.200   129667725.094          50.000    24674952.860    96829785.402          50.000  
E15  25031974.220   131543867.867          50.000    25031980.220    98230794.594          50.000  
E27  26480991.400   139158515.332          50.000    26480996.260   103917058.645          50.000  
E30  22259478.180   116974320.730          50.000    22259481.900    87350941.336          50.000  
E36  25655380.600   134819894.039          50.000    25655385.980   100677178.797          50.000  
> 2020  6  4 20 57 53.0000000  0 13       0.000000000000
G 2  21246663.500   111651991.563          50.000                                                  
G 5  22547162.920   118486044.820          50.000                                                  
G 6  22914016.660   120413915.441          50.000    22914019.520    89919481.227          50.000  
G12  20078643.040   105513990.219          50.000                                                  
G19  24538965.140   128953106.398          50.000                                                  
G24  23566207.880   123841181.992          50.000    23566211.540    92478796.359          50.000  
G25  21027973.640   110502689.168          50.000    21027975.700    82518241.723          50.000  
G29  23002255.720   120877650.258          50.000                                                  
E 2  24675376.080   129669968.434          50.000    24675379.760    96831460.621          50.000  
E15  25031626.000   131542037.973          50.000    25031632.000    98229428.117          50.000  
E27  26480504.480   139155956.555          50.000    26480509.340   103915147.871          50.000  
E30  22259417.100   116973999.824          50.000    22259420.820    87350701.695          50.000  
E36  25655816.900   134822186.773          50.000    25655822.280   100678890.906          50.000  
> 2020  6  4 20 57 54.0000000  0 13       0.000000000000
G 2  21246950.360   111653499.078          50.000                                                  
G 5  22546627.420   118483230.824          50.000                                                  
G 6  22914597.280   120416966.641          50.000    22914600.160    89921759.715          50.000  
G12  20078606.920   105513800.363          50.000                                                  
G19  24539498.660   128955910.059          50.000                                                  
G24  23566796.600   123844275.719          50.000    23566800.260    92481106.609          50.000  
G25  21027595.180   110500700.387          50.000    21027597.240    82516756.594          50.000  
G29  23001836.360   120875446.559          50.000                                                  
E 2  24675803.040   129672212.094          50.000    24675806.700    96833136.082          50.000  
E15  25031277.820   131540208.332          50.000    25031283.820    98228061.824          50.000  
E27  26480017.600   139153397.922          50.000    26480022.440   103913237.203          50.000  
E30  22259356.120   116973679.332          50.000    22259359.840    87350462.367          50.000  
E36  25656253.200   134824479.570          50.000    25656258.580   100680603.055          50.000  
> 2020  6  4 20 57 55.0000000  0 13       0.000000000000
G 2  21247237.300   111655006.934          50.000                                                  
G 5  22546092.000   118480417.137          50.000                                                  
G 6  22915177.940   120420018.039          50.000    22915180.820    89924038.355          50.000  
G12  20078570.900   105513611.035          50.000                                                  
G19  24540032.180   128958713.730          50.000                                                  
G24  23567385.340   123847369.559          50.000    23567389.000    92483416.945          50.000  
G25  21027216.820   110498712.023          50.000    21027218.880    82515271.777          50.000  
G29  23001417.040   120873242.961          50.000                                                  
E 2  24676230.060   129674456.039          50.000    24676233.720    96834811.754          50.000  
E15  25030929.700   131538378.934          50.000    25030935.700    98226695.715          50.000  
E27  26479530.740   139150839.453          50.000    26479535.580   103911326.664          50.000  
E30  22259295.220   116973359.262          50.000    22259298.940    87350223.355          50.000  
E36  25656689.520   134826772.402          50.000    25656694.880   100682315.234          50.000  
> 2020  6  4 20 57 56.0000000  0 13       0.000000000000
G 2  21247524.300   111656515.152          50.000                                                  
G 5  22545556.640   118477603.785          50.000                                                  
G 6  22915758.640   120423069.645          50.000    22915761.520    89926317.152          50.000  
G12  20078534.960   105513422.266          50.000                                                  
G19  24540565.700   128961517.414          50.000                                                  
G24  23567974.100   123850463.516          50.000    23567977.760    92485727.363          50.000  
G25  21026838.520   110496724.074          50.000    21026840.580    82513787.273          50.000  
G29  23000997.720   120871039.500          50.000                                                  
E 2  24676657.120   129676700.301          50.000    24676660.780    96836487.660          50.000  
E15  25030581.620   131536549.773          50.000    25030587.620    98225329.789          50.000  
E27  26479043.900   139148281.145          50.000    26479048.760   103909416.238          50.000  
E30  22259234.380   116973039.613          50.000    22259238.100    87349984.656          50.000  
E36  25657125.840   134829065.301          50.000    25657131.220   100684027.465          50.000  
> 2020  6  4 20 57 57.0000000  0 13       0.000000000000
G 2  21247811.380   111658023.730          50.000                                                  
G 5  22545021.340   118474790.750          50.000                                                  
G 6  22916339.380   120426121.449          50.000    22916342.260    89928596.094          50.000  
G12  20078499.160   105513234.035          50.000                                                  
G19  24541099.240   128964321.098          50.000                                                  
G24  23568562.880   123853557.559          50.000    23568566.540    92488037.852          50.000  
G25  21026460.300   110494736.559          50.000    21026462.360    82512303.090          50.000  
G29  23000578.440   120868836.145          50.000                                                  
E 2  24677084.240   129678944.863          50.000    24677087.920    96838163.797          50.000  
E15  25030233.600   131534720.867          50.000    25030239.600    98223964.047          50.000  
E27  26478557.100   139145723.004          50.000    26478561.960   103907505.938          50.000  
E30  22259173.640   116972720.406          50.000    22259177.360    87349746.289          50.000  
E36  25657562.180   134831358.246          50.000    25657567.540   100685739.730          50.000  
> 2020  6  4 20 57 58.0000000  0 13       0.000000000000
G 2  21248098.520   111659532.656          50.000                                                  
G 5  22544486.080   118471978.035          50.000                                                  
G 6  22916920.160   120429173.461          50.000    22916923.040    89930875.191          50.000  
G12  20078463.440   105513046.355          50.000                                                  
G19  24541632.760   128967124.793          50.000                                                  
G24  23569151.680   123856651.715          50.000    23569155.340    92490348.422          50.000  
G25  21026082.180   110492749.461          50.000    21026084.240    82510819.215          50.000  
G29  23000159.180   120866632.922          50.000                                                  
E 2  24677511.440   129681189.738          50.000    24677515.100    96839840.160          50.000  
E15  25029885.600   131532892.195          50.000    25029891.620    98222598.480          50.000  
E27  26478070.340   139143165.016          50.000    26478075.180   103905595.754          50.000  
E30  22259112.980   116972401.605          50.000    22259116.700    87349508.223          50.000  
E36  25657998.520   134833651.242          50.000    25658003.900   100687452.031          50.000  
> 2020  6  4 20 57 59.0000000  0 13       0.000000000000
G 2  21248385.720   111661041.938          50.000                                                  
G 5  22543950.900   118469165.645          50.000                                                  
G 6  22917500.980   120432225.672          50.000    22917503.860    89933154.441          50.000  
G12  20078427.820   105512859.223          50.000                                                  
G19  24542166.280   128969928.496          50.000                                                  
G24  23569740.500   123859745.973          50.000    23569744.160    92492659.066          50.000  
G25  21025704.120   110490762.789          50.000    21025706.180    82509335.664          50.000  
G29  22999739.940   120864429.820          50.000                                                  
E 2  24677938.680   129683434.918          50.000    24677942.340    96841516.754          50.000  
E15  25029537.680   131531063.773          50.000    25029543.680    98221233.102          50.000  
E27  26477583.600   139140607.191          50.000    26477588.440   103903685.691          50.000  
E30  22259052.400   116972083.238          50.000    22259056.120    87349270.477          50.000  
E36  25658434.880   134835944.297          50.000    25658440.240   100689164.375          50.000  
> 2020  6  4 20 58  0.0000000  0 13       0.000000000000
G 2  21248673.000   111662551.578          50.000                                                  
G 5  22543415.780   118466353.578          50.000                                                  
G 6  22918081.840   120435278.090          50.000    22918084.720    89935433.844          50.000  
G12  20078392.320   105512672.633          50.000                                                  
G19  24542699.820   128972732.223          50.000                                                  
G24  23570329.340   123862840.340          50.000    23570333.000    92494969.797          50.000  
G25  21025326.160   110488776.531          50.000    21025328.200    82507852.418          50.000  
G29  22999320.720   120862226.832          50.000                                                  
E 2  24678365.980   129685680.406          50.000    24678369.640    96843193.578          50.000  
E15  25029189.780   131529235.598          50.000    25029195.780    98219867.906          50.000  
E27  26477096.880   139138049.535          50.000    26477101.740   103901775.754          50.000  
E30  22258991.900   116971765.293          50.000    22258995.620    87349033.055          50.000  
E36  25658871.240   134838237.402          50.000    25658876.600   100690876.758          50.000  
> 2020  6  4 20 58  1.0000000  0 13       0.000000000000
G 2  21248960.340   111664061.570          50.000                                                  
G 5  22542880.740   118463541.836          50.000                                                  
G 6  22918662.720   120438330.699          50.000    22918665.600    89937713.387          50.000  
G12  20078356.920   105512486.586          50.000                                                  
G19  24543233.360   128975535.949          50.000                                                  
G24  23570918.200   123865934.797          50.000    23570921.840    92497280.590          50.000  
G25  21024948.260   110486790.691          50.000    21024950.320    82506369.488          50.000  
G29  22998901.540   120860023.969          50.000                                                  
E 2  24678793.340   129687926.191          50.000    24678797.000    96844870.629          50.000  
E15  25028841.940   131527407.656          50.000    25028847.940    98218502.887          50.000  
E27  26476610.220   139135492.027          50.000    26476615.060   103899865.926          50.000  
E30  22258931.460   116971447.766          50.000    22258935.180    87348795.938          50.000  
E36  25659307.620   134840530.551          50.000    25659312.980   100692589.172          50.000  
> 2020  6  4 20 58  2.0000000  0 13       0.000000000000
G 2  21249247.760   111665571.918          50.000                                                  
G 5  22542345.740   118460730.414          50.000                                                  
G 6  22919243.660   120441383.527          50.000    22919246.540    89939993.098          50.000  
G12  20078321.620   105512301.078          50.000                                                  
G19  24543766.880   128978339.684          50.000                                                  
G24  23571507.080   123869029.375          50.000    23571510.720    92499591.473          50.000  
G25  21024570.440   110484805.293          50.000    21024572.500    82504886.887          50.000  
G29  22998482.360   120857821.230          50.000                                                  
E 2  24679220.760   129690172.293          50.000    24679224.420    96846547.910          50.000  
E15  25028494.140   131525579.965          50.000    25028500.140    98217138.051          50.000  
E27  26476123.560   139132934.672          50.000    26476128.420   103897956.215          50.000  
E30  22258871.120   116971130.660          50.000    22258874.840    87348559.137          50.000  
E36  25659744.000   134842823.758          50.000    25659749.360   100694301.633          50.000  
> 2020  6  4 20 58  3.0000000  0 13       0.000000000000
G 2  21249535.240   111667082.625          50.000                                                  
G 5  22541810.800   118457919.305          50.000                                                  
G 6  22919824.640   120444436.547          50.000    22919827.500    89942272.949          50.000  
G12  20078286.420   105512116.121          50.000                                                  
G19  24544300.420   128981143.426          50.000                                                  
G24  23572095.980   123872124.059          50.000    23572099.620    92501902.438          50.000  
G25  21024192.720   110482820.305          50.000    21024194.780    82503404.590          50.000  
G29  22998063.220   120855618.605          50.000                                                  
E 2  24679648.240   129692418.699          50.000    24679651.900    96848225.422          50.000  
E15  25028146.380   131523752.520          50.000    25028152.380    98215773.402          50.000  
E27  26475636.940   139130377.500          50.000    26475641.800   103896046.637          50.000  
E30  22258810.860   116970813.977          50.000    22258814.580    87348322.656          50.000  
E36  25660180.380   134845117.008          50.000    25660185.760   100696014.121          50.000  
> 2020  6  4 20 58  4.0000000  0 13       0.000000000000
G 2  21249822.780   111668593.684          50.000                                                  
G 5  22541275.920   118455108.531          50.000                                                  
G 6  22920405.640   120447489.777          50.000    22920408.520    89944552.957          50.000  
G12  20078251.320   105511931.719          50.000                                                  
G19  24544833.960   128983947.184          50.000                                                  
G24  23572684.900   123875218.844          50.000    23572688.540    92504213.477          50.000  
G25  21023815.060   110480835.734          50.000    21023817.120    82501922.605          50.000  
G29  22997644.100   120853416.098          50.000                                                  
E 2  24680075.780   129694665.402          50.000    24680079.440    96849903.156          50.000  
E15  25027798.680   131521925.316          50.000    25027804.680    98214408.930          50.000  
E27  26475150.360   139127820.469          50.000    26475155.200   103894137.168          50.000  
E30  22258750.680   116970497.734          50.000    22258754.400    87348086.496          50.000  
E36  25660616.780   134847410.320          50.000    25660622.160   100697726.660          50.000  
> 2020  6  4 20 58  5.0000000  0 13       0.000000000000
G 2  21250110.400   111670105.109          50.000                                                  
G 5  22540741.120   118452298.066          50.000                                                  
G 6  22920986.700   120450543.215          50.000    22920989.580    89946833.121          50.000  
G12  20078216.340   105511747.852          50.000                                                  
G19  24545367.500   128986750.949          50.000                                                  
G24  23573273.840   123878313.746          50.000    23573277.480    92506524.602          50.000  
G25  21023437.500   110478851.590          50.000    21023439.560    82500440.938          50.000  
G29  22997225.000   120851213.730          50.000                                                  
E 2  24680503.360   129696912.422          50.000    24680507.040    96851581.121          50.000  
E15  25027451.020   131520098.352          50.000    25027457.020    98213044.641          50.000  
E27  26474663.800   139125263.605          50.000    26474668.660   103892227.824          50.000  
E30  22258690.580   116970181.902          50.000    22258694.300    87347850.648          50.000  
E36  25661053.200   134849703.680          50.000    25661058.580   100699439.234          50.000  
> 2020  6  4 20 58  6.0000000  0 13       0.000000000000
G 2  21250398.080   111671616.883          50.000                                                  
G 5  22540206.360   118449487.934          50.000                                                  
G 6  22921567.780   120453596.840          50.000    22921570.660    89949113.426          50.000  
G12  20078181.460   105511564.520          50.000                                                  
G19  24545901.040   128989554.727          50.000                                                  
G24  23573862.800   123881408.762          50.000    23573866.460    92508835.816          50.000  
G25  21023060.000   110476867.859          50.000    21023062.060    82498959.582          50.000  
G29  22996805.920   120849011.461          50.000                                                  
E 2  24680931.020   129699159.746          50.000    24680934.680    96853259.316          50.000  
E15  25027103.400   131518271.645          50.000    25027109.400    98211680.543          50.000  
E27  26474177.280   139122706.902          50.000    26474182.120   103890318.598          50.000  
E30  22258630.560   116969866.496          50.000    22258634.280    87347615.121          50.000  
E36  25661489.620   134851997.094          50.000    25661495.000   100701151.848          50.000  
> 2020  6  4 20 58  7.0000000  0 13       0.000000000000
G 2  21250685.820   111673129.020          50.000                                                  
G 5  22539671.660   118446678.109          50.000                                                  
G 6  22922148.900   120456650.680          50.000    22922151.780    89951393.887          50.000  
G12  20078146.680   105511381.738          50.000                                                  
G19  24546434.580   128992358.516          50.000                                                  
G24  23574451.780   123884503.895          50.000    23574455.440    92511147.113          50.000  
G25  21022682.600   110474884.551          50.000    21022684.660    82497478.539          50.000  
G29  22996386.880   120846809.328          50.000                                                  
E 2  24681358.720   129701407.363          50.000    24681362.400    96854937.730          50.000  
E15  25026755.840   131516445.172          50.000    25026761.840    98210316.617          50.000  
E27  26473690.780   139120150.363          50.000    26473695.640   103888409.496          50.000  
E30  22258570.620   116969551.512          50.000    22258574.340    87347379.902          50.000  
E36  25661926.060   134854290.555          50.000    25661931.420   100702864.496          50.000  
> 2020  6  4 20 58  8.0000000  0 13       0.000000000000
G 2  21250973.640   111674641.504          50.000                                                  
G 5  22539137.040   118443868.617          50.000                                                  
G 6  22922730.080   120459704.715          50.000    22922732.960    89953674.500          50.000  
G12  20078112.000   105511199.496          50.000                                                  
G19  24546968.120   128995162.301          50.000                                                  
G24  23575040.780   123887599.133          50.000    23575044.440    92513458.492          50.000  
G25  21022305.260   110472901.684          50.000    21022307.320    82495997.828          50.000  
G29  22995967.840   120844607.309          50.000                                                  
E 2  24681786.500   129703655.301          50.000    24681790.160    96856616.387          50.000  
E15  25026408.320   131514618.941          50.000    25026414.320    98208952.875          50.000  
E27  26473204.320   139117593.992          50.000    26473209.180   103886500.520          50.000  
E30  22258510.760   116969236.957          50.000    22258514.480    87347145.008          50.000  
E36  25662362.500   134856584.074          50.000    25662367.860   100704577.188          50.000  
> 2020  6  4 20 58  9.0000000  0 13       0.000000000000
G 2  21251261.520   111676154.348          50.000                                                  
G 5  22538602.480   118441059.453          50.000                                                  
G 6  22923311.280   120462758.957          50.000    22923314.160    89955955.262          50.000  
G12  20078077.420   105511017.801          50.000                                                  
G19  24547501.680   128997966.109          50.000                                                  
G24  23575629.820   123890694.477          50.000    23575633.460    92515769.949          50.000  
G25  21021928.020   110470919.227          50.000    21021930.080    82494517.422          50.000  
G29  22995548.840   120842405.418          50.000                                                  
E 2  24682214.320   129705903.539          50.000    24682217.980    96858295.266          50.000  
E15  25026060.840   131512792.957          50.000    25026066.840    98207589.316          50.000  
E27  26472717.880   139115037.762          50.000    26472722.740   103884591.645          50.000  
E30  22258450.980   116968922.820          50.000    22258454.700    87346910.426          50.000  
E36  25662798.940   134858877.641          50.000    25662804.320   100706289.914          50.000  
> 2020  6  4 20 58 10.0000000  0 13       0.000000000000
G 2  21251549.480   111677667.535          50.000                                                  
G 5  22538067.960   118438250.609          50.000                                                  
G 6  22923892.520   120465813.406          50.000    22923895.400    89958236.180          50.000  
G12  20078042.940   105510836.652          50.000                                                  
G19  24548035.220   129000769.922          50.000                                                  
G24  23576218.860   123893789.934          50.000    23576222.520    92518081.492          50.000  
G25  21021550.840   110468937.191          50.000    21021552.900    82493037.332          50.000  
G29  22995129.840   120840203.645          50.000                                                  
E 2  24682642.200   129708152.086          50.000    24682645.880    96859974.371          50.000  
E15  25025713.420   131510967.223          50.000    25025719.420    98206225.945          50.000  
E27  26472231.480   139112481.707          50.000    26472236.340   103882682.906          50.000  
E30  22258391.300   116968609.117          50.000    22258395.020    87346676.168          50.000  
E36  25663235.420   134861171.258          50.000    25663240.780   100708002.680          50.000  
> 2020  6  4 20 58 11.0000000  0 13       0.000000000000
G 2  21251837.500   111679181.094          50.000                                                  
G 5  22537533.520   118435442.094          50.000                                                  
G 6  22924473.800   120468868.047          50.000    22924476.680    89960517.242          50.000  
G12  20078008.580   105510656.039          50.000                                                  
G19  24548568.780   129003573.738          50.000                                                  
G24  23576807.920   123896885.496          50.000    23576811.580    92520393.109          50.000  
G25  21021173.760   110466955.570          50.000    21021175.820    82491557.551          50.000  
G29  22994710.880   120838001.992          50.000                                                  
E 2  24683070.140   129710400.930          50.000    24683073.820    96861653.707          50.000  
E15  25025366.040   131509141.730          50.000    25025372.040    98204862.754          50.000  
E27  26471745.120   139109925.816          50.000    26471749.960   103880774.285          50.000  
E30  22258331.680   116968295.832          50.000    22258335.400    87346442.219          50.000  
E36  25663671.880   134863464.918          50.000    25663677.260   100709715.480          50.000  
> 2020  6  4 20 58 12.0000000  0 13       0.000000000000
G 2  21252125.580   111680695.012          50.000                                                  
G 5  22536999.140   118432633.891          50.000                                                  
G 6  22925055.120   120471922.902          50.000    22925058.000    89962798.465          50.000  
G12  20077974.300   105510475.969          50.000                                                  
G19  24549102.320   129006377.570          50.000                                                  
G24  23577397.020   123899981.160          50.000    23577400.680    92522704.809          50.000  
G25  21020796.760   110464974.391          50.000    21020798.800    82490078.098          50.000  
G29  22994291.940   120835800.461          50.000                                                  
E 2  24683498.140   129712650.094          50.000    24683501.820    96863333.277          50.000  
E15  25025018.700   131507316.480          50.000    25025024.700    98203499.742          50.000  
E27  26471258.780   139107370.078          50.000    26471263.620   103878865.781          50.000  
E30  22258272.140   116967982.969          50.000    22258275.860    87346208.590          50.000  
E36  25664108.360   134865758.648          50.000    25664113.740   100711428.328          50.000  
> 2020  6  4 20 58 13.0000000  0 13       0.000000000000
G 2  21252413.740   111682209.262          50.000                                                  
G 5  22536464.820   118429826.004          50.000                                                  
G 6  22925636.480   120474977.945          50.000    22925639.360    89965079.824          50.000  
G12  20077940.140   105510296.449          50.000                                                  
G19  24549635.880   129009181.414          50.000                                                  
G24  23577986.120   123903076.941          50.000    23577989.780    92525016.586          50.000  
G25  21020419.820   110462993.617          50.000    21020421.880    82488598.949          50.000  
G29  22993873.040   120833599.043          50.000                                                  
E 2  24683926.200   129714899.551          50.000    24683929.880    96865013.063          50.000  
E15  25024671.420   131505491.477          50.000    25024677.420    98202136.918          50.000  
E27  26470772.460   139104814.500          50.000    26470777.320   103876957.398          50.000  
E30  22258212.680   116967670.520          50.000    22258216.400    87345975.270          50.000  
E36  25664544.860   134868052.418          50.000    25664550.220   100713141.207          50.000  
> 2020  6  4 20 58 14.0000000  0 13       0.000000000000
G 2  21252701.960   111683723.871          50.000                                                  
G 5  22535930.560   118427018.457          50.000                                                  
G 6  22926217.860   120478033.195          50.000    22926220.740    89967361.344          50.000  
G12  20077906.080   105510117.469          50.000                                                  
G19  24550169.440   129011985.266          50.000                                                  
G24  23578575.240   123906172.828          50.000    23578578.900    92527328.453          50.000  
G25  21020042.980   110461013.270          50.000    21020045.040    82487120.117          50.000  
G29  22993454.140   120831397.750          50.000                                                  
E 2  24684354.320   129717149.316          50.000    24684358.000    96866693.082          50.000  
E15  25024324.180   131503666.707          50.000    25024330.180    98200774.266          50.000  
E27  26470286.180   139102259.082          50.000    26470291.040   103875049.133          50.000  
E30  22258153.300   116967358.504          50.000    22258157.020    87345742.270          50.000  
E36  25664981.360   134870346.238          50.000    25664986.720   100714854.125          50.000  
> 2020  6  4 20 58 15.0000000  0 13       0.000000000000
G 2  21252990.240   111685238.832          50.000                                                  
G 5  22535396.360   118424211.230          50.000                                                  
G 6  22926799.300   120481088.652          50.000    22926802.180    89969643.016          50.000  
G12  20077872.140   105509939.039          50.000                                                  
G19  24550703.000   129014789.141          50.000                                                  
G24  23579164.400   123909268.832          50.000    23579168.060    92529640.402          50.000  
G25  21019666.200   110459033.340          50.000    21019668.260    82485641.602          50.000  
G29  22993035.280   120829196.586          50.000                                                  
E 2  24684782.500   129719399.387          50.000    24684786.160    96868373.328          50.000  
E15  25023976.980   131501842.188          50.000    25023982.980    98199411.797          50.000  
E27  26469799.940   139099703.828          50.000    26469804.780   103873140.988          50.000  
E30  22258094.020   116967046.918          50.000    22258097.740    87345509.590          50.000  
E36  25665417.860   134872640.117          50.000    25665423.240   100716567.086          50.000  
> 2020  6  4 20 58 16.0000000  0 13       0.000000000000
G 2  21253278.600   111686754.152          50.000                                                  
G 5  22534862.220   118421404.328          50.000                                                  
G 6  22927380.780   120484144.309          50.000    22927383.660    89971924.836          50.000  
G12  20077838.280   105509761.156          50.000                                                  
G19  24551236.560   129017593.020          50.000                                                  
G24  23579753.580   123912364.945          50.000    23579757.240    92531952.430          50.000  
G25  21019289.520   110457053.844          50.000    21019291.580    82484163.406          50.000  
G29  22992616.420   120826995.531          50.000                                                  
E 2  24685210.740   129721649.777          50.000    24685214.400    96870053.813          50.000  
E15  25023629.840   131500017.914          50.000    25023635.840    98198049.516          50.000  
E27  26469313.720   139097148.734          50.000    26469318.560   103871232.965          50.000  
E30  22258034.800   116966735.754          50.000    22258038.520    87345277.227          50.000  
