     3.03           OBSERVATION DATA    M: Mixed            RINEX VERSION / TYPE
sbp2rinex v2.2 (RTKL                    20210504 171528 UTC PGM / RUN BY / DATE 
log: 2020-08-13-US-MTV-1.sbp                                COMMENT             
format: Swift Navigation SBP, option: CONVBASE,EPHALL,OBSALLCOMMENT             
                                                            MARKER NAME         
                                                            MARKER NUMBER       
                                                            MARKER TYPE         
                                                            OBSERVER / AGENCY   
                                                            REC # / TYPE / VERS 
                                                            ANT # / TYPE        
 -2724472.1928 -4348251.9588  3775531.3785                  APPROX POSITION XYZ 
        0.0000        0.0000        0.0000                  ANTENNA: DELTA H/E/N
G    6 C1C L1C S1C C5I L5I S5I                              SYS / # / OBS TYPES 
E    6 C1B L1B S1B C5I L5I S5I                              SYS / # / OBS TYPES 
  2020     8    13    21    40   30.0000000     GPS         TIME OF FIRST OBS   
  2020     8    13    22    21   12.0000000     GPS         TIME OF LAST OBS    
G                                                           SYS / PHASE SHIFT   
E                                                           SYS / PHASE SHIFT   
  0                                                         GLONASS SLOT / FRQ #
 C1C    0.000 C1P    0.000 C2C    0.000 C2P    0.000        GLONASS COD/PHS/BIS 
                                                            END OF HEADER       
> 2020  8 13 21 40 30.0000000  0 15       0.000000000000
G10  21149795.660   111142873.984          50.000    21149795.680    82996293.652          50.000  
G15  22612779.140   118830765.125          50.000                                                  
G16  23665396.020   124362479.973          50.000                                                  
G20  20230667.080   106312871.297          50.000                                                  
G21  22668799.720   119125358.242          50.000                                                  
G26  24396869.480   128206290.801          50.000    24396873.500    95738436.980          50.000  
G27  22351518.940   117457971.551          50.000    22351520.340    87712113.508          50.000  
G29  24216581.600   127258948.207          50.000                                                  
G32  24074317.220   126511306.301          50.000    24074319.980    94472708.629          50.000  
E 3  25518396.440   134100049.500          50.000    25518401.300   100139639.863          50.000  
E 7  26118295.000   137252514.586          50.000    26118301.840   102493747.414          50.000  
E 8  21704678.340   114058854.910          50.000    21704681.260    85173817.566          50.000  
E13  23504007.840   123514376.191          50.000    23504011.520    92234755.355          50.000  
E15  24338524.080   127899762.621          50.000    24338529.760    95509552.227          50.000  
E26  26104791.240   137181544.098          50.000    26104798.080   102440749.047          50.000  
> 2020  8 13 21 40 31.0000000  0 15       0.000000000000
G10  21149565.560   111141664.824          50.000    21149565.580    82995390.707          50.000  
G15  22613254.240   118833261.750          50.000                                                  
G16  23665692.240   124364036.656          50.000                                                  
G20  20230763.920   106313380.234          50.000                                                  
G21  22668433.360   119123432.957          50.000                                                  
G26  24397358.480   128208860.527          50.000    24397362.520    95740355.930          50.000  
G27  22351059.400   117455556.617          50.000    22351060.800    87710310.152          50.000  
G29  24217293.080   127262686.953          50.000                                                  
G32  24073623.320   126507659.832          50.000    24073626.080    94469985.617          50.000  
E 3  25518753.100   134101923.707          50.000    25518757.960   100141039.434          50.000  
E 7  26117753.040   137249666.566          50.000    26117759.880   102491620.648          50.000  
E 8  21704525.840   114058053.453          50.000    21704528.740    85173219.074          50.000  
E13  23503830.820   123513445.988          50.000    23503834.500    92234060.723          50.000  
E15  24338768.080   127901044.785          50.000    24338773.740    95510509.688          50.000  
E26  26104346.980   137179209.531          50.000    26104353.840   102439005.703          50.000  
> 2020  8 13 21 40 32.0000000  0 15       0.000000000000
G10  21149335.540   111140456.031          50.000    21149335.540    82994488.039          50.000  
G15  22613729.420   118835758.887          50.000                                                  
G16  23665988.560   124365593.813          50.000                                                  
G20  20230860.840   106313889.516          50.000                                                  
G21  22668067.000   119121507.742          50.000                                                  
G26  24397847.500   128211430.336          50.000    24397851.520    95742274.941          50.000  
G27  22350599.940   117453142.145          50.000    22350601.340    87708507.137          50.000  
G29  24218004.560   127266425.832          50.000                                                  
G32  24072929.420   126504013.426          50.000    24072932.180    94467262.656          50.000  
E 3  25519109.800   134103798.227          50.000    25519114.660   100142439.238          50.000  
E 7  26117211.120   137246818.707          50.000    26117217.960   102489494.000          50.000  
E 8  21704373.400   114057252.434          50.000    21704376.320    85172620.910          50.000  
E13  23503653.840   123512515.945          50.000    23503657.520    92233366.211          50.000  
E15  24339012.100   127902327.160          50.000    24339017.760    95511467.305          50.000  
E26  26103902.720   137176874.941          50.000    26103909.580   102437262.344          50.000  
> 2020  8 13 21 40 33.0000000  0 15       0.000000000000
G10  21149105.580   111139247.617          50.000    21149105.600    82993585.652          50.000  
G15  22614204.720   118838256.539          50.000                                                  
G16  23666284.960   124367151.438          50.000                                                  
G20  20230957.820   106314399.137          50.000                                                  
G21  22667700.640   119119582.586          50.000                                                  
G26  24398336.520   128214000.211          50.000    24398340.560    95744194.000          50.000  
G27  22350140.560   117450728.117          50.000    22350141.960    87706704.457          50.000  
G29  24218716.060   127270164.852          50.000                                                  
G32  24072235.540   126500367.078          50.000    24072238.300    94464539.734          50.000  
E 3  25519466.580   134105673.066          50.000    25519471.440   100143839.281          50.000  
E 7  26116669.220   137243971.035          50.000    26116676.060   102487367.496          50.000  
E 8  21704221.060   114056451.859          50.000    21704223.960    85172023.082          50.000  
E13  23503476.900   123511586.105          50.000    23503480.580    92232671.852          50.000  
E15  24339256.180   127903609.762          50.000    24339261.840    95512425.090          50.000  
E26  26103458.460   137174540.328          50.000    26103465.320   102435518.965          50.000  
> 2020  8 13 21 40 34.0000000  0 15       0.000000000000
G10  21148875.700   111138039.574          50.000    21148875.720    82992683.543          50.000  
G15  22614680.100   118840754.699          50.000                                                  
G16  23666581.460   124368709.531          50.000                                                  
G20  20231054.860   106314909.117          50.000                                                  
G21  22667334.320   119117657.469          50.000                                                  
G26  24398825.580   128216570.152          50.000    24398829.600    95746113.113          50.000  
G27  22349681.280   117448314.555          50.000    22349682.680    87704902.121          50.000  
G29  24219427.620   127273904.023          50.000                                                  
G32  24071541.680   126496720.766          50.000    24071544.440    94461816.844          50.000  
E 3  25519823.400   134107548.227          50.000    25519828.280   100145239.563          50.000  
E 7  26116127.360   137241123.539          50.000    26116134.200   102485241.117          50.000  
E 8  21704068.800   114055651.723          50.000    21704071.700    85171425.578          50.000  
E13  23503300.000   123510656.441          50.000    23503303.680    92231977.621          50.000  
E15  24339500.280   127904892.602          50.000    24339505.960    95513383.055          50.000  
E26  26103014.200   137172205.691          50.000    26103021.040   102433775.570          50.000  
> 2020  8 13 21 40 35.0000000  0 15       0.000000000000
G10  21148645.880   111136831.895          50.000    21148645.900    82991781.707          50.000  
G15  22615155.580   118843253.367          50.000                                                  
G16  23666878.040   124370268.094          50.000                                                  
G20  20231151.980   106315419.445          50.000                                                  
G21  22666967.980   119115732.422          50.000                                                  
G26  24399314.640   128219140.164          50.000    24399318.660    95748032.277          50.000  
G27  22349222.080   117445901.438          50.000    22349223.480    87703100.117          50.000  
G29  24220139.180   127277643.320          50.000                                                  
G32  24070847.820   126493074.512          50.000    24070850.580    94459093.992          50.000  
E 3  25520180.300   134109423.695          50.000    25520185.160   100146640.074          50.000  
E 7  26115585.520   137238276.211          50.000    26115592.360   102483114.871          50.000  
E 8  21703916.620   114054852.027          50.000    21703919.520    85170828.402          50.000  
E13  23503123.120   123509726.961          50.000    23503126.800    92231283.527          50.000  
E15  24339744.440   127906175.676          50.000    24339750.120    95514341.195          50.000  
E26  26102569.920   137169871.008          50.000    26102576.760   102432032.137          50.000  
> 2020  8 13 21 40 36.0000000  0 15       0.000000000000
G10  21148416.140   111135624.602          50.000    21148416.160    82990880.156          50.000  
G15  22615631.160   118845752.555          50.000                                                  
G16  23667174.720   124371827.121          50.000                                                  
G20  20231249.160   106315930.117          50.000                                                  
G21  22666601.680   119113807.430          50.000                                                  
G26  24399803.700   128221710.277          50.000    24399807.740    95749951.516          50.000  
G27  22348762.960   117443488.773          50.000    22348764.360    87701298.453          50.000  
G29  24220850.780   127281382.773          50.000                                                  
G32  24070153.960   126489428.320          50.000    24070156.720    94456371.188          50.000  
E 3  25520537.240   134111299.492          50.000    25520542.120   100148040.828          50.000  
E 7  26115043.740   137235429.070          50.000    26115050.580   102480988.762          50.000  
E 8  21703764.520   114054052.781          50.000    21703767.440    85170231.563          50.000  
E13  23502946.280   123508797.656          50.000    23502949.960    92230589.570          50.000  
E15  24339988.660   127907458.984          50.000    24339994.320    95515299.512          50.000  
E26  26102125.640   137167536.309          50.000    26102132.480   102430288.695          50.000  
> 2020  8 13 21 40 37.0000000  0 15       0.000000000000
G10  21148186.480   111134417.680          50.000    21148186.480    82989978.883          50.000  
G15  22616106.840   118848252.254          50.000                                                  
G16  23667471.480   124373386.625          50.000                                                  
G20  20231346.400   106316441.133          50.000                                                  
G21  22666235.380   119111882.504          50.000                                                  
G26  24400292.800   128224280.453          50.000    24400296.840    95751870.801          50.000  
G27  22348303.920   117441076.559          50.000    22348305.340    87699497.125          50.000  
G29  24221562.400   127285122.367          50.000                                                  
G32  24069460.120   126485782.184          50.000    24069462.880    94453648.426          50.000  
E 3  25520894.260   134113175.609          50.000    25520899.120   100149441.824          50.000  
E 7  26114501.980   137232582.102          50.000    26114508.820   102478862.781          50.000  
E 8  21703612.520   114053253.973          50.000    21703615.420    85169635.051          50.000  
E13  23502769.480   123507868.551          50.000    23502773.160    92229895.754          50.000  
E15  24340232.900   127908742.516          50.000    24340238.580    95516257.988          50.000  
E26  26101681.360   137165201.582          50.000    26101688.200   102428545.230          50.000  
> 2020  8 13 21 40 38.0000000  0 15       0.000000000000
G10  21147956.880   111133211.125          50.000    21147956.880    82989077.883          50.000  
G15  22616582.620   118850752.465          50.000                                                  
G16  23667768.340   124374946.594          50.000                                                  
G20  20231443.700   106316952.492          50.000                                                  
G21  22665869.080   119109957.629          50.000                                                  
G26  24400781.900   128226850.707          50.000    24400785.940    95753790.148          50.000  
G27  22347844.980   117438664.797          50.000    22347846.380    87697696.137          50.000  
G29  24222274.040   127288862.098          50.000                                                  
G32  24068766.300   126482136.090          50.000    24068769.060    94450925.695          50.000  
E 3  25521251.340   134115052.035          50.000    25521256.200   100150843.051          50.000  
E 7  26113960.240   137229735.305          50.000    26113967.080   102476736.926          50.000  
E 8  21703460.600   114052455.617          50.000    21703463.500    85169038.875          50.000  
E13  23502592.700   123506939.625          50.000    23502596.380    92229202.074          50.000  
E15  24340477.200   127910026.273          50.000    24340482.860    95517216.641          50.000  
E26  26101237.060   137162866.820          50.000    26101243.920   102426801.742          50.000  
> 2020  8 13 21 40 39.0000000  0 15       0.000000000000
G10  21147727.340   111132004.953          50.000    21147727.360    82988177.172          50.000  
G15  22617058.480   118853253.180          50.000                                                  
G16  23668065.280   124376507.020          50.000                                                  
G20  20231541.080   106317464.199          50.000                                                  
G21  22665502.800   119108032.805          50.000                                                  
G26  24401271.020   128229421.031          50.000    24401275.060    95755709.543          50.000  
G27  22347386.120   117436253.492          50.000    22347387.540    87695895.488          50.000  
G29  24222985.720   127292601.992          50.000                                                  
G32  24068072.480   126478490.059          50.000    24068075.240    94448203.012          50.000  
E 3  25521608.460   134116928.785          50.000    25521613.340   100152244.523          50.000  
E 7  26113418.540   137226888.680          50.000    26113425.380   102474611.199          50.000  
E 8  21703308.760   114051657.699          50.000    21703311.660    85168443.027          50.000  
E13  23502415.980   123506010.883          50.000    23502419.660    92228508.535          50.000  
E15  24340721.540   127911310.285          50.000    24340727.200    95518175.480          50.000  
E26  26100792.760   137160532.039          50.000    26100799.620   102425058.238          50.000  
> 2020  8 13 21 40 40.0000000  0 15       0.000000000000
G10  21147497.880   111130799.145          50.000    21147497.900    82987276.730          50.000  
G15  22617534.460   118855754.410          50.000                                                  
G16  23668362.320   124378067.930          50.000                                                  
G20  20231638.520   106317976.246          50.000                                                  
G21  22665136.520   119106108.051          50.000                                                  
G26  24401760.140   128231991.426          50.000    24401764.180    95757628.992          50.000  
G27  22346927.360   117433842.652          50.000    22346928.760    87694095.188          50.000  
G29  24223697.420   127296342.012          50.000                                                  
G32  24067378.680   126474844.090          50.000    24067381.440    94445480.371          50.000  
E 3  25521965.660   134118805.855          50.000    25521970.520   100153646.230          50.000  
E 7  26112876.880   137224042.234          50.000    26112883.720   102472485.609          50.000  
E 8  21703157.000   114050860.223          50.000    21703159.920    85167847.508          50.000  
E13  23502239.280   123505082.320          50.000    23502242.960    92227815.129          50.000  
E15  24340965.920   127912594.512          50.000    24340971.580    95519134.477          50.000  
E26  26100348.460   137158197.223          50.000    26100355.320   102423314.707          50.000  
> 2020  8 13 21 40 41.0000000  0 15       0.000000000000
G10  21147268.500   111129593.695          50.000    21147268.520    82986376.559          50.000  
G15  22618010.520   118858256.156          50.000                                                  
G16  23668659.420   124379629.293          50.000                                                  
G20  20231736.020   106318488.641          50.000                                                  
G21  22664770.260   119104183.348          50.000                                                  
G26  24402249.300   128234561.898          50.000    24402253.320    95759548.500          50.000  
G27  22346468.680   117431432.258          50.000    22346470.080    87692295.215          50.000  
G29  24224409.160   127300082.176          50.000                                                  
G32  24066684.880   126471198.156          50.000    24066687.640    94442757.762          50.000  
E 3  25522322.920   134120683.230          50.000    25522327.780   100155048.164          50.000  
E 7  26112335.260   137221195.973          50.000    26112342.100   102470360.156          50.000  
E 8  21703005.340   114050063.188          50.000    21703008.240    85167252.320          50.000  
E13  23502062.600   123504153.941          50.000    23502066.280    92227121.859          50.000  
E15  24341210.340   127913878.977          50.000    24341216.000    95520093.656          50.000  
E26  26099904.160   137155862.391          50.000    26099911.000   102421571.164          50.000  
> 2020  8 13 21 40 42.0000000  0 15       0.000000000000
G10  21147039.180   111128388.645          50.000    21147039.200    82985476.684          50.000  
G15  22618486.680   118860758.406          50.000                                                  
G16  23668956.640   124381191.129          50.000                                                  
G20  20231833.600   106319001.383          50.000                                                  
G21  22664404.020   119102258.703          50.000                                                  
G26  24402738.460   128237132.449          50.000    24402742.500    95761468.063          50.000  
G27  22346010.080   117429022.305          50.000    22346011.480    87690495.578          50.000  
G29  24225120.920   127303822.477          50.000                                                  
G32  24065991.080   126467552.281          50.000    24065993.840    94440035.195          50.000  
E 3  25522680.220   134122560.934          50.000    25522685.100   100156450.348          50.000  
E 7  26111793.660   137218349.875          50.000    26111800.500   102468234.824          50.000  
E 8  21702853.740   114049266.598          50.000    21702856.660    85166657.465          50.000  
E13  23501885.980   123503225.750          50.000    23501889.660    92226428.730          50.000  
E15  24341454.800   127915163.664          50.000    24341460.480    95521053.004          50.000  
E26  26099459.840   137153527.516          50.000    26099466.700   102419827.594          50.000  
> 2020  8 13 21 40 43.0000000  0 15       0.000000000000
G10  21146809.940   111127183.941          50.000    21146809.960    82984577.070          50.000  
G15  22618962.940   118863261.164          50.000                                                  
G16  23669253.940   124382753.434          50.000                                                  
G20  20231931.220   106319514.465          50.000                                                  
G21  22664037.780   119100334.109          50.000                                                  
G26  24403227.620   128239703.074          50.000    24403231.660    95763387.688          50.000  
G27  22345551.560   117426612.816          50.000    22345552.980    87688696.285          50.000  
G29  24225832.700   127307562.918          50.000                                                  
G32  24065297.300   126463906.461          50.000    24065300.060    94437312.668          50.000  
E 3  25523037.600   134124438.945          50.000    25523042.480   100157852.758          50.000  
E 7  26111252.100   137215503.953          50.000    26111258.940   102466109.625          50.000  
E 8  21702702.240   114048470.445          50.000    21702705.160    85166062.938          50.000  
E13  23501709.380   123502297.738          50.000    23501713.060    92225735.734          50.000  
E15  24341699.320   127916448.590          50.000    24341705.000    95522012.523          50.000  
E26  26099015.540   137151192.625          50.000    26099022.380   102418084.008          50.000  
> 2020  8 13 21 40 44.0000000  0 15       0.000000000000
G10  21146580.760   111125979.621          50.000    21146580.780    82983677.738          50.000  
G15  22619439.300   118865764.438          50.000                                                  
G16  23669551.320   124384316.203          50.000                                                  
G20  20232028.940   106320027.902          50.000                                                  
G21  22663671.560   119098409.582          50.000                                                  
G26  24403716.820   128242273.762          50.000    24403720.860    95765307.355          50.000  
G27  22345093.140   117424203.781          50.000    22345094.540    87686897.332          50.000  
G29  24226544.500   127311303.500          50.000                                                  
G32  24064603.540   126460260.703          50.000    24064606.300    94434590.188          50.000  
E 3  25523395.040   134126317.273          50.000    25523399.900   100159255.402          50.000  
E 7  26110710.580   137212658.203          50.000    26110717.400   102463984.555          50.000  
E 8  21702550.820   114047674.738          50.000    21702553.740    85165468.742          50.000  
E13  23501532.820   123501369.910          50.000    23501536.500    92225042.875          50.000  
E15  24341943.880   127917733.738          50.000    24341949.540    95522972.215          50.000  
E26  26098571.200   137148857.699          50.000    26098578.060   102416340.395          50.000  
> 2020  8 13 21 40 45.0000000  0 15       0.000000000000
G10  21146351.660   111124775.668          50.000    21146351.660    82982778.684          50.000  
G15  22619915.760   118868268.223          50.000                                                  
G16  23669848.800   124385879.445          50.000                                                  
G20  20232126.700   106320541.684          50.000                                                  
G21  22663305.340   119096485.105          50.000                                                  
G26  24404206.020   128244844.543          50.000    24404210.060    95767227.094          50.000  
G27  22344634.800   117421795.191          50.000    22344636.200    87685098.711          50.000  
G29  24227256.340   127315044.234          50.000                                                  
G32  24063909.780   126456615.000          50.000    24063912.540    94431867.750          50.000  
E 3  25523752.540   134128195.934          50.000    25523757.400   100160658.301          50.000  
E 7  26110169.080   137209812.645          50.000    26110175.920   102461859.625          50.000  
E 8  21702399.500   114046879.484          50.000    21702402.400    85164874.883          50.000  
E13  23501356.300   123500442.270          50.000    23501359.980    92224350.156          50.000  
E15  24342188.480   127919019.133          50.000    24342194.160    95523932.086          50.000  
E26  26098126.880   137146522.746          50.000    26098133.720   102414596.762          50.000  
> 2020  8 13 21 40 46.0000000  0 15       0.000000000000
G10  21146122.620   111123572.098          50.000    21146122.640    82981879.914          50.000  
G15  22620392.300   118870772.531          50.000                                                  
G16  23670146.360   124387443.148          50.000                                                  
G20  20232224.540   106321055.813          50.000                                                  
G21  22662939.140   119094560.695          50.000                                                  
G26  24404695.240   128247415.383          50.000    24404699.280    95769146.875          50.000  
G27  22344176.560   117419387.070          50.000    22344177.960    87683300.438          50.000  
G29  24227968.220   127318785.113          50.000                                                  
G32  24063216.040   126452969.340          50.000    24063218.800    94429145.344          50.000  
E 3  25524110.100   134130074.906          50.000    25524114.960   100162061.426          50.000  
E 7  26109627.620   137206967.246          50.000    26109634.460   102459734.816          50.000  
E 8  21702248.240   114046084.668          50.000    21702251.160    85164281.352          50.000  
E13  23501179.820   123499514.824          50.000    23501183.500    92223657.582          50.000  
E15  24342433.120   127920304.766          50.000    24342438.800    95524892.133          50.000  
E26  26097682.540   137144187.777          50.000    26097689.400   102412853.117          50.000  
> 2020  8 13 21 40 47.0000000  0 15       0.000000000000
G10  21145893.660   111122368.895          50.000    21145893.680    82980981.418          50.000  
G15  22620868.960   118873277.344          50.000                                                  
G16  23670444.020   124389007.320          50.000                                                  
G20  20232322.440   106321570.285          50.000                                                  
G21  22662572.940   119092636.336          50.000                                                  
G26  24405184.460   128249986.301          50.000    24405188.500    95771066.715          50.000  
G27  22343718.380   117416979.395          50.000    22343719.780    87681502.500          50.000  
G29  24228680.100   127322526.121          50.000                                                  
G32  24062522.300   126449323.750          50.000    24062525.060    94426422.988          50.000  
E 3  25524467.700   134131954.195          50.000    25524472.580   100163464.789          50.000  
E 7  26109086.200   137204122.035          50.000    26109093.020   102457610.148          50.000  
E 8  21702097.080   114045290.293          50.000    21702099.980    85163688.148          50.000  
E13  23501003.360   123498587.566          50.000    23501007.040    92222965.152          50.000  
E15  24342677.820   127921590.613          50.000    24342683.480    95525852.344          50.000  
E26  26097238.220   137141852.777          50.000    26097245.060   102411109.449          50.000  
> 2020  8 13 21 40 48.0000000  0 15       0.000000000000
G10  21145664.760   111121166.051          50.000    21145664.780    82980083.191          50.000  
G15  22621345.700   118875782.656          50.000                                                  
G16  23670741.760   124390571.961          50.000                                                  
G20  20232420.400   106322085.113          50.000                                                  
G21  22662206.760   119090712.027          50.000                                                  
G26  24405673.700   128252557.285          50.000    24405677.740    95772986.605          50.000  
G27  22343260.300   117414572.188          50.000    22343261.720    87679704.910          50.000  
G29  24229392.020   127326267.281          50.000                                                  
G32  24061828.580   126445678.199          50.000    24061831.340    94423700.664          50.000  
E 3  25524825.380   134133833.805          50.000    25524830.260   100164868.395          50.000  
E 7  26108544.800   137201276.992          50.000    26108551.640   102455485.605          50.000  
E 8  21701946.000   114044496.367          50.000    21701948.900    85163095.281          50.000  
E13  23500826.940   123497660.465          50.000    23500830.620    92222272.836          50.000  
E15  24342922.560   127922876.691          50.000    24342928.220    95526812.727          50.000  
E26  26096793.860   137139517.734          50.000    26096800.720   102409365.750          50.000  
> 2020  8 13 21 40 49.0000000  0 15       0.000000000000
G10  21145435.940   111119963.594          50.000    21145435.960    82979185.254          50.000  
G15  22621822.540   118878288.496          50.000                                                  
G16  23671039.580   124392137.063          50.000                                                  
G20  20232518.440   106322600.273          50.000                                                  
G21  22661840.580   119088787.777          50.000                                                  
G26  24406162.960   128255128.352          50.000    24406167.000    95774906.555          50.000  
G27  22342802.320   117412165.414          50.000    22342803.720    87677907.645          50.000  
G29  24230103.980   127330008.570          50.000                                                  
G32  24061134.860   126442032.703          50.000    24061137.620    94420978.375          50.000  
E 3  25525183.120   134135713.719          50.000    25525188.000   100166272.227          50.000  
E 7  26108003.440   137198432.129          50.000    26108010.260   102453361.195          50.000  
E 8  21701795.000   114043702.875          50.000    21701797.920    85162502.738          50.000  
E13  23500650.560   123496733.559          50.000    23500654.240    92221580.664          50.000  
E15  24343167.340   127924163.016          50.000    24343173.000    95527773.293          50.000  
E26  26096349.520   137137182.680          50.000    26096356.360   102407622.039          50.000  
> 2020  8 13 21 40 50.0000000  0 15       0.000000000000
G10  21145207.200   111118761.508          50.000    21145207.220    82978287.594          50.000  
G15  22622299.500   118880794.844          50.000                                                  
G16  23671337.500   124393702.641          50.000                                                  
G20  20232616.540   106323115.785          50.000                                                  
G21  22661474.420   119086863.590          50.000                                                  
G26  24406652.240   128257699.492          50.000    24406656.280    95776826.563          50.000  
G27  22342344.400   117409759.109          50.000    22342345.820    87676110.730          50.000  
G29  24230815.940   127333750.020          50.000                                                  
G32  24060441.160   126438387.266          50.000    24060443.920    94418256.137          50.000  
E 3  25525540.920   134137593.961          50.000    25525545.800   100167676.305          50.000  
E 7  26107462.120   137195587.445          50.000    26107468.940   102451236.922          50.000  
E 8  21701644.100   114042909.824          50.000    21701647.000    85161910.527          50.000  
E13  23500474.200   123495806.836          50.000    23500477.880    92220888.633          50.000  
E15  24343412.160   127925449.566          50.000    24343417.820    95528734.027          50.000  
E26  26095905.160   137134847.594          50.000    26095912.020   102405878.309          50.000  
> 2020  8 13 21 40 51.0000000  0 15       0.000000000000
G10  21144978.520   111117559.797          50.000    21144978.540    82977390.211          50.000  
G15  22622776.540   118883301.699          50.000                                                  
G16  23671635.520   124395268.684          50.000                                                  
G20  20232714.700   106323631.648          50.000                                                  
G21  22661108.280   119084939.465          50.000                                                  
G26  24407141.520   128260270.699          50.000    24407145.560    95778746.617          50.000  
G27  22341886.580   117407353.246          50.000    22341887.980    87674314.145          50.000  
G29  24231527.940   127337491.602          50.000                                                  
G32  24059747.460   126434741.887          50.000    24059750.220    94415533.941          50.000  
E 3  25525898.780   134139474.523          50.000    25525903.660   100169080.621          50.000  
E 7  26106920.820   137192742.938          50.000    26106927.640   102449112.777          50.000  
E 8  21701493.260   114042117.223          50.000    21701496.180    85161318.648          50.000  
E13  23500297.900   123494880.316          50.000    23500301.580    92220196.754          50.000  
E15  24343657.020   127926736.355          50.000    24343662.700    95529694.941          50.000  
E26  26095460.800   137132512.480          50.000    26095467.660   102404134.559          50.000  
> 2020  8 13 21 40 52.0000000  0 15       0.000000000000
G10  21144749.920   111116358.453          50.000    21144749.920    82976493.105          50.000  
G15  22623253.660   118885809.066          50.000                                                  
G16  23671933.620   124396835.195          50.000                                                  
G20  20232812.940   106324147.852          50.000                                                  
G21  22660742.140   119083015.395          50.000                                                  
G26  24407630.820   128262841.984          50.000    24407634.860    95780666.730          50.000  
G27  22341428.860   117404947.836          50.000    22341430.260    87672517.898          50.000  
G29  24232239.980   127341233.320          50.000                                                  
G32  24059053.780   126431096.563          50.000    24059056.540    94412811.785          50.000  
E 3  25526256.700   134141355.391          50.000    25526261.560   100170485.164          50.000  
E 7  26106379.560   137189898.602          50.000    26106386.380   102446988.762          50.000  
E 8  21701342.520   114041325.066          50.000    21701345.420    85160727.105          50.000  
E13  23500121.620   123493953.953          50.000    23500125.300    92219504.988          50.000  
E15  24343901.940   127928023.371          50.000    24343907.600    95530656.023          50.000  
E26  26095016.440   137130177.336          50.000    26095023.300   102402390.785          50.000  
> 2020  8 13 21 40 53.0000000  0 15       0.000000000000
G10  21144521.380   111115157.480          50.000    21144521.380    82975596.273          50.000  
G15  22623730.900   118888316.941          50.000                                                  
G16  23672231.800   124398402.184          50.000                                                  
G20  20232911.220   106324664.398          50.000                                                  
G21  22660376.000   119081091.379          50.000                                                  
G26  24408120.140   128265413.340          50.000    24408124.180    95782586.898          50.000  
G27  22340971.200   117402542.887          50.000    22340972.600    87670721.996          50.000  
G29  24232952.020   127344975.176          50.000                                                  
G32  24058360.100   126427451.289          50.000    24058362.860    94410089.664          50.000  
E 3  25526614.680   134143236.586          50.000    25526619.540   100171889.949          50.000  
E 7  26105838.340   137187054.449          50.000    26105845.160   102444864.883          50.000  
E 8  21701191.860   114040533.352          50.000    21701194.760    85160135.887          50.000  
E13  23499945.380   123493027.797          50.000    23499949.060    92218813.375          50.000  
E15  24344146.880   127929310.609          50.000    24344152.560    95531617.273          50.000  
E26  26094572.080   137127842.180          50.000    26094578.920   102400647.000          50.000  
> 2020  8 13 21 40 54.0000000  0 15       0.000000000000
G10  21144292.900   111113956.883          50.000    21144292.920    82974699.727          50.000  
G15  22624208.240   118890825.324          50.000                                                  
G16  23672530.080   124399969.625          50.000                                                  
G20  20233009.600   106325181.301          50.000                                                  
G21  22660009.880   119079167.422          50.000                                                  
G26  24408609.460   128267984.770          50.000    24408613.500    95784507.121          50.000  
G27  22340513.640   117400138.387          50.000    22340515.040    87668926.430          50.000  
G29  24233664.100   127348717.180          50.000                                                  
G32  24057666.440   126423806.082          50.000    24057669.200    94407367.598          50.000  
E 3  25526972.720   134145118.094          50.000    25526977.580   100173294.973          50.000  
E 7  26105297.140   137184210.461          50.000    26105303.960   102442741.129          50.000  
E 8  21701041.280   114039742.074          50.000    21701044.200    85159545.000          50.000  
E13  23499769.160   123492101.820          50.000    23499772.840    92218121.902          50.000  
E15  24344391.880   127930598.078          50.000    24344397.560    95532578.695          50.000  
E26  26094127.700   137125506.977          50.000    26094134.560   102398903.180          50.000  
> 2020  8 13 21 40 55.0000000  0 15       0.000000000000
G10  21144064.520   111112756.668          50.000    21144064.520    82973803.461          50.000  
G15  22624685.660   118893334.223          50.000                                                  
G16  23672828.440   124401537.531          50.000                                                  
G20  20233108.020   106325698.543          50.000                                                  
G21  22659643.780   119077243.523          50.000                                                  
G26  24409098.800   128270556.270          50.000    24409102.840    95786427.398          50.000  
G27  22340056.180   117397734.355          50.000    22340057.580    87667131.211          50.000  
G29  24234376.220   127352459.332          50.000                                                  
G32  24056972.800   126420160.922          50.000    24056975.560    94404645.563          50.000  
E 3  25527330.820   134146999.914          50.000    25527335.680   100174700.227          50.000  
E 7  26104755.980   137181366.652          50.000    26104762.800   102440617.504          50.000  
E 8  21700890.800   114038951.250          50.000    21700893.700    85158954.449          50.000  
E13  23499593.000   123491176.020          50.000    23499596.680    92217430.559          50.000  
E15  24344636.920   127931885.785          50.000    24344642.600    95533540.293          50.000  
E26  26093683.320   137123171.762          50.000    26093690.180   102397159.352          50.000  
> 2020  8 13 21 40 56.0000000  0 15       0.000000000000
G10  21143836.180   111111556.813          50.000    21143836.200    82972907.465          50.000  
G15  22625163.180   118895843.621          50.000                                                  
G16  23673126.900   124403105.922          50.000                                                  
G20  20233206.520   106326216.125          50.000                                                  
G21  22659277.680   119075319.680          50.000                                                  
G26  24409588.160   128273127.848          50.000    24409592.200    95788347.730          50.000  
G27  22339598.780   117395330.777          50.000    22339600.180    87665336.332          50.000  
G29  24235088.360   127356201.609          50.000                                                  
G32  24056279.160   126416515.816          50.000    24056281.920    94401923.570          50.000  
E 3  25527688.980   134148882.059          50.000    25527693.840   100176105.723          50.000  
E 7  26104214.860   137178523.027          50.000    26104221.680   102438494.020          50.000  
E 8  21700740.400   114038160.863          50.000    21700743.300    85158364.227          50.000  
E13  23499416.860   123490250.414          50.000    23499420.540    92216739.359          50.000  
E15  24344882.020   127933173.734          50.000    24344887.680    95534502.074          50.000  
E26  26093238.940   137120836.508          50.000    26093245.780   102395415.496          50.000  
> 2020  8 13 21 40 57.0000000  0 15       0.000000000000
G10  21143607.940   111110357.344          50.000    21143607.940    82972011.766          50.000  
G15  22625640.800   118898353.539          50.000                                                  
G16  23673425.440   124404674.781          50.000                                                  
G20  20233305.080   106326734.070          50.000                                                  
G21  22658911.600   119073395.902          50.000                                                  
G26  24410077.540   128275699.480          50.000    24410081.580    95790268.102          50.000  
G27  22339141.480   117392927.645          50.000    22339142.880    87663541.789          50.000  
G29  24235800.520   127359944.047          50.000                                                  
G32  24055585.520   126412870.766          50.000    24055588.280    94399201.621          50.000  
E 3  25528047.200   134150764.512          50.000    25528052.060   100177511.453          50.000  
E 7  26103673.760   137175679.590          50.000    26103680.600   102436370.676          50.000  
E 8  21700590.080   114037370.922          50.000    21700592.980    85157774.336          50.000  
E13  23499240.760   123489324.992          50.000    23499244.440    92216048.297          50.000  
E15  24345127.140   127934461.906          50.000    24345132.820    95535464.020          50.000  
E26  26092794.560   137118501.238          50.000    26092801.400   102393671.625          50.000  
> 2020  8 13 21 40 58.0000000  0 15       0.000000000000
G10  21143379.760   111109158.230          50.000    21143379.760    82971116.320          50.000  
G15  22626118.520   118900863.965          50.000                                                  
G16  23673724.060   124406244.094          50.000                                                  
G20  20233403.700   106327252.348          50.000                                                  
G21  22658545.520   119071472.188          50.000                                                  
G26  24410566.920   128278271.203          50.000    24410570.960    95792188.539          50.000  
G27  22338684.260   117390524.965          50.000    22338685.660    87661747.582          50.000  
G29  24236512.700   127363686.629          50.000                                                  
G32  24054891.900   126409225.777          50.000    24054894.660    94396479.715          50.000  
E 3  25528405.480   134152647.293          50.000    25528410.340   100178917.422          50.000  
E 7  26103132.700   137172836.313          50.000    26103139.540   102434247.453          50.000  
E 8  21700439.840   114036581.426          50.000    21700442.740    85157184.777          50.000  
E13  23499064.680   123488399.750          50.000    23499068.360    92215357.367          50.000  
E15  24345372.320   127935750.313          50.000    24345378.000    95536426.141          50.000  
E26  26092350.160   137116165.941          50.000    26092357.000   102391927.734          50.000  
> 2020  8 13 21 40 59.0000000  0 15       0.000000000000
G10  21143151.640   111107959.496          50.000    21143151.640    82970221.160          50.000  
G15  22626596.340   118903374.902          50.000                                                  
G16  23674022.780   124407813.863          50.000                                                  
G20  20233502.380   106327770.965          50.000                                                  
G21  22658179.460   119069548.520          50.000                                                  
G26  24411056.300   128280842.988          50.000    24411060.360    95794109.027          50.000  
G27  22338227.140   117388122.750          50.000    22338228.540    87659953.719          50.000  
G29  24237224.920   127367429.324          50.000                                                  
G32  24054198.300   126405580.844          50.000    24054201.040    94393757.848          50.000  
E 3  25528763.820   134154530.383          50.000    25528768.680   100180323.625          50.000  
E 7  26102591.680   137169993.207          50.000    26102598.500   102432124.355          50.000  
E 8  21700289.680   114035792.359          50.000    21700292.580    85156595.539          50.000  
E13  23498888.660   123487474.699          50.000    23498892.340    92214666.586          50.000  
E15  24345617.540   127937038.945          50.000    24345623.220    95537388.434          50.000  
E26  26091905.760   137113830.598          50.000    26091912.600   102390183.813          50.000  
> 2020  8 13 21 41  0.0000000  0 15       0.000000000000
G10  21142923.600   111106761.133          50.000    21142923.600    82969326.281          50.000  
G15  22627074.240   118905886.340          50.000                                                  
G16  23674321.600   124409384.109          50.000                                                  
G20  20233601.140   106328289.926          50.000                                                  
G21  22657813.420   119067624.914          50.000                                                  
G26  24411545.720   128283414.859          50.000    24411549.760    95796029.582          50.000  
G27  22337770.100   117385720.984          50.000    22337771.500    87658160.191          50.000  
G29  24237937.160   127371172.172          50.000                                                  
G32  24053504.700   126401935.973          50.000    24053507.460    94391036.031          50.000  
E 3  25529122.220   134156413.781          50.000    25529127.080   100181730.063          50.000  
E 7  26102050.680   137167150.285          50.000    26102057.520   102430001.395          50.000  
E 8  21700139.620   114035003.750          50.000    21700142.520    85156006.645          50.000  
E13  23498712.660   123486549.820          50.000    23498716.340    92213975.930          50.000  
E15  24345862.800   127938327.816          50.000    24345868.480    95538350.898          50.000  
E26  26091461.360   137111495.250          50.000    26091468.200   102388439.883          50.000  
> 2020  8 13 21 41  1.0000000  0 15       0.000000000000
G10  21142695.620   111105563.137          50.000    21142695.640    82968431.676          50.000  
G15  22627552.260   118908398.301          50.000                                                  
G16  23674620.500   124410954.828          50.000                                                  
G20  20233699.960   106328809.234          50.000                                                  
G21  22657447.380   119065701.371          50.000                                                  
G26  24412035.140   128285986.805          50.000    24412039.180    95797950.188          50.000  
G27  22337313.140   117383319.672          50.000    22337314.540    87656367.004          50.000  
G29  24238649.420   127374915.160          50.000                                                  
G32  24052811.100   126398291.133          50.000    24052813.860    94388314.238          50.000  
E 3  25529480.680   134158297.520          50.000    25529485.560   100183136.746          50.000  
E 7  26101509.740   137164307.543          50.000    26101516.560   102427878.570          50.000  
E 8  21699989.620   114034215.578          50.000    21699992.540    85155418.074          50.000  
E13  23498536.700   123485625.148          50.000    23498540.380    92213285.426          50.000  
E15  24346108.120   127939616.922          50.000    24346113.780    95539313.543          50.000  
E26  26091016.940   137109159.863          50.000    26091023.780   102386695.930          50.000  
> 2020  8 13 21 41  2.0000000  0 15       0.000000000000
G10  21142467.720   111104365.523          50.000    21142467.740    82967537.355          50.000  
G15  22628030.360   118910910.762          50.000                                                  
G16  23674919.480   124412525.996          50.000                                                  
G20  20233798.860   106329328.895          50.000                                                  
G21  22657081.360   119063777.887          50.000                                                  
G26  24412524.580   128288558.816          50.000    24412528.620    95799870.844          50.000  
G27  22336856.280   117380918.824          50.000    22336857.680    87654574.168          50.000  
G29  24239361.720   127378658.301          50.000                                                  
G32  24052117.540   126394646.375          50.000    24052120.280    94385592.504          50.000  
E 3  25529839.200   134160181.563          50.000    25529844.080   100184543.660          50.000  
E 7  26100968.800   137161464.984          50.000    26100975.640   102425755.879          50.000  
E 8  21699839.740   114033427.859          50.000    21699842.640    85154829.840          50.000  
E13  23498360.760   123484700.645          50.000    23498364.440    92212595.051          50.000  
E15  24346353.460   127940906.250          50.000    24346359.140    95540276.352          50.000  
E26  26090572.540   137106824.453          50.000    26090579.380   102384951.953          50.000  
> 2020  8 13 21 41  3.0000000  0 15       0.000000000000
G10  21142239.900   111103168.285          50.000    21142239.920    82966643.313          50.000  
G15  22628508.560   118913423.734          50.000                                                  
G16  23675218.560   124414097.648          50.000                                                  
G20  20233897.800   106329848.891          50.000                                                  
G21  22656715.340   119061854.465          50.000                                                  
G26  24413014.040   128291130.898          50.000    24413018.080    95801791.551          50.000  
G27  22336399.500   117378518.430          50.000    22336400.900    87652781.664          50.000  
G29  24240074.040   127382401.559          50.000                                                  
G32  24051423.960   126391001.656          50.000    24051426.720    94382870.801          50.000  
E 3  25530197.780   134162065.918          50.000    25530202.660   100185950.809          50.000  
E 7  26100427.920   137158622.590          50.000    26100434.740   102423633.316          50.000  
E 8  21699689.920   114032640.574          50.000    21699692.820    85154241.934          50.000  
E13  23498184.880   123483776.328          50.000    23498188.560    92211904.813          50.000  
E15  24346598.860   127942195.828          50.000    24346604.540    95541239.348          50.000  
E26  26090128.120   137104489.016          50.000    26090134.960   102383207.961          50.000  
> 2020  8 13 21 41  4.0000000  0 15       0.000000000000
G10  21142012.140   111101971.402          50.000    21142012.160    82965749.539          50.000  
G15  22628986.880   118915937.219          50.000                                                  
G16  23675517.720   124415669.758          50.000                                                  
G20  20233996.820   106330369.230          50.000                                                  
G21  22656349.340   119059931.102          50.000                                                  
G26  24413503.500   128293703.055          50.000    24413507.540    95803712.320          50.000  
G27  22335942.800   117376118.488          50.000    22335944.200    87650989.504          50.000  
G29  24240786.400   127386144.969          50.000                                                  
G32  24050730.400   126387357.000          50.000    24050733.160    94380149.145          50.000  
E 3  25530556.420   134163950.598          50.000    25530561.300   100187358.199          50.000  
E 7  26099887.060   137155780.375          50.000    26099893.880   102421510.887          50.000  
E 8  21699540.180   114031853.742          50.000    21699543.100    85153654.367          50.000  
E13  23498009.020   123482852.207          50.000    23498012.700    92211214.727          50.000  
E15  24346844.300   127943485.621          50.000    24346849.980    95542202.504          50.000  
E26  26089683.680   137102153.559          50.000    26089690.520   102381463.953          50.000  
> 2020  8 13 21 41  5.0000000  0 15       0.000000000000
G10  21141784.460   111100774.902          50.000    21141784.460    82964856.047          50.000  
G15  22629465.260   118918451.211          50.000                                                  
G16  23675816.960   124417242.336          50.000                                                  
G20  20234095.900   106330889.914          50.000                                                  
G21  22655983.340   119058007.785          50.000                                                  
G26  24413992.980   128296275.285          50.000    24413997.020    95805633.141          50.000  
G27  22335486.200   117373719.008          50.000    22335487.600    87649197.684          50.000  
G29  24241498.760   127389888.527          50.000                                                  
G32  24050036.860   126383712.406          50.000    24050039.620    94377427.535          50.000  
E 3  25530915.120   134165835.590          50.000    25530920.000   100188765.824          50.000  
E 7  26099346.240   137152938.344          50.000    26099353.060   102419388.590          50.000  
E 8  21699390.540   114031067.344          50.000    21699393.440    85153067.121          50.000  
E13  23497833.200   123481928.270          50.000    23497836.880    92210524.770          50.000  
E15  24347089.780   127944775.645          50.000    24347095.460    95543165.832          50.000  
E26  26089239.260   137099818.063          50.000    26089246.100   102379719.914          50.000  
> 2020  8 13 21 41  6.0000000  0 15       0.000000000000
G10  21141556.840   111099578.781          50.000    21141556.840    82963962.840          50.000  
G15  22629943.760   118920965.711          50.000                                                  
G16  23676116.300   124418815.375          50.000                                                  
G20  20234195.060   106331410.949          50.000                                                  
G21  22655617.360   119056084.523          50.000                                                  
G26  24414482.480   128298847.574          50.000    24414486.520    95807554.004          50.000  
G27  22335029.680   117371319.980          50.000    22335031.080    87647406.203          50.000  
G29  24242211.180   127393632.227          50.000                                                  
G32  24049343.320   126380067.855          50.000    24049346.080    94374705.953          50.000  
E 3  25531273.900   134167720.895          50.000    25531278.760   100190173.680          50.000  
E 7  26098805.460   137150096.492          50.000    26098812.280   102417266.430          50.000  
E 8  21699240.980   114030281.395          50.000    21699243.880    85152480.211          50.000  
E13  23497657.420   123481004.512          50.000    23497661.100    92209834.949          50.000  
E15  24347335.320   127946065.918          50.000    24347341.000    95544129.348          50.000  
E26  26088794.820   137097482.539          50.000    26088801.660   102377975.859          50.000  
> 2020  8 13 21 41  7.0000000  0 15       0.000000000000
G10  21141329.300   111098383.023          50.000    21141329.300    82963069.906          50.000  
G15  22630422.360   118923480.723          50.000                                                  
G16  23676415.740   124420388.879          50.000                                                  
G20  20234294.260   106331932.320          50.000                                                  
G21  22655251.380   119054161.324          50.000                                                  
G26  24414971.980   128301419.945          50.000    24414976.020    95809474.926          50.000  
