     3.03           OBSERVATION DATA    M: Mixed            RINEX VERSION / TYPE
sbp2rinex v2.2 (RTKL                    20210504 171523 UTC PGM / RUN BY / DATE 
log: 2020-05-15-US-MTV-2.sbp                                COMMENT             
format: Swift Navigation SBP, option: CONVBASE,EPHALL,OBSALLCOMMENT             
                                                            MARKER NAME         
                                                            MARKER NUMBER       
                                                            MARKER TYPE         
                                                            OBSERVER / AGENCY   
                                                            REC # / TYPE / VERS 
                                                            ANT # / TYPE        
 -2744179.0502 -4320042.2250  3793481.6346                  APPROX POSITION XYZ 
        0.0000        0.0000        0.0000                  ANTENNA: DELTA H/E/N
G    6 C1C L1C S1C C5I L5I S5I                              SYS / # / OBS TYPES 
E    6 C1B L1B S1B C5I L5I S5I                              SYS / # / OBS TYPES 
  2020     5    15    23    56   13.0000000     GPS         TIME OF FIRST OBS   
  2020     5    16     0    41   35.0000000     GPS         TIME OF LAST OBS    
G                                                           SYS / PHASE SHIFT   
E                                                           SYS / PHASE SHIFT   
  0                                                         GLONASS SLOT / FRQ #
 C1C    0.000 C1P    0.000 C2C    0.000 C2P    0.000        GLONASS COD/PHS/BIS 
                                                            END OF HEADER       
> 2020  5 15 23 56 13.0000000  0 13       0.000000000000
G 2  23649580.740   124279412.469          50.000                                                  
G 5  21095255.980   110856316.590          50.000                                                  
G12  21694415.420   114004915.227          50.000                                                  
G18  22633593.700   118940335.000          50.000                                                  
G21  23246178.000   122159459.105          50.000                                                  
G25  20572979.200   108111680.039          50.000    20572981.420    80732748.512          50.000  
G29  21007533.700   110395332.438          50.000                                                  
G31  24490429.640   128698077.715          50.000                                                  
E 3  27667331.820   145392752.445          50.000    27667338.740   108572489.086          50.000  
E 5  27090457.540   142361275.098          50.000    27090463.140   106308728.961          50.000  
E15  23717217.800   124634791.188          50.000    23717222.680    93071423.574          50.000  
E27  24513048.740   128816917.457          50.000    24513052.760    96194440.035          50.000  
E30  23325728.460   122577509.875          50.000    23325732.760    91535142.234          50.000  
> 2020  5 15 23 56 14.0000000  0 13       0.000000000000
G 2  23650053.140   124281894.934          50.000                                                  
G 5  21095350.680   110856814.199          50.000                                                  
G12  21694977.020   114007866.477          50.000                                                  
G18  22633118.200   118937836.234          50.000                                                  
G21  23245770.300   122157316.609          50.000                                                  
G25  20573239.500   108113047.910          50.000    20573241.720    80733769.973          50.000  
G29  21007274.960   110393972.762          50.000                                                  
G31  24490537.480   128698644.488          50.000                                                  
E 3  27666842.020   145390178.461          50.000    27666848.920   108570566.957          50.000  
E 5  27090177.420   142359803.098          50.000    27090183.020   106307629.738          50.000  
E15  23717107.320   124634210.605          50.000    23717112.180    93070990.023          50.000  
E27  24512936.400   128816327.152          50.000    24512940.420    96193999.223          50.000  
E30  23326143.940   122579693.305          50.000    23326148.240    91536772.719          50.000  
> 2020  5 15 23 56 15.0000000  0 13       0.000000000000
G 2  23650525.540   124284377.414          50.000                                                  
G 5  21095445.500   110857312.492          50.000                                                  
G12  21695538.720   114010818.137          50.000                                                  
G18  22632642.740   118935337.750          50.000                                                  
G21  23245362.660   122155174.387          50.000                                                  
G25  20573499.900   108114416.383          50.000    20573502.120    80734791.887          50.000  
G29  21007016.260   110392613.285          50.000                                                  
G31  24490645.440   128699211.785          50.000                                                  
E 3  27666352.200   145387604.457          50.000    27666359.100   108568644.813          50.000  
E 5  27089897.360   142358331.422          50.000    27089902.980   106306530.758          50.000  
E15  23716996.860   124633630.188          50.000    23717001.740    93070556.594          50.000  
E27  24512824.160   128815737.332          50.000    24512828.200    96193558.773          50.000  
E30  23326559.500   122581877.070          50.000    23326563.800    91538403.453          50.000  
> 2020  5 15 23 56 16.0000000  0 13       0.000000000000
G 2  23650997.940   124286859.910          50.000                                                  
G 5  21095540.460   110857811.480          50.000                                                  
G12  21696100.480   114013770.199          50.000                                                  
G18  22632167.360   118932839.547          50.000                                                  
G21  23244955.060   122153032.426          50.000                                                  
G25  20573760.440   108115785.465          50.000    20573762.660    80735814.250          50.000  
G29  21006757.600   110391254.012          50.000                                                  
G31  24490753.500   128699779.602          50.000                                                  
E 3  27665862.380   145385030.430          50.000    27665869.280   108566722.648          50.000  
E 5  27089617.380   142356860.063          50.000    27089622.980   106305432.020          50.000  
E15  23716886.460   124633049.934          50.000    23716891.320    93070123.285          50.000  
E27  24512712.020   128815147.980          50.000    24512716.040    96193118.672          50.000  
E30  23326975.120   122584061.195          50.000    23326979.420    91540034.453          50.000  
> 2020  5 15 23 56 17.0000000  0 13       0.000000000000
G 2  23651470.360   124289342.422          50.000                                                  
G 5  21095635.540   110858311.141          50.000                                                  
G12  21696662.300   114016722.660          50.000                                                  
G18  22631692.020   118930341.629          50.000                                                  
G21  23244547.500   122150890.734          50.000                                                  
G25  20574021.080   108117155.160          50.000    20574023.300    80736837.074          50.000  
G29  21006498.980   110389894.969          50.000                                                  
G31  24490861.640   128700347.941          50.000                                                  
E 3  27665372.540   145382456.367          50.000    27665379.460   108564800.461          50.000  
E 5  27089337.460   142355389.035          50.000    27089343.060   106304333.523          50.000  
E15  23716776.060   124632469.836          50.000    23716780.940    93069690.102          50.000  
E27  24512599.960   128814559.094          50.000    24512603.980    96192678.918          50.000  
E30  23327390.820   122586245.648          50.000    23327395.120    91541665.699          50.000  
> 2020  5 15 23 56 18.0000000  0 13       0.000000000000
G 2  23651942.760   124291824.941          50.000                                                  
G 5  21095730.760   110858811.492          50.000                                                  
G12  21697224.220   114019675.551          50.000                                                  
G18  22631216.740   118927844.000          50.000                                                  
G21  23244140.000   122148749.316          50.000                                                  
G25  20574281.840   108118525.480          50.000    20574284.060    80737860.367          50.000  
G29  21006240.400   110388536.137          50.000                                                  
G31  24490969.900   128700916.801          50.000                                                  
E 3  27664882.700   145379882.273          50.000    27664889.620   108562878.250          50.000  
E 5  27089057.580   142353918.313          50.000    27089063.180   106303235.258          50.000  
E15  23716665.700   124631889.906          50.000    23716670.580    93069257.035          50.000  
E27  24512487.980   128813970.684          50.000    24512492.000    96192239.523          50.000  
E30  23327806.560   122588430.441          50.000    23327810.860    91543297.199          50.000  
> 2020  5 15 23 56 19.0000000  0 13       0.000000000000
G 2  23652415.180   124294307.480          50.000                                                  
G 5  21095826.100   110859312.535          50.000                                                  
G12  21697786.220   114022628.832          50.000                                                  
G18  22630741.500   118925346.645          50.000                                                  
G21  23243732.540   122146608.148          50.000                                                  
G25  20574542.720   108119896.410          50.000    20574544.940    80738884.113          50.000  
G29  21005981.860   110387177.512          50.000                                                  
G31  24491078.240   128701486.176          50.000                                                  
E 3  27664392.860   145377308.152          50.000    27664399.780   108560956.020          50.000  
E 5  27088777.780   142352447.930          50.000    27088783.380   106302137.246          50.000  
E15  23716555.380   124631310.133          50.000    23716560.240    93068824.086          50.000  
E27  24512376.100   128813382.746          50.000    24512380.120    96191800.477          50.000  
E30  23328222.380   122590615.574          50.000    23328226.680    91544928.953          50.000  
> 2020  5 15 23 56 20.0000000  0 13       0.000000000000
G 2  23652887.580   124296790.027          50.000                                                  
G 5  21095921.580   110859814.270          50.000                                                  
G12  21698348.280   114025582.512          50.000                                                  
G18  22630266.320   118922849.574          50.000                                                  
G21  23243325.140   122144467.254          50.000                                                  
G25  20574803.720   108121267.941          50.000    20574805.940    80739908.305          50.000  
G29  21005723.380   110385819.102          50.000                                                  
G31  24491186.700   128702056.070          50.000                                                  
E 3  27663903.020   145374733.996          50.000    27663909.940   108559033.762          50.000  
E 5  27088498.020   142350977.840          50.000    27088503.640   106301039.449          50.000  
E15  23716445.080   124630730.520          50.000    23716449.960    93068391.258          50.000  
E27  24512264.300   128812795.281          50.000    24512268.340    96191361.789          50.000  
E30  23328638.260   122592801.043          50.000    23328642.560    91546560.961          50.000  
> 2020  5 15 23 56 21.0000000  0 13       0.000000000000
G 2  23653360.000   124299272.609          50.000                                                  
G 5  21096017.180   110860316.691          50.000                                                  
G12  21698910.420   114028536.602          50.000                                                  
G18  22629791.200   118920352.793          50.000                                                  
G21  23242917.800   122142326.621          50.000                                                  
G25  20575064.820   108122640.086          50.000    20575067.040    80740932.957          50.000  
G29  21005464.920   110384460.922          50.000                                                  
G31  24491295.240   128702626.480          50.000                                                  
E 3  27663413.180   145372159.813          50.000    27663420.080   108557111.480          50.000  
E 5  27088218.340   142349508.078          50.000    27088223.940   106299941.902          50.000  
E15  23716334.820   124630151.063          50.000    23716339.680    93067958.547          50.000  
E27  24512152.600   128812208.289          50.000    24512156.640    96190923.449          50.000  
E30  23329054.220   122594986.859          50.000    23329058.520    91548193.227          50.000  
> 2020  5 15 23 56 22.0000000  0 13       0.000000000000
G 2  23653832.420   124301755.188          50.000                                                  
G 5  21096112.920   110860819.797          50.000                                                  
G12  21699472.660   114031491.094          50.000                                                  
G18  22629316.140   118917856.281          50.000                                                  
G21  23242510.500   122140186.242          50.000                                                  
G25  20575326.060   108124012.844          50.000    20575328.280    80741958.070          50.000  
G29  21005206.500   110383102.938          50.000                                                  
G31  24491403.880   128703197.406          50.000                                                  
E 3  27662923.320   145369585.598          50.000    27662930.220   108555189.180          50.000  
E 5  27087938.720   142348038.637          50.000    27087944.320   106298844.590          50.000  
E15  23716224.580   124629571.770          50.000    23716229.440    93067525.957          50.000  
E27  24512041.000   128811621.770          50.000    24512045.020    96190485.465          50.000  
E30  23329470.220   122597173.008          50.000    23329474.520    91549825.738          50.000  
> 2020  5 15 23 56 23.0000000  0 13       0.000000000000
G 2  23654304.860   124304237.789          50.000                                                  
G 5  21096208.780   110861323.574          50.000                                                  
G12  21700034.940   114034445.988          50.000                                                  
G18  22628841.120   118915360.066          50.000                                                  
G21  23242103.260   122138046.148          50.000                                                  
G25  20575587.400   108125386.195          50.000    20575589.620    80742983.625          50.000  
G29  21004948.140   110381745.176          50.000                                                  
G31  24491512.620   128703768.855          50.000                                                  
E 3  27662433.440   145367011.348          50.000    27662440.360   108553266.852          50.000  
E 5  27087659.140   142346569.500          50.000    27087664.760   106297747.512          50.000  
E15  23716114.380   124628992.633          50.000    23716119.240    93067093.488          50.000  
E27  24511929.480   128811035.723          50.000    24511933.500    96190047.832          50.000  
E30  23329886.300   122599359.500          50.000    23329890.600    91551458.508          50.000  
> 2020  5 15 23 56 24.0000000  0 13       0.000000000000
G 2  23654777.280   124306720.406          50.000                                                  
G 5  21096304.780   110861828.051          50.000                                                  
G12  21700597.320   114037401.293          50.000                                                  
G18  22628366.160   118912864.129          50.000                                                  
G21  23241696.060   122135906.301          50.000                                                  
G25  20575848.860   108126760.176          50.000    20575851.080    80744009.648          50.000  
G29  21004689.800   110380387.637          50.000                                                  
G31  24491621.460   128704340.824          50.000                                                  
E 3  27661943.580   145364437.074          50.000    27661950.480   108551344.508          50.000  
E 5  27087379.640   142345100.699          50.000    27087385.240   106296650.680          50.000  
E15  23716004.200   124628413.656          50.000    23716009.060    93066661.133          50.000  
E27  24511818.040   128810450.152          50.000    24511822.080    96189610.555          50.000  
E30  23330302.440   122601546.359          50.000    23330306.740    91553091.551          50.000  
> 2020  5 15 23 56 25.0000000  0 13       0.000000000000
G 2  23655249.720   124309203.039          50.000                                                  
G 5  21096400.920   110862333.215          50.000                                                  
G12  21701159.780   114040356.992          50.000                                                  
G18  22627891.240   118910368.469          50.000                                                  
G21  23241288.900   122133766.727          50.000                                                  
G25  20576110.420   108128134.758          50.000    20576112.640    80745036.121          50.000  
G29  21004431.500   110379030.301          50.000                                                  
G31  24491730.400   128704913.305          50.000                                                  
E 3  27661453.700   145361862.773          50.000    27661460.620   108549422.141          50.000  
E 5  27087100.200   142343632.207          50.000    27087105.800   106295554.078          50.000  
E15  23715894.060   124627834.844          50.000    23715898.920    93066228.902          50.000  
E27  24511706.700   128809865.055          50.000    24511710.740    96189173.633          50.000  
E30  23330718.660   122603733.520          50.000    23330722.960    91554724.816          50.000  
> 2020  5 15 23 56 26.0000000  0 13       0.000000000000
G 2  23655722.140   124311685.688          50.000                                                  
G 5  21096497.180   110862839.063          50.000                                                  
G12  21701722.300   114043313.098          50.000                                                  
G18  22627416.400   118907873.102          50.000                                                  
G21  23240881.800   122131627.414          50.000                                                  
G25  20576372.120   108129509.965          50.000    20576374.340    80746063.063          50.000  
G29  21004173.260   110377673.195          50.000                                                  
G31  24491839.440   128705486.316          50.000                                                  
E 3  27660963.820   145359288.441          50.000    27660970.740   108547499.750          50.000  
E 5  27086820.820   142342164.039          50.000    27086826.420   106294457.723          50.000  
E15  23715783.940   124627256.180          50.000    23715788.800    93065796.785          50.000  
E27  24511595.460   128809280.410          50.000    24511599.480    96188737.047          50.000  
E30  23331134.920   122605921.035          50.000    23331139.220    91556358.352          50.000  
> 2020  5 15 23 56 27.0000000  0 13       0.000000000000
G 2  23656194.580   124314168.352          50.000                                                  
G 5  21096593.560   110863345.605          50.000                                                  
G12  21702284.920   114046269.602          50.000                                                  
G18  22626941.600   118905378.020          50.000                                                  
G21  23240474.760   122129488.367          50.000                                                  
G25  20576633.940   108130885.777          50.000    20576636.160    80747090.453          50.000  
G29  21003915.040   110376316.285          50.000                                                  
G31  24491948.580   128706059.832          50.000                                                  
E 3  27660473.940   145356714.078          50.000    27660480.840   108545577.340          50.000  
E 5  27086541.500   142340696.191          50.000    27086547.100   106293361.602          50.000  
E15  23715673.860   124626677.688          50.000    23715678.720    93065364.793          50.000  
E27  24511484.300   128808696.262          50.000    24511488.320    96188300.828          50.000  
E30  23331551.260   122608108.891          50.000    23331555.560    91557992.137          50.000  
> 2020  5 15 23 56 28.0000000  0 13       0.000000000000
G 2  23656667.020   124316651.035          50.000                                                  
G 5  21096690.080   110863852.832          50.000                                                  
G12  21702847.600   114049226.512          50.000                                                  
G18  22626466.840   118902883.211          50.000                                                  
G21  23240067.760   122127349.598          50.000                                                  
G25  20576895.860   108132262.207          50.000    20576898.080    80748118.309          50.000  
G29  21003656.880   110374959.598          50.000                                                  
G31  24492057.820   128706633.875          50.000                                                  
E 3  27659984.040   145354139.680          50.000    27659990.960   108543654.902          50.000  
E 5  27086262.240   142339228.664          50.000    27086267.840   106292265.719          50.000  
E15  23715563.800   124626099.355          50.000    23715568.660    93064932.922          50.000  
E27  24511373.220   128808112.574          50.000    24511377.240    96187864.961          50.000  
E30  23331967.660   122610297.090          50.000    23331971.960    91559626.184          50.000  
> 2020  5 15 23 56 29.0000000  0 13       0.000000000000
G 2  23657139.460   124319133.723          50.000                                                  
G 5  21096786.740   110864360.750          50.000                                                  
G12  21703410.360   114052183.832          50.000                                                  
G18  22625992.160   118900388.688          50.000                                                  
G21  23239660.820   122125211.086          50.000                                                  
G25  20577157.900   108133639.238          50.000    20577160.120    80749146.609          50.000  
G29  21003398.760   110373603.133          50.000                                                  
G31  24492167.160   128707208.434          50.000                                                  
E 3  27659494.140   145351565.258          50.000    27659501.060   108541732.445          50.000  
E 5  27085983.040   142337761.457          50.000    27085988.640   106291170.082          50.000  
E15  23715453.780   124625521.180          50.000    23715458.640    93064501.168          50.000  
E27  24511262.240   128807529.371          50.000    24511266.260    96187429.449          50.000  
E30  23332384.120   122612485.613          50.000    23332388.420    91561260.469          50.000  
> 2020  5 15 23 56 30.0000000  0 13       0.000000000000
G 2  23657611.900   124321616.434          50.000                                                  
G 5  21096883.520   110864869.352          50.000                                                  
G12  21703973.180   114055141.551          50.000                                                  
G18  22625517.520   118897894.449          50.000                                                  
G21  23239253.920   122123072.844          50.000                                                  
G25  20577420.060   108135016.887          50.000    20577422.280    80750175.371          50.000  
G29  21003140.660   110372246.875          50.000                                                  
G31  24492276.600   128707783.516          50.000                                                  
E 3  27659004.240   145348990.805          50.000    27659011.160   108539809.965          50.000  
E 5  27085703.900   142336294.570          50.000    27085709.500   106290074.676          50.000  
E15  23715343.780   124624943.164          50.000    23715348.660    93064069.531          50.000  
E27  24511151.340   128806946.629          50.000    24511155.380    96186994.289          50.000  
E30  23332800.660   122614674.492          50.000    23332804.960    91562895.020          50.000  
> 2020  5 15 23 56 31.0000000  0 13       0.000000000000
G 2  23658084.340   124324099.141          50.000                                                  
G 5  21096980.440   110865378.637          50.000                                                  
G12  21704536.100   114058099.676          50.000                                                  
G18  22625042.940   118895400.500          50.000                                                  
G21  23238847.080   122120934.863          50.000                                                  
G25  20577682.320   108136395.137          50.000    20577684.540    80751204.582          50.000  
G29  21002882.620   110370890.840          50.000                                                  
G31  24492386.120   128708359.109          50.000                                                  
E 3  27658514.340   145346416.324          50.000    27658521.240   108537887.465          50.000  
E 5  27085424.820   142334827.996          50.000    27085430.420   106288979.512          50.000  
E15  23715233.820   124624365.309          50.000    23715238.700    93063638.016          50.000  
E27  24511040.540   128806364.367          50.000    24511044.580    96186559.480          50.000  
E30  23333217.240   122616863.703          50.000    23333221.540    91564529.820          50.000  
> 2020  5 15 23 56 32.0000000  0 13       0.000000000000
G 2  23658556.800   124326581.867          50.000                                                  
G 5  21097077.480   110865888.613          50.000                                                  
G12  21705099.100   114061058.203          50.000                                                  
G18  22624568.400   118892906.824          50.000                                                  
G21  23238440.280   122118797.152          50.000                                                  
G25  20577944.720   108137774.004          50.000    20577946.940    80752234.258          50.000  
G29  21002624.620   110369535.012          50.000                                                  
G31  24492495.760   128708935.230          50.000                                                  
E 3  27658024.420   145343841.816          50.000    27658031.340   108535964.945          50.000  
E 5  27085145.800   142333361.738          50.000    27085151.400   106287884.578          50.000  
E15  23715123.880   124623787.617          50.000    23715128.760    93063206.625          50.000  
E27  24510929.840   128805782.582          50.000    24510933.860    96186125.031          50.000  
E30  23333633.900   122619053.250          50.000    23333638.200    91566164.871          50.000  
> 2020  5 15 23 56 33.0000000  0 13       0.000000000000
G 2  23659029.240   124329064.609          50.000                                                  
G 5  21097174.660   110866399.277          50.000                                                  
G12  21705662.160   114064017.137          50.000                                                  
G18  22624093.920   118890413.441          50.000                                                  
G21  23238033.540   122116659.703          50.000                                                  
G25  20578207.220   108139153.477          50.000    20578209.440    80753264.383          50.000  
G29  21002366.640   110368179.406          50.000                                                  
G31  24492605.480   128709511.859          50.000                                                  
E 3  27657534.500   145341267.270          50.000    27657541.400   108534042.395          50.000  
E 5  27084866.840   142331895.805          50.000    27084872.440   106286789.887          50.000  
E15  23715013.980   124623210.078          50.000    23715018.860    93062775.348          50.000  
E27  24510819.220   128805201.270          50.000    24510823.240    96185690.934          50.000  
E30  23334050.620   122621243.152          50.000    23334054.940    91567800.188          50.000  
> 2020  5 15 23 56 34.0000000  0 13       0.000000000000
G 2  23659501.700   124331547.355          50.000                                                  
G 5  21097271.960   110866910.629          50.000                                                  
G12  21706225.300   114066976.469          50.000                                                  
G18  22623619.500   118887920.336          50.000                                                  
G21  23237626.840   122114522.535          50.000                                                  
G25  20578469.840   108140533.566          50.000    20578472.060    80754294.969          50.000  
G29  21002108.720   110366824.012          50.000                                                  
G31  24492715.320   128710089.008          50.000                                                  
E 3  27657044.580   145338692.707          50.000    27657051.480   108532119.832          50.000  
E 5  27084587.940   142330430.199          50.000    27084593.540   106285695.441          50.000  
E15  23714904.120   124622632.707          50.000    23714908.980    93062344.191          50.000  
E27  24510708.680   128804620.426          50.000    24510712.720    96185257.184          50.000  
E30  23334467.420   122623433.383          50.000    23334471.720    91569435.746          50.000  
> 2020  5 15 23 56 35.0000000  0 13       0.000000000000
G 2  23659974.160   124334030.129          50.000                                                  
G 5  21097369.400   110867422.660          50.000                                                  
G12  21706788.520   114069936.215          50.000                                                  
G18  22623145.140   118885427.520          50.000                                                  
G21  23237220.200   122112385.621          50.000                                                  
G25  20578732.580   108141914.254          50.000    20578734.800    80755326.000          50.000  
G29  21001850.840   110365468.844          50.000                                                  
G31  24492825.240   128710666.676          50.000                                                  
E 3  27656554.640   145336118.117          50.000    27656561.560   108530197.250          50.000  
E 5  27084309.100   142328964.906          50.000    27084314.700   106284601.230          50.000  
E15  23714794.280   124622055.488          50.000    23714799.140    93061913.152          50.000  
E27  24510598.240   128804040.059          50.000    24510602.280    96184823.797          50.000  
E30  23334884.260   122625623.949          50.000    23334888.580    91571071.559          50.000  
> 2020  5 15 23 56 36.0000000  0 13       0.000000000000
G 2  23660446.620   124336512.906          50.000                                                  
G 5  21097466.980   110867935.379          50.000                                                  
G12  21707351.820   114072896.359          50.000                                                  
G18  22622670.820   118882934.980          50.000                                                  
G21  23236813.620   122110248.977          50.000                                                  
G25  20578995.440   108143295.563          50.000    20578997.660    80756357.496          50.000  
G29  21001593.000   110364113.883          50.000                                                  
G31  24492935.260   128711244.871          50.000                                                  
E 3  27656064.720   145333543.492          50.000    27656071.620   108528274.641          50.000  
E 5  27084030.320   142327499.934          50.000    27084035.920   106283507.258          50.000  
E15  23714684.460   124621478.434          50.000    23714689.340    93061482.234          50.000  
E27  24510487.900   128803460.164          50.000    24510491.920    96184390.758          50.000  
E30  23335301.180   122627814.863          50.000    23335305.480    91572707.629          50.000  
> 2020  5 15 23 56 37.0000000  0 13       0.000000000000
G 2  23660919.080   124338995.699          50.000                                                  
G 5  21097564.660   110868448.785          50.000                                                  
G12  21707915.200   114075856.902          50.000                                                  
G18  22622196.560   118880442.727          50.000                                                  
G21  23236407.080   122108112.594          50.000                                                  
G25  20579258.400   108144677.480          50.000    20579260.620    80757389.449          50.000  
G29  21001335.200   110362759.133          50.000                                                  
G31  24493045.400   128711823.578          50.000                                                  
E 3  27655574.780   145330968.836          50.000    27655581.680   108526352.012          50.000  
E 5  27083751.600   142326035.273          50.000    27083757.220   106282413.520          50.000  
E15  23714574.680   124620901.539          50.000    23714579.560    93061051.434          50.000  
E27  24510377.640   128802880.746          50.000    24510381.660    96183958.074          50.000  
E30  23335718.160   122630006.109          50.000    23335722.460    91574343.949          50.000  
> 2020  5 15 23 56 38.0000000  0 13       0.000000000000
G 2  23661391.540   124341478.520          50.000                                                  
G 5  21097662.500   110868962.875          50.000                                                  
G12  21708478.640   114078817.852          50.000                                                  
G18  22621722.360   118877950.762          50.000                                                  
G21  23236000.580   122105976.488          50.000                                                  
G25  20579521.500   108146060.008          50.000    20579523.720    80758421.855          50.000  
G29  21001077.440   110361404.602          50.000                                                  
G31  24493155.620   128712402.805          50.000                                                  
E 3  27655084.820   145328394.152          50.000    27655091.720   108524429.359          50.000  
E 5  27083472.960   142324570.941          50.000    27083478.560   106281320.023          50.000  
E15  23714464.940   124620324.805          50.000    23714469.800    93060620.758          50.000  
E27  24510267.460   128802301.801          50.000    24510271.500    96183525.746          50.000  
E30  23336135.220   122632197.711          50.000    23336139.520    91575980.535          50.000  
> 2020  5 15 23 56 39.0000000  0 13       0.000000000000
G 2  23661864.000   124343961.340          50.000                                                  
G 5  21097760.460   110869477.656          50.000                                                  
G12  21709042.180   114081779.199          50.000                                                  
G18  22621248.200   118875459.074          50.000                                                  
G21  23235594.140   122103840.645          50.000                                                  
G25  20579784.700   108147443.152          50.000    20579786.920    80759454.723          50.000  
G29  21000819.720   110360050.289          50.000                                                  
G31  24493265.940   128712982.551          50.000                                                  
E 3  27654594.880   145325819.438          50.000    27654601.780   108522506.684          50.000  
E 5  27083194.360   142323106.926          50.000    27083199.960   106280226.766          50.000  
E15  23714355.220   124619748.227          50.000    23714360.080    93060190.199          50.000  
E27  24510157.380   128801723.320          50.000    24510161.420    96183093.762          50.000  
E30  23336552.320   122634389.641          50.000    23336556.620    91577617.367          50.000  
> 2020  5 15 23 56 40.0000000  0 13       0.000000000000
G 2  23662336.480   124346444.168          50.000                                                  
G 5  21097858.540   110869993.121          50.000                                                  
G12  21709605.780   114084740.941          50.000                                                  
G18  22620774.100   118872967.672          50.000                                                  
G21  23235187.760   122101705.074          50.000                                                  
G25  20580048.020   108148826.902          50.000    20580050.240    80760488.039          50.000  
G29  21000562.060   110358696.184          50.000                                                  
G31  24493376.360   128713562.801          50.000                                                  
E 3  27654104.920   145323244.703          50.000    27654111.820   108520583.996          50.000  
E 5  27082915.820   142321643.227          50.000    27082921.440   106279133.746          50.000  
E15  23714245.540   124619171.813          50.000    23714250.400    93059759.758          50.000  
E27  24510047.400   128801145.316          50.000    24510051.420    96182662.137          50.000  
E30  23336969.500   122636581.906          50.000    23336973.800    91579254.445          50.000  
> 2020  5 15 23 56 41.0000000  0 13       0.000000000000
G 2  23662808.940   124348927.027          50.000                                                  
G 5  21097956.760   110870509.273          50.000                                                  
G12  21710169.460   114087703.090          50.000                                                  
G18  22620300.060   118870476.547          50.000                                                  
G21  23234781.420   122099569.770          50.000                                                  
G25  20580311.460   108150211.266          50.000    20580313.680    80761521.816          50.000  
G29  21000304.420   110357342.293          50.000                                                  
G31  24493486.880   128714143.574          50.000                                                  
E 3  27653614.960   145320669.934          50.000    27653621.860   108518661.281          50.000  
E 5  27082637.360   142320179.855          50.000    27082642.960   106278040.969          50.000  
E15  23714135.880   124618595.555          50.000    23714140.740    93059329.438          50.000  
E27  24509937.500   128800567.785          50.000    24509941.520    96182230.863          50.000  
E30  23337386.740   122638774.516          50.000    23337391.040    91580891.781          50.000  
> 2020  5 15 23 56 42.0000000  0 13       0.000000000000
G 2  23663281.420   124351409.883          50.000                                                  
G 5  21098055.120   110871026.113          50.000                                                  
G12  21710733.200   114090665.641          50.000                                                  
G18  22619826.060   118867985.711          50.000                                                  
G21  23234375.140   122097434.730          50.000                                                  
G25  20580575.000   108151596.234          50.000    20580577.220    80762556.047          50.000  
G29  21000046.820   110355988.621          50.000                                                  
G31  24493597.500   128714724.871          50.000                                                  
E 3  27653124.980   145318095.129          50.000    27653131.880   108516738.535          50.000  
E 5  27082358.960   142318716.813          50.000    27082364.560   106276948.438          50.000  
E15  23714026.240   124618019.453          50.000    23714031.120    93058899.230          50.000  
E27  24509827.680   128799990.742          50.000    24509831.720    96181799.957          50.000  
E30  23337804.040   122640967.461          50.000    23337808.340    91582529.371          50.000  
> 2020  5 15 23 56 43.0000000  0 13       0.000000000000
G 2  23663753.900   124353892.770          50.000                                                  
G 5  21098153.600   110871543.641          50.000                                                  
G12  21711297.040   114093628.602          50.000                                                  
G18  22619352.120   118865495.164          50.000                                                  
G21  23233968.900   122095299.961          50.000                                                  
G25  20580838.680   108152981.832          50.000    20580840.900    80763590.746          50.000  
G29  20999789.260   110354635.172          50.000                                                  
G31  24493708.200   128715306.688          50.000                                                  
E 3  27652635.000   145315520.313          50.000    27652641.920   108514815.785          50.000  
E 5  27082080.600   142317254.070          50.000    27082086.200   106275856.133          50.000  
E15  23713916.640   124617443.527          50.000    23713921.520    93058469.152          50.000  
E27  24509717.960   128799414.164          50.000    24509722.000    96181369.391          50.000  
E30  23338221.420   122643160.742          50.000    23338225.720    91584167.207          50.000  
> 2020  5 15 23 56 44.0000000  0 13       0.000000000000
G 2  23664226.380   124356375.652          50.000                                                  
G 5  21098252.220   110872061.848          50.000                                                  
G12  21711860.940   114096591.957          50.000                                                  
G18  22618878.240   118863004.891          50.000                                                  
G21  23233562.720   122093165.484          50.000                                                  
G25  20581102.460   108154368.020          50.000    20581104.680    80764625.883          50.000  
G29  20999531.760   110353281.930          50.000                                                  
G31  24493819.020   128715889.020          50.000                                                  
E 3  27652145.020   145312945.457          50.000    27652151.940   108512893.008          50.000  
E 5  27081802.320   142315791.660          50.000    27081807.920   106274764.070          50.000  
E15  23713807.080   124616867.746          50.000    23713811.960    93058039.191          50.000  
E27  24509608.340   128798838.055          50.000    24509612.360    96180939.180          50.000  
E30  23338638.840   122645354.367          50.000    23338643.160    91585805.305          50.000  
> 2020  5 15 23 56 45.0000000  0 13       0.000000000000
G 2  23664698.860   124358858.566          50.000                                                  
G 5  21098350.960   110872580.746          50.000                                                  
G12  21712424.940   114099555.727          50.000                                                  
G18  22618404.420   118860514.914          50.000                                                  
G21  23233156.600   122091031.266          50.000                                                  
G25  20581366.360   108155754.824          50.000    20581368.580    80765661.484          50.000  
G29  20999274.280   110351928.918          50.000                                                  
G31  24493929.940   128716471.867          50.000                                                  
E 3  27651655.040   145310370.578          50.000    27651661.940   108510970.211          50.000  
E 5  27081524.080   142314329.563          50.000    27081529.680   106273672.246          50.000  
E15  23713697.540   124616292.121          50.000    23713702.420    93057609.340          50.000  
E27  24509498.800   128798262.422          50.000    24509502.820    96180509.324          50.000  
E30  23339056.340   122647548.336          50.000    23339060.660    91587443.656          50.000  
> 2020  5 15 23 56 46.0000000  0 13       0.000000000000
G 2  23665171.340   124361341.480          50.000                                                  
G 5  21098449.840   110873100.336          50.000                                                  
G12  21712989.000   114102519.883          50.000                                                  
G18  22617930.640   118858025.207          50.000                                                  
G21  23232750.520   122088897.309          50.000                                                  
G25  20581630.380   108157142.238          50.000    20581632.600    80766697.539          50.000  
G29  20999016.860   110350576.098          50.000                                                  
G31  24494040.940   128717055.230          50.000                                                  
E 3  27651165.060   145307795.672          50.000    27651171.960   108509047.391          50.000  
E 5  27081245.920   142312867.797          50.000    27081251.520   106272580.672          50.000  
E15  23713588.040   124615716.668          50.000    23713592.900    93057179.617          50.000  
E27  24509389.360   128797687.266          50.000    24509393.380    96180079.824          50.000  
E30  23339473.900   122649742.637          50.000    23339478.220    91589082.258          50.000  
> 2020  5 15 23 56 47.0000000  0 13       0.000000000000
G 2  23665643.820   124363824.414          50.000                                                  
G 5  21098548.840   110873620.613          50.000                                                  
G12  21713553.140   114105484.453          50.000                                                  
G18  22617456.920   118855535.797          50.000                                                  
G21  23232344.500   122086763.625          50.000                                                  
G25  20581894.520   108158530.270          50.000    20581896.740    80767734.059          50.000  
G29  20998759.460   110349223.512          50.000                                                  
G31  24494152.060   128717639.117          50.000                                                  
E 3  27650675.060   145305220.730          50.000    27650681.960   108507124.547          50.000  
E 5  27080967.820   142311406.344          50.000    27080973.420   106271489.324          50.000  
E15  23713478.560   124615141.371          50.000    23713483.440    93056750.012          50.000  
E27  24509280.000   128797112.574          50.000    24509284.020    96179650.672          50.000  
E30  23339891.540   122651937.281          50.000    23339895.840    91590721.117          50.000  
> 2020  5 15 23 56 48.0000000  0 13       0.000000000000
G 2  23666116.320   124366307.355          50.000                                                  
G 5  21098647.980   110874141.582          50.000                                                  
G12  21714117.360   114108449.418          50.000                                                  
G18  22616983.260   118853046.664          50.000                                                  
G21  23231938.520   122084630.195          50.000                                                  
G25  20582158.760   108159918.895          50.000    20582160.980    80768771.016          50.000  
G29  20998502.120   110347871.145          50.000                                                  
G31  24494263.260   128718223.516          50.000                                                  
E 3  27650185.060   145302645.770          50.000    27650191.960   108505201.688          50.000  
E 5  27080689.760   142309945.215          50.000    27080695.360   106270398.223          50.000  
E15  23713369.120   124614566.234          50.000    23713373.980    93056320.527          50.000  
E27  24509170.720   128796538.363          50.000    24509174.760    96179221.879          50.000  
E30  23340309.220   122654132.270          50.000    23340313.540    91592360.227          50.000  
> 2020  5 15 23 56 49.0000000  0 13       0.000000000000
G 2  23666588.820   124368790.316          50.000                                                  
G 5  21098747.240   110874663.242          50.000                                                  
G12  21714681.640   114111414.797          50.000                                                  
G18  22616509.640   118850557.813          50.000                                                  
G21  23231532.580   122082497.031          50.000                                                  
G25  20582423.120   108161308.137          50.000    20582425.340    80769808.438          50.000  
G29  20998244.800   110346518.988          50.000                                                  
G31  24494374.580   128718808.434          50.000                                                  
E 3  27649695.060   145300070.770          50.000    27649701.960   108503278.801          50.000  
E 5  27080411.780   142308484.402          50.000    27080417.380   106269307.355          50.000  
E15  23713259.700   124613991.254          50.000    23713264.580    93055891.156          50.000  
E27  24509061.540   128795964.621          50.000    24509065.580    96178793.434          50.000  
E30  23340726.980   122656327.594          50.000    23340731.300    91593999.594          50.000  
> 2020  5 15 23 56 50.0000000  0 13       0.000000000000
G 2  23667061.300   124371273.293          50.000                                                  
G 5  21098846.640   110875185.578          50.000                                                  
G12  21715246.020   114114380.566          50.000                                                  
G18  22616036.080   118848069.246          50.000                                                  
G21  23231126.700   122080364.137          50.000                                                  
G25  20582687.600   108162697.996          50.000    20582689.820    80770846.320          50.000  
G29  20997987.540   110345167.043          50.000                                                  
G31  24494485.980   128719393.863          50.000                                                  
E 3  27649205.040   145297495.746          50.000    27649211.940   108501355.895          50.000  
E 5  27080133.860   142307023.910          50.000    27080139.460   106268216.730          50.000  
E15  23713150.320   124613416.430          50.000    23713155.180    93055461.910          50.000  
E27  24508952.460   128795391.355          50.000    24508956.480    96178365.344          50.000  
E30  23341144.800   122658523.250          50.000    23341149.120    91595639.207          50.000  
> 2020  5 15 23 56 51.0000000  0 13       0.000000000000
G 2  23667533.800   124373756.281          50.000                                                  
G 5  21098946.160   110875708.609          50.000                                                  
G12  21715810.460   114117346.746          50.000                                                  
G18  22615562.580   118845580.961          50.000                                                  
G21  23230720.880   122078231.500          50.000                                                  
G25  20582952.200   108164088.465          50.000    20582954.420    80771884.656          50.000  
G29  20997730.320   110343815.324          50.000                                                  
G31  24494597.480   128719979.813          50.000                                                  
E 3  27648715.020   145294920.699          50.000    27648721.920   108499432.973          50.000  
E 5  27079856.000   142305563.738          50.000    27079861.600   106267126.344          50.000  
E15  23713040.960   124612841.770          50.000    23713045.840    93055032.777          50.000  
E27  24508843.460   128794818.559          50.000    24508847.480    96177937.609          50.000  
E30  23341562.680   122660719.242          50.000    23341567.000    91597279.066          50.000  
> 2020  5 15 23 56 52.0000000  0 13       0.000000000000
G 2  23668006.300   124376239.277          50.000                                                  
G 5  21099045.820   110876232.324          50.000                                                  
G12  21716374.980   114120313.320          50.000                                                  
G18  22615089.120   118843092.965          50.000                                                  
G21  23230315.100   122076099.133          50.000                                                  
G25  20583216.920   108165479.535          50.000    20583219.140    80772923.441          50.000  
G29  20997473.140   110342463.813          50.000                                                  
G31  24494709.080   128720566.285          50.000                                                  
E 3  27648225.000   145292345.617          50.000    27648231.900   108497510.023          50.000  
E 5  27079578.200   142304103.891          50.000    27079583.800   106266036.199          50.000  
E15  23712931.640   124612267.273          50.000    23712936.520    93054603.770          50.000  
E27  24508734.540   128794246.242          50.000    24508738.580    96177510.230          50.000  
E30  23341980.640   122662915.566          50.000    23341984.940    91598919.180          50.000  
> 2020  5 15 23 56 53.0000000  0 13       0.000000000000
G 2  23668478.800   124378722.281          50.000                                                  
G 5  21099145.620   110876756.723          50.000                                                  
G12  21716939.580   114123280.301          50.000                                                  
G18  22614615.720   118840605.246          50.000                                                  
G21  23229909.380   122073967.020          50.000                                                  
G25  20583481.740   108166871.207          50.000    20583483.960    80773962.676          50.000  
G29  20997215.980   110341112.512          50.000                                                  
G31  24494820.780   128721153.266          50.000                                                  
E 3  27647734.980   145289770.520          50.000    27647741.880   108495587.063          50.000  
E 5  27079300.460   142302644.363          50.000    27079306.060   106264946.293          50.000  
E15  23712822.340   124611692.926          50.000    23712827.220    93054174.875          50.000  
E27  24508625.720   128793674.391          50.000    24508629.760    96177083.195          50.000  
E30  23342398.640   122665112.238          50.000    23342402.960    91600559.551          50.000  
> 2020  5 15 23 56 54.0000000  0 13       0.000000000000
G 2  23668951.300   124381205.309          50.000                                                  
G 5  21099245.540   110877281.816          50.000                                                  
G12  21717504.260   114126247.684          50.000                                                  
G18  22614142.380   118838117.813          50.000                                                  
G21  23229503.700   122071835.176          50.000                                                  
G25  20583746.680   108168263.496          50.000    20583748.900    80775002.371          50.000  
G29  20996958.880   110339761.438          50.000                                                  
G31  24494932.580   128721740.770          50.000                                                  
E 3  27647244.940   145287195.391          50.000    27647251.840   108493664.074          50.000  
E 5  27079022.780   142301185.148          50.000    27079028.380   106263856.617          50.000  
E15  23712713.080   124611118.738          50.000    23712717.960    93053746.098          50.000  
E27  24508517.000   128793103.023          50.000    24508521.020    96176656.523          50.000  
E30  23342816.720   122667309.258          50.000    23342821.040    91602200.184          50.000  
> 2020  5 15 23 56 55.0000000  0 13       0.000000000000
G 2  23669423.820   124383688.340          50.000                                                  
G 5  21099345.600   110877807.590          50.000                                                  
G12  21718069.000   114129215.465          50.000                                                  
G18  22613669.100   118835630.664          50.000                                                  
G21  23229098.080   122069703.602          50.000                                                  
G25  20584011.740   108169656.398          50.000    20584013.960    80776042.527          50.000  
G29  20996701.820   110338410.586          50.000                                                  
G31  24495044.480   128722328.797          50.000                                                  
E 3  27646754.900   145284620.230          50.000    27646761.800   108491741.070          50.000  
E 5  27078745.160   142299726.270          50.000    27078750.760   106262767.195          50.000  
E15  23712603.840   124610544.719          50.000    23712608.720    93053317.449          50.000  
E27  24508408.360   128792532.125          50.000    24508412.400    96176230.203          50.000  
