     3.03           OBSERVATION DATA    M: Mixed            RINEX VERSION / TYPE
sbp2rinex v2.2 (RTKL                    20210504 171525 UTC PGM / RUN BY / DATE 
log: 2020-05-29-US-MTV-2.sbp                                COMMENT             
format: Swift Navigation SBP, option: CONVBASE,EPHALL,OBSALLCOMMENT             
                                                            MARKER NAME         
                                                            MARKER NUMBER       
                                                            MARKER TYPE         
                                                            OBSERVER / AGENCY   
                                                            REC # / TYPE / VERS 
                                                            ANT # / TYPE        
 -2742494.8151 -4329263.4988  3784240.0183                  APPROX POSITION XYZ 
        0.0000        0.0000        0.0000                  ANTENNA: DELTA H/E/N
G    6 C1C L1C S1C C5I L5I S5I                              SYS / # / OBS TYPES 
E    6 C1B L1B S1B C5I L5I S5I                              SYS / # / OBS TYPES 
  2020     5    29    23    27    0.0000000     GPS         TIME OF FIRST OBS   
  2020     5    30     0     1   13.0000000     GPS         TIME OF LAST OBS    
G                                                           SYS / PHASE SHIFT   
E                                                           SYS / PHASE SHIFT   
  0                                                         GLONASS SLOT / FRQ #
 C1C    0.000 C1P    0.000 C2C    0.000 C2P    0.000        GLONASS COD/PHS/BIS 
                                                            END OF HEADER       
> 2020  5 29 23 27  0.0000000  0 14       0.000000000000
G 2  24431722.820   128389570.980          50.000                                                  
G 5  21438567.420   112660347.578          50.000                                                  
G12  22714398.040   119364945.488          50.000                                                  
G21  23331791.120   122609380.746          50.000                                                  
G25  21188116.300   111344235.438          50.000    21188119.100    83146666.406          50.000  
G29  20630775.000   108415448.359          50.000                                                  
G31  24805318.200   130352737.238          50.000                                                  
E 2  24271145.300   127545716.363          50.000    24271149.240    95245167.086          50.000  
E 4  27393448.800   143953528.102          50.000    27393453.000   107497751.879          50.000  
E 9  24545160.760   128985646.078          50.000    24545166.600    96320432.477          50.000  
E11  25328453.260   133101931.137          50.000    25328454.160    99394289.609          50.000  
E25  26611787.300   139845815.445          50.000    26611795.380   104430292.063          50.000  
E30  24710333.340   129853644.645          50.000    24710338.380    96968615.766          50.000  
E36  23546397.280   123737117.902          50.000    23546402.300    92401081.488          50.000  
> 2020  5 29 23 27  1.0000000  0 14       0.000000000000
G 2  24432191.020   128392031.367          50.000                                                  
G 5  21438874.480   112661961.164          50.000                                                  
G12  22715064.720   119368448.922          50.000                                                  
G21  23331409.880   122607377.340          50.000                                                  
G25  21188562.920   111346582.391          50.000    21188565.720    83148419.000          50.000  
G29  20630600.280   108414530.109          50.000                                                  
G31  24805578.360   130354104.418          50.000                                                  
E 2  24271398.720   127547048.055          50.000    24271402.660    95246161.527          50.000  
E 4  27393453.220   143953551.344          50.000    27393457.420   107497769.234          50.000  
E 9  24544770.260   128983594.008          50.000    24544776.100    96318900.090          50.000  
E11  25328807.060   133103790.359          50.000    25328807.960    99395677.988          50.000  
E25  26612372.700   139848891.730          50.000    26612380.780   104432589.289          50.000  
E30  24710076.840   129852296.734          50.000    24710081.880    96967609.211          50.000  
E36  23546479.500   123737550.035          50.000    23546484.520    92401404.184          50.000  
> 2020  5 29 23 27  2.0000000  0 14       0.000000000000
G 2  24432659.220   128394491.723          50.000                                                  
G 5  21439181.640   112663575.379          50.000                                                  
G12  22715731.460   119371952.617          50.000                                                  
G21  23331028.680   122605374.168          50.000                                                  
G25  21189009.620   111348929.852          50.000    21189012.420    83150171.973          50.000  
G29  20630425.580   108413612.145          50.000                                                  
G31  24805838.600   130355471.996          50.000                                                  
E 2  24271652.220   127548380.188          50.000    24271656.140    95247156.301          50.000  
E 4  27393457.740   143953575.027          50.000    27393461.920   107497786.918          50.000  
E 9  24544379.800   128981542.180          50.000    24544385.640    96317367.883          50.000  
E11  25329160.860   133105649.578          50.000    25329161.760    99397066.363          50.000  
E25  26612958.120   139851968.117          50.000    26612966.200   104434886.586          50.000  
E30  24709820.420   129850949.254          50.000    24709825.460    96966602.977          50.000  
E36  23546561.760   123737982.281          50.000    23546566.780    92401726.965          50.000  
> 2020  5 29 23 27  3.0000000  0 14       0.000000000000
G 2  24433127.400   128396952.047          50.000                                                  
G 5  21439488.940   112665190.176          50.000                                                  
G12  22716398.240   119375456.582          50.000                                                  
G21  23330647.540   122603371.230          50.000                                                  
G25  21189456.420   111351277.813          50.000    21189459.220    83151925.320          50.000  
G29  20630250.960   108412694.457          50.000                                                  
G31  24806098.920   130356839.965          50.000                                                  
E 2  24271905.800   127549712.777          50.000    24271909.740    95248151.418          50.000  
E 4  27393462.320   143953599.156          50.000    27393466.520   107497804.938          50.000  
E 9  24543989.400   128979490.605          50.000    24543995.240    96315835.859          50.000  
E11  25329514.660   133107508.805          50.000    25329515.560    99398454.746          50.000  
E25  26613543.540   139855044.566          50.000    26613551.620   104437183.934          50.000  
E30  24709564.100   129849602.195          50.000    24709569.140    96965597.055          50.000  
E36  23546644.040   123738414.641          50.000    23546649.060    92402049.832          50.000  
> 2020  5 29 23 27  4.0000000  0 14       0.000000000000
G 2  24433595.580   128399412.344          50.000                                                  
G 5  21439796.340   112666805.613          50.000                                                  
G12  22717065.080   119378960.797          50.000                                                  
G21  23330266.440   122601368.520          50.000                                                  
G25  21189903.320   111353626.277          50.000    21189906.120    83153679.043          50.000  
G29  20630076.380   108411777.078          50.000                                                  
G31  24806359.320   130358208.340          50.000                                                  
E 2  24272159.460   127551045.781          50.000    24272163.400    95249146.840          50.000  
E 4  27393467.000   143953623.730          50.000    27393471.180   107497823.289          50.000  
E 9  24543599.040   128977439.254          50.000    24543604.880    96314304.012          50.000  
E11  25329868.460   133109368.023          50.000    25329869.360    99399843.125          50.000  
E25  26614129.000   139858121.137          50.000    26614137.080   104439481.367          50.000  
E30  24709307.840   129848255.563          50.000    24709312.880    96964591.453          50.000  
E36  23546726.320   123738847.105          50.000    23546731.360    92402372.773          50.000  
> 2020  5 29 23 27  5.0000000  0 14       0.000000000000
G 2  24434063.760   128401872.605          50.000                                                  
G 5  21440103.860   112668421.645          50.000                                                  
G12  22717731.960   119382465.270          50.000                                                  
G21  23329885.360   122599366.035          50.000                                                  
G25  21190350.320   111355975.242          50.000    21190353.120    83155433.141          50.000  
G29  20629901.860   108410859.973          50.000                                                  
G31  24806619.780   130359577.113          50.000                                                  
E 2  24272413.200   127552379.234          50.000    24272417.140    95250142.602          50.000  
E 4  27393471.760   143953648.750          50.000    27393475.940   107497841.973          50.000  
E 9  24543208.740   128975388.160          50.000    24543214.580    96312772.352          50.000  
E11  25330222.260   133111227.223          50.000    25330223.160    99401231.488          50.000  
E25  26614714.460   139861197.781          50.000    26614722.540   104441778.859          50.000  
E30  24709051.660   129846909.359          50.000    24709056.700    96963586.172          50.000  
E36  23546808.640   123739279.676          50.000    23546813.660    92402695.797          50.000  
> 2020  5 29 23 27  6.0000000  0 14       0.000000000000
G 2  24434531.920   128404332.844          50.000                                                  
G 5  21440411.500   112670038.289          50.000                                                  
G12  22718398.880   119385970.004          50.000                                                  
G21  23329504.360   122597363.777          50.000                                                  
G25  21190797.400   111358324.723          50.000    21190800.200    83157187.621          50.000  
G29  20629727.400   108409943.148          50.000                                                  
G31  24806880.320   130360946.285          50.000                                                  
E 2  24272667.040   127553713.137          50.000    24272670.980    95251138.695          50.000  
E 4  27393476.600   143953674.211          50.000    27393480.800   107497860.988          50.000  
E 9  24542818.460   128973337.305          50.000    24542824.300    96311240.871          50.000  
E11  25330576.060   133113086.434          50.000    25330576.960    99402619.859          50.000  
E25  26615299.960   139864274.531          50.000    26615308.040   104444076.430          50.000  
E30  24708795.560   129845563.586          50.000    24708800.600    96962581.215          50.000  
E36  23546890.980   123739712.348          50.000    23546896.000    92403018.898          50.000  
> 2020  5 29 23 27  7.0000000  0 14       0.000000000000
G 2  24435000.080   128406793.055          50.000                                                  
G 5  21440719.240   112671655.531          50.000                                                  
G12  22719065.860   119389474.984          50.000                                                  
G21  23329123.380   122595361.754          50.000                                                  
G25  21191244.600   111360674.699          50.000    21191247.400    83158942.473          50.000  
G29  20629553.000   108409026.617          50.000                                                  
G31  24807140.940   130362315.852          50.000                                                  
E 2  24272920.960   127555047.453          50.000    24272924.880    95252135.102          50.000  
E 4  27393481.540   143953700.113          50.000    27393485.720   107497880.328          50.000  
E 9  24542428.240   128971286.695          50.000    24542434.080    96309709.574          50.000  
E11  25330929.840   133114945.633          50.000    25330930.740    99404008.219          50.000  
E25  26615885.460   139867351.371          50.000    26615893.540   104446374.066          50.000  
E30  24708539.560   129844218.230          50.000    24708544.600    96961576.563          50.000  
E36  23546973.340   123740145.125          50.000    23546978.360    92403342.078          50.000  
> 2020  5 29 23 27  8.0000000  0 14       0.000000000000
G 2  24435468.240   128409253.242          50.000                                                  
G 5  21441027.120   112673273.383          50.000                                                  
G12  22719732.900   119392980.234          50.000                                                  
G21  23328742.440   122593359.965          50.000                                                  
G25  21191691.880   111363025.176          50.000    21191694.680    83160697.695          50.000  
G29  20629378.640   108408110.367          50.000                                                  
G31  24807401.640   130363685.824          50.000                                                  
E 2  24273174.960   127556382.215          50.000    24273178.880    95253131.840          50.000  
E 4  27393486.540   143953726.469          50.000    27393490.740   107497900.012          50.000  
E 9  24542038.080   128969236.332          50.000    24542043.920    96308178.461          50.000  
E11  25331283.640   133116804.824          50.000    25331284.540    99405396.578          50.000  
E25  26616470.980   139870428.289          50.000    26616479.060   104448671.766          50.000  
E30  24708283.620   129842873.313          50.000    24708288.660    96960572.242          50.000  
E36  23547055.720   123740578.023          50.000    23547060.740    92403665.344          50.000  
> 2020  5 29 23 27  9.0000000  0 14       0.000000000000
G 2  24435936.400   128411713.395          50.000                                                  
G 5  21441335.100   112674891.828          50.000                                                  
G12  22720399.960   119396485.742          50.000                                                  
G21  23328361.560   122591358.402          50.000                                                  
G25  21192139.260   111365376.160          50.000    21192142.060    83162453.301          50.000  
G29  20629204.340   108407194.406          50.000                                                  
G31  24807662.420   130365056.180          50.000                                                  
E 2  24273429.020   127557717.406          50.000    24273432.960    95254128.898          50.000  
E 4  27393491.640   143953753.262          50.000    27393495.840   107497920.020          50.000  
E 9  24541647.940   128967186.211          50.000    24541653.780    96306647.527          50.000  
E11  25331637.440   133118664.020          50.000    25331638.340    99406784.934          50.000  
E25  26617056.520   139873505.301          50.000    26617064.600   104450969.527          50.000  
E30  24708027.780   129841528.820          50.000    24708032.820    96959568.242          50.000  
E36  23547138.100   123741011.016          50.000    23547143.140    92403988.684          50.000  
> 2020  5 29 23 27 10.0000000  0 14       0.000000000000
G 2  24436404.540   128414173.512          50.000                                                  
G 5  21441643.200   112676510.871          50.000                                                  
G12  22721067.100   119399991.492          50.000                                                  
G21  23327980.720   122589357.078          50.000                                                  
G25  21192586.720   111367727.637          50.000    21192589.520    83164209.273          50.000  
G29  20629030.080   108406278.734          50.000                                                  
G31  24807923.260   130366426.949          50.000                                                  
E 2  24273683.200   127559053.043          50.000    24273687.120    95255126.289          50.000  
E 4  27393496.840   143953780.496          50.000    27393501.020   107497940.355          50.000  
E 9  24541257.860   128965136.324          50.000    24541263.700    96305116.770          50.000  
E11  25331991.220   133120523.199          50.000    25331992.120    99408173.285          50.000  
E25  26617642.060   139876582.402          50.000    26617650.160   104453267.363          50.000  
E30  24707772.000   129840184.750          50.000    24707777.040    96958564.551          50.000  
E36  23547220.520   123741444.117          50.000    23547225.540    92404312.102          50.000  
> 2020  5 29 23 27 11.0000000  0 14       0.000000000000
G 2  24436872.680   128416633.605          50.000                                                  
G 5  21441951.400   112678130.516          50.000                                                  
G12  22721734.260   119403497.516          50.000                                                  
G21  23327599.920   122587355.980          50.000                                                  
G25  21193034.300   111370079.613          50.000    21193037.100    83165965.617          50.000  
G29  20628855.900   108405363.352          50.000                                                  
G31  24808184.180   130367798.109          50.000                                                  
E 2  24273937.440   127560389.129          50.000    24273941.380    95256124.012          50.000  
E 4  27393502.100   143953808.172          50.000    27393506.280   107497961.023          50.000  
E 9  24540867.840   128963086.684          50.000    24540873.660    96303586.195          50.000  
E11  25332345.020   133122382.383          50.000    25332345.920    99409561.637          50.000  
E25  26618227.640   139879659.598          50.000    26618235.740   104455565.266          50.000  
E30  24707516.320   129838841.109          50.000    24707521.360    96957561.184          50.000  
E36  23547302.960   123741877.320          50.000    23547307.980    92404635.598          50.000  
> 2020  5 29 23 27 12.0000000  0 14       0.000000000000
G 2  24437340.820   128419093.668          50.000                                                  
G 5  21442259.720   112679750.781          50.000                                                  
G12  22722401.500   119407003.801          50.000                                                  
G21  23327219.180   122585355.117          50.000                                                  
G25  21193481.960   111372432.105          50.000    21193484.760    83167722.348          50.000  
G29  20628681.760   108404448.238          50.000                                                  
G31  24808445.180   130369169.676          50.000                                                  
E 2  24274191.780   127561725.633          50.000    24274195.700    95257122.051          50.000  
E 4  27393507.440   143953836.293          50.000    27393511.640   107497982.023          50.000  
E 9  24540477.840   128961037.289          50.000    24540483.680    96302055.805          50.000  
E11  25332698.800   133124241.566          50.000    25332699.700    99410949.984          50.000  
E25  26618813.240   139882736.883          50.000    26618821.320   104457863.234          50.000  
E30  24707260.720   129837497.887          50.000    24707265.760    96956558.133          50.000  
E36  23547385.420   123742310.641          50.000    23547390.440    92404959.184          50.000  
> 2020  5 29 23 27 13.0000000  0 14       0.000000000000
G 2  24437808.960   128421553.703          50.000                                                  
G 5  21442568.160   112681371.641          50.000                                                  
G12  22723068.760   119410510.336          50.000                                                  
G21  23326838.460   122583354.496          50.000                                                  
G25  21193929.720   111374785.086          50.000    21193932.520    83169479.441          50.000  
G29  20628507.680   108403533.438          50.000                                                  
G31  24808706.260   130370541.637          50.000                                                  
E 2  24274446.180   127563062.586          50.000    24274450.120    95258120.426          50.000  
E 4  27393512.880   143953864.859          50.000    27393517.080   107498003.355          50.000  
E 9  24540087.900   128958988.145          50.000    24540093.740    96300525.602          50.000  
E11  25333052.600   133126100.727          50.000    25333053.500    99412338.316          50.000  
E25  26619398.840   139885814.258          50.000    26619406.920   104460161.270          50.000  
E30  24707005.200   129836155.102          50.000    24707010.220    96955555.402          50.000  
E36  23547467.900   123742744.059          50.000    23547472.920    92405282.836          50.000  
> 2020  5 29 23 27 14.0000000  0 14       0.000000000000
G 2  24438277.080   128424013.715          50.000                                                  
G 5  21442876.720   112682993.109          50.000                                                  
G12  22723736.100   119414017.137          50.000                                                  
G21  23326457.800   122581354.113          50.000                                                  
G25  21194377.580   111377138.590          50.000    21194380.380    83171236.930          50.000  
G29  20628333.640   108402618.906          50.000                                                  
G31  24808967.420   130371913.988          50.000                                                  
E 2  24274700.680   127564399.969          50.000    24274704.620    95259119.117          50.000  
E 4  27393518.400   143953893.871          50.000    27393522.600   107498025.020          50.000  
E 9  24539698.000   128956939.238          50.000    24539703.840    96298995.578          50.000  
E11  25333406.380   133127959.887          50.000    25333407.280    99413726.652          50.000  
E25  26619984.460   139888891.723          50.000    26619992.560   104462459.375          50.000  
E30  24706749.740   129834812.730          50.000    24706754.780    96954552.980          50.000  
E36  23547550.380   123743177.582          50.000    23547555.420    92405606.574          50.000  
> 2020  5 29 23 27 15.0000000  0 14       0.000000000000
G 2  24438745.200   128426473.688          50.000                                                  
G 5  21443185.380   112684615.180          50.000                                                  
G12  22724403.460   119417524.188          50.000                                                  
G21  23326077.180   122579353.957          50.000                                                  
G25  21194825.520   111379492.590          50.000    21194828.320    83172994.789          50.000  
G29  20628159.660   108401704.668          50.000                                                  
G31  24809228.640   130373286.738          50.000                                                  
E 2  24274955.260   127565737.789          50.000    24274959.200    95260118.141          50.000  
E 4  27393524.000   143953923.328          50.000    27393528.200   107498047.016          50.000  
E 9  24539308.160   128954890.578          50.000    24539314.000    96297465.734          50.000  
E11  25333760.160   133129819.043          50.000    25333761.060    99415114.980          50.000  
E25  26620570.100   139891969.277          50.000    26620578.200   104464757.547          50.000  
E30  24706494.380   129833470.797          50.000    24706499.420    96953550.891          50.000  
E36  23547632.900   123743611.227          50.000    23547637.940    92405930.398          50.000  
> 2020  5 29 23 27 16.0000000  0 14       0.000000000000
G 2  24439213.320   128428933.641          50.000                                                  
G 5  21443494.180   112686237.852          50.000                                                  
G12  22725070.880   119421031.500          50.000                                                  
G21  23325696.620   122577354.039          50.000                                                  
G25  21195273.580   111381847.094          50.000    21195276.380    83174753.020          50.000  
G29  20627985.740   108400790.719          50.000                                                  
G31  24809489.940   130374659.895          50.000                                                  
E 2  24275209.920   127567076.043          50.000    24275213.860    95261117.484          50.000  
E 4  27393529.700   143953953.227          50.000    27393533.880   107498069.344          50.000  
E 9  24538918.360   128952842.164          50.000    24538924.200    96295936.074          50.000  
E11  25334113.960   133131678.203          50.000    25334114.860    99416503.316          50.000  
E25  26621155.760   139895046.930          50.000    26621163.860   104467055.789          50.000  
E30  24706239.100   129832129.285          50.000    24706244.140    96952549.113          50.000  
E36  23547715.440   123744044.965          50.000    23547720.480    92406254.293          50.000  
> 2020  5 29 23 27 17.0000000  0 14       0.000000000000
G 2  24439681.420   128431393.555          50.000                                                  
G 5  21443803.080   112687861.113          50.000                                                  
G12  22725738.360   119424539.066          50.000                                                  
G21  23325316.080   122575354.340          50.000                                                  
G25  21195721.720   111384202.086          50.000    21195724.520    83176511.617          50.000  
G29  20627811.880   108399877.047          50.000                                                  
G31  24809751.320   130376033.453          50.000                                                  
E 2  24275464.660   127568414.742          50.000    24275468.600    95262117.164          50.000  
E 4  27393535.480   143953983.566          50.000    27393539.660   107498092.000          50.000  
E 9  24538528.600   128950793.992          50.000    24538534.440    96294406.598          50.000  
E11  25334467.740   133133537.359          50.000    25334468.640    99417891.645          50.000  
E25  26621741.440   139898124.672          50.000    26621749.540   104469354.102          50.000  
E30  24705983.900   129830788.203          50.000    24705988.940    96951547.656          50.000  
E36  23547798.000   123744478.813          50.000    23547803.040    92406578.273          50.000  
> 2020  5 29 23 27 18.0000000  0 14       0.000000000000
G 2  24440149.520   128433853.441          50.000                                                  
G 5  21444112.100   112689485.020          50.000                                                  
G12  22726405.880   119428046.895          50.000                                                  
G21  23324935.600   122573354.871          50.000                                                  
G25  21196169.960   111386557.594          50.000    21196172.760    83178270.598          50.000  
G29  20627638.080   108398963.664          50.000                                                  
G31  24810012.780   130377407.406          50.000                                                  
E 2  24275719.500   127569753.871          50.000    24275723.440    95263117.160          50.000  
E 4  27393541.340   143954014.355          50.000    27393545.520   107498114.992          50.000  
E 9  24538138.900   128948746.066          50.000    24538144.720    96292877.309          50.000  
E11  25334821.520   133135396.504          50.000    25334822.420    99419279.969          50.000  
E25  26622327.140   139901202.492          50.000    26622335.220   104471652.469          50.000  
E30  24705728.780   129829447.547          50.000    24705733.820    96950546.516          50.000  
E36  23547880.580   123744912.773          50.000    23547885.620    92406902.332          50.000  
> 2020  5 29 23 27 19.0000000  0 14       0.000000000000
G 2  24440617.620   128436313.305          50.000                                                  
G 5  21444421.220   112691109.527          50.000                                                  
G12  22727073.440   119431554.973          50.000                                                  
G21  23324555.140   122571355.637          50.000                                                  
G25  21196618.280   111388913.602          50.000    21196621.080    83180029.953          50.000  
G29  20627464.320   108398050.574          50.000                                                  
G31  24810274.320   130378781.750          50.000                                                  
E 2  24275974.400   127571093.445          50.000    24275978.340    95264117.492          50.000  
E 4  27393547.280   143954045.602          50.000    27393551.460   107498138.324          50.000  
E 9  24537749.240   128946698.387          50.000    24537755.060    96291348.195          50.000  
E11  25335175.300   133137255.656          50.000    25335176.200    99420668.293          50.000  
E25  26622912.840   139904280.398          50.000    26622920.940   104473950.906          50.000  
E30  24705473.740   129828107.324          50.000    24705478.780    96949545.703          50.000  
E36  23547963.180   123745346.832          50.000    23547968.200    92407226.465          50.000  
> 2020  5 29 23 27 20.0000000  0 14       0.000000000000
G 2  24441085.700   128438773.137          50.000                                                  
G 5  21444730.480   112692734.637          50.000                                                  
G12  22727741.060   119435063.320          50.000                                                  
G21  23324174.740   122569356.625          50.000                                                  
G25  21197066.720   111391270.105          50.000    21197069.520    83181789.680          50.000  
G29  20627290.620   108397137.773          50.000                                                  
G31  24810535.920   130380156.492          50.000                                                  
E 2  24276229.400   127572433.449          50.000    24276233.340    95265118.141          50.000  
E 4  27393553.300   143954077.258          50.000    27393557.480   107498161.965          50.000  
E 9  24537359.620   128944650.945          50.000    24537365.440    96289819.266          50.000  
E11  25335529.100   133139114.785          50.000    25335529.980    99422056.605          50.000  
E25  26623498.560   139907358.398          50.000    26623506.660   104476249.410          50.000  
E30  24705218.800   129826767.527          50.000    24705223.820    96948545.203          50.000  
E36  23548045.800   123745781.000          50.000    23548050.820    92407550.684          50.000  
> 2020  5 29 23 27 21.0000000  0 14       0.000000000000
G 2  24441553.800   128441232.938          50.000                                                  
G 5  21445039.840   112694360.359          50.000                                                  
G12  22728408.720   119438571.906          50.000                                                  
G21  23323794.400   122567357.844          50.000                                                  
G25  21197515.240   111393627.113          50.000    21197518.040    83183549.781          50.000  
G29  20627116.960   108396225.254          50.000                                                  
G31  24810797.600   130381531.633          50.000                                                  
E 2  24276484.480   127573773.895          50.000    24276488.420    95266119.125          50.000  
E 4  27393559.420   143954109.371          50.000    27393563.600   107498185.945          50.000  
E 9  24536970.040   128942603.754          50.000    24536975.880    96288290.520          50.000  
E11  25335882.880   133140973.914          50.000    25335883.780    99423444.914          50.000  
E25  26624084.300   139910436.488          50.000    26624092.400   104478547.980          50.000  
E30  24704963.920   129825428.152          50.000    24704968.960    96947545.023          50.000  
E36  23548128.440   123746215.273          50.000    23548133.460    92407874.980          50.000  
> 2020  5 29 23 27 22.0000000  0 14       0.000000000000
G 2  24442021.880   128443692.699          50.000                                                  
G 5  21445349.320   112695986.695          50.000                                                  
G12  22729076.440   119442080.742          50.000                                                  
G21  23323414.080   122565359.297          50.000                                                  
G25  21197963.860   111395984.617          50.000    21197966.660    83185310.254          50.000  
G29  20626943.380   108395313.023          50.000                                                  
G31  24811059.360   130382907.160          50.000                                                  
E 2  24276739.640   127575114.777          50.000    24276743.580    95267120.434          50.000  
E 4  27393565.600   143954141.938          50.000    27393569.800   107498210.266          50.000  
E 9  24536580.520   128940556.801          50.000    24536586.360    96286761.953          50.000  
E11  25336236.660   133142833.043          50.000    25336237.560    99424833.223          50.000  
E25  26624670.060   139913514.668          50.000    26624678.160   104480846.617          50.000  
E30  24704709.120   129824089.203          50.000    24704714.160    96946545.160          50.000  
E36  23548211.100   123746649.652          50.000    23548216.120    92408199.352          50.000  
> 2020  5 29 23 27 23.0000000  0 14       0.000000000000
G 2  24442489.940   128446152.445          50.000                                                  
G 5  21445658.920   112697613.617          50.000                                                  
G12  22729744.200   119445589.855          50.000                                                  
G21  23323033.800   122563360.969          50.000                                                  
G25  21198412.580   111398342.625          50.000    21198415.380    83187071.105          50.000  
G29  20626769.840   108394401.094          50.000                                                  
G31  24811321.180   130384283.094          50.000                                                  
E 2  24276994.880   127576456.090          50.000    24276998.820    95268122.059          50.000  
E 4  27393571.900   143954174.953          50.000    27393576.080   107498234.918          50.000  
E 9  24536191.040   128938510.090          50.000    24536196.880    96285233.566          50.000  
E11  25336590.440   133144692.180          50.000    25336591.340    99426221.539          50.000  
E25  26625255.840   139916592.941          50.000    26625263.940   104483145.324          50.000  
E30  24704454.420   129822750.684          50.000    24704459.440    96945545.617          50.000  
E36  23548293.780   123747084.145          50.000    23548298.800    92408523.813          50.000  
> 2020  5 29 23 27 24.0000000  0 14       0.000000000000
G 2  24442958.020   128448612.156          50.000                                                  
G 5  21445968.620   112699241.133          50.000                                                  
G12  22730412.000   119449099.215          50.000                                                  
G21  23322653.580   122561362.871          50.000                                                  
G25  21198861.380   111400701.145          50.000    21198864.180    83188832.336          50.000  
G29  20626596.360   108393489.441          50.000                                                  
G31  24811583.080   130385659.418          50.000                                                  
E 2  24277250.220   127577797.848          50.000    24277254.160    95269124.023          50.000  
E 4  27393578.260   143954208.406          50.000    27393582.440   107498259.902          50.000  
E 9  24535801.620   128936463.641          50.000    24535807.460    96283705.375          50.000  
E11  25336944.220   133146551.301          50.000    25336945.120    99427609.844          50.000  
E25  26625841.640   139919671.305          50.000    26625849.740   104485444.102          50.000  
E30  24704199.780   129821412.598          50.000    24704204.820    96944546.398          50.000  
E36  23548376.480   123747518.734          50.000    23548381.500    92408848.344          50.000  
> 2020  5 29 23 27 25.0000000  0 14       0.000000000000
G 2  24443426.080   128451071.836          50.000                                                  
G 5  21446278.440   112700869.238          50.000                                                  
G12  22731079.860   119452608.840          50.000                                                  
G21  23322273.400   122559364.992          50.000                                                  
G25  21199310.280   111403060.164          50.000    21199313.100    83190593.938          50.000  
G29  20626422.940   108392578.078          50.000                                                  
G31  24811845.080   130387036.145          50.000                                                  
E 2  24277505.620   127579140.051          50.000    24277509.560    95270126.316          50.000  
E 4  27393584.700   143954242.293          50.000    27393588.900   107498285.207          50.000  
E 9  24535412.240   128934417.430          50.000    24535418.060    96282177.363          50.000  
E11  25337298.000   133148410.414          50.000    25337298.900    99428998.141          50.000  
E25  26626427.440   139922749.750          50.000    26626435.540   104487742.938          50.000  
E30  24703945.240   129820074.934          50.000    24703950.260    96943547.496          50.000  
E36  23548459.200   123747953.441          50.000    23548464.240    92409172.961          50.000  
> 2020  5 29 23 27 26.0000000  0 14       0.000000000000
G 2  24443894.140   128453531.484          50.000                                                  
G 5  21446588.380   112702497.977          50.000                                                  
G12  22731747.780   119456118.719          50.000                                                  
G21  23321893.260   122557367.352          50.000                                                  
G25  21199759.280   111405419.676          50.000    21199762.100    83192355.910          50.000  
G29  20626249.560   108391667.008          50.000                                                  
G31  24812107.140   130388413.277          50.000                                                  
E 2  24277761.120   127580482.660          50.000    24277765.060    95271128.914          50.000  
E 4  27393591.240   143954276.625          50.000    27393595.420   107498310.844          50.000  
E 9  24535022.900   128932371.457          50.000    24535028.740    96280649.527          50.000  
E11  25337651.760   133150269.523          50.000    25337652.660    99430386.438          50.000  
E25  26627013.280   139925828.285          50.000    26627021.380   104490041.840          50.000  
E30  24703690.760   129818737.707          50.000    24703695.800    96942548.918          50.000  
E36  23548541.940   123748388.246          50.000    23548546.980    92409497.656          50.000  
> 2020  5 29 23 27 27.0000000  0 14       0.000000000000
G 2  24444362.180   128455991.109          50.000                                                  
G 5  21446898.420   112704127.305          50.000                                                  
G12  22732415.740   119459628.852          50.000                                                  
G21  23321513.160   122555369.938          50.000                                                  
G25  21200208.380   111407779.695          50.000    21200211.200    83194118.262          50.000  
G29  20626076.240   108390756.223          50.000                                                  
G31  24812369.260   130389790.797          50.000                                                  
E 2  24278016.700   127581825.734          50.000    24278020.640    95272131.859          50.000  
E 4  27393597.860   143954311.410          50.000    27393602.040   107498336.820          50.000  
E 9  24534633.620   128930325.734          50.000    24534639.440    96279121.879          50.000  
E11  25338005.540   133152128.629          50.000    25338006.440    99431774.727          50.000  
E25  26627599.120   139928906.926          50.000    26627607.220   104492340.824          50.000  
E30  24703436.380   129817400.898          50.000    24703441.420    96941550.652          50.000  
E36  23548624.700   123748823.160          50.000    23548629.740    92409822.430          50.000  
> 2020  5 29 23 27 28.0000000  0 14       0.000000000000
G 2  24444830.240   128458450.699          50.000                                                  
G 5  21447208.580   112705757.223          50.000                                                  
G12  22733083.740   119463139.246          50.000                                                  
G21  23321133.100   122553372.754          50.000                                                  
G25  21200657.580   111410140.219          50.000    21200660.380    83195880.988          50.000  
G29  20625902.980   108389845.723          50.000                                                  
G31  24812631.480   130391168.715          50.000                                                  
E 2  24278272.360   127583169.230          50.000    24278276.300    95273135.117          50.000  
E 4  27393604.560   143954346.645          50.000    27393608.760   107498363.133          50.000  
E 9  24534244.360   128928280.254          50.000    24534250.200    96277594.414          50.000  
E11  25338359.320   133153987.738          50.000    25338360.220    99433163.023          50.000  
E25  26628184.980   139931985.648          50.000    26628193.080   104494639.863          50.000  
E30  24703182.080   129816064.512          50.000    24703187.100    96940552.699          50.000  
E36  23548707.500   123749258.188          50.000    23548712.520    92410147.285          50.000  
> 2020  5 29 23 27 29.0000000  0 14       0.000000000000
G 2  24445298.280   128460910.258          50.000                                                  
G 5  21447518.860   112707387.750          50.000                                                  
G12  22733751.800   119466649.898          50.000                                                  
G21  23320753.100   122551375.797          50.000                                                  
G25  21201106.860   111412501.238          50.000    21201109.680    83197644.090          50.000  
G29  20625729.780   108388935.504          50.000                                                  
G31  24812893.760   130392547.035          50.000                                                  
E 2  24278528.100   127584513.168          50.000    24278532.040    95274138.707          50.000  
E 4  27393611.340   143954382.309          50.000    27393615.540   107498389.766          50.000  
E 9  24533855.180   128926235.012          50.000    24533861.000    96276067.121          50.000  
E11  25338713.100   133155846.840          50.000    25338714.000    99434551.313          50.000  
E25  26628770.860   139935064.449          50.000    26628778.960   104496938.969          50.000  
E30  24702927.840   129814728.563          50.000    24702932.880    96939555.074          50.000  
E36  23548790.300   123749693.309          50.000    23548795.320    92410472.215          50.000  
> 2020  5 29 23 27 30.0000000  0 14       0.000000000000
G 2  24445766.300   128463369.793          50.000                                                  
G 5  21447829.260   112709018.887          50.000                                                  
G12  22734419.900   119470160.797          50.000                                                  
G21  23320373.140   122549379.066          50.000                                                  
G25  21201556.260   111414862.770          50.000    21201559.060    83199407.570          50.000  
G29  20625556.620   108388025.586          50.000                                                  
G31  24813156.120   130393925.746          50.000                                                  
E 2  24278783.920   127585857.555          50.000    24278787.860    95275142.629          50.000  
E 4  27393618.220   143954418.430          50.000    27393622.420   107498416.738          50.000  
E 9  24533466.020   128924190.020          50.000    24533471.840    96274540.020          50.000  
E11  25339066.880   133157705.930          50.000    25339067.780    99435939.594          50.000  
E25  26629356.760   139938143.344          50.000    26629364.860   104499238.141          50.000  
E30  24702673.700   129813393.043          50.000    24702678.740    96938557.773          50.000  
E36  23548873.120   123750128.543          50.000    23548878.140    92410797.227          50.000  
> 2020  5 29 23 27 31.0000000  0 14       0.000000000000
G 2  24446234.340   128465829.301          50.000                                                  
G 5  21448139.780   112710650.629          50.000                                                  
G12  22735088.060   119473671.957          50.000                                                  
G21  23319993.220   122547382.578          50.000                                                  
G25  21202005.740   111417224.797          50.000    21202008.540    83201171.418          50.000  
G29  20625383.520   108387115.957          50.000                                                  
G31  24813418.560   130395304.852          50.000                                                  
E 2  24279039.840   127587202.367          50.000    24279043.780    95276146.875          50.000  
E 4  27393625.180   143954454.992          50.000    27393629.360   107498444.039          50.000  
E 9  24533076.920   128922145.289          50.000    24533082.740    96273013.113          50.000  
E11  25339420.640   133159565.016          50.000    25339421.540    99437327.871          50.000  
E25  26629942.680   139941222.328          50.000    26629950.780   104501537.379          50.000  
E30  24702419.640   129812057.941          50.000    24702424.680    96937560.785          50.000  
E36  23548955.960   123750563.891          50.000    23548960.980    92411122.324          50.000  
> 2020  5 29 23 27 32.0000000  0 14       0.000000000000
G 2  24446702.360   128468288.777          50.000                                                  
G 5  21448450.400   112712282.965          50.000                                                  
G12  22735756.260   119477183.371          50.000                                                  
G21  23319613.340   122545386.316          50.000                                                  
G25  21202455.300   111419587.328          50.000    21202458.120    83202935.645          50.000  
G29  20625210.480   108386206.617          50.000                                                  
G31  24813681.060   130396684.359          50.000                                                  
E 2  24279295.840   127588547.617          50.000    24279299.780    95277151.441          50.000  
E 4  27393632.220   143954491.988          50.000    27393636.400   107498471.668          50.000  
E 9  24532687.860   128920100.785          50.000    24532693.680    96271486.375          50.000  
E11  25339774.420   133161424.098          50.000    25339775.320    99438716.148          50.000  
E25  26630528.600   139944301.402          50.000    26630536.700   104503836.684          50.000  
E30  24702165.660   129810723.270          50.000    24702170.700    96936564.113          50.000  
E36  23549038.820   123750999.336          50.000    23549043.840    92411447.496          50.000  
> 2020  5 29 23 27 33.0000000  0 14       0.000000000000
G 2  24447170.380   128470748.215          50.000                                                  
G 5  21448761.140   112713915.910          50.000                                                  
G12  22736424.500   119480695.039          50.000                                                  
G21  23319233.500   122543390.281          50.000                                                  
G25  21202904.980   111421950.348          50.000    21202907.780    83204700.238          50.000  
G29  20625037.500   108385297.559          50.000                                                  
G31  24813943.660   130398064.266          50.000                                                  
E 2  24279551.900   127589893.297          50.000    24279555.840    95278156.332          50.000  
E 4  27393639.340   143954529.445          50.000    27393643.540   107498499.637          50.000  
E 9  24532298.860   128918056.531          50.000    24532304.680    96269959.824          50.000  
E11  25340128.180   133163283.172          50.000    25340129.080    99440104.418          50.000  
E25  26631114.560   139947380.574          50.000    26631122.660   104506136.063          50.000  
E30  24701911.760   129809389.023          50.000    24701916.800    96935567.762          50.000  
E36  23549121.700   123751434.887          50.000    23549126.720    92411772.742          50.000  
> 2020  5 29 23 27 34.0000000  0 14       0.000000000000
G 2  24447638.400   128473207.633          50.000                                                  
G 5  21449072.000   112715549.465          50.000                                                  
G12  22737092.800   119484206.957          50.000                                                  
G21  23318853.720   122541394.477          50.000                                                  
G25  21203354.740   111424313.875          50.000    21203357.540    83206465.207          50.000  
G29  20624864.560   108384388.801          50.000                                                  
G31  24814206.320   130399444.566          50.000                                                  
E 2  24279808.060   127591239.406          50.000    24279812.000    95279161.547          50.000  
E 4  27393646.560   143954567.328          50.000    27393650.740   107498527.930          50.000  
E 9  24531909.880   128916012.520          50.000    24531915.720    96268433.453          50.000  
E11  25340481.960   133165142.250          50.000    25340482.860    99441492.688          50.000  
E25  26631700.520   139950459.824          50.000    26631708.620   104508435.500          50.000  
E30  24701657.940   129808055.207          50.000    24701662.980    96934571.730          50.000  
E36  23549204.600   123751870.543          50.000    23549209.640    92412098.070          50.000  
> 2020  5 29 23 27 35.0000000  0 14       0.000000000000
G 2  24448106.400   128475667.008          50.000                                                  
G 5  21449382.960   112717183.602          50.000                                                  
G12  22737761.160   119487719.133          50.000                                                  
G21  23318473.960   122539398.887          50.000                                                  
G25  21203804.600   111426677.902          50.000    21203807.400    83208230.551          50.000  
G29  20624691.680   108383480.328          50.000                                                  
G31  24814469.060   130400825.266          50.000                                                  
E 2  24280064.300   127592585.973          50.000    24280068.240    95280167.098          50.000  
E 4  27393653.860   143954605.660          50.000    27393658.040   107498556.551          50.000  
E 9  24531520.980   128913968.754          50.000    24531526.800    96266907.266          50.000  
E11  25340835.720   133167001.309          50.000    25340836.620    99442880.945          50.000  
E25  26632286.500   139953539.156          50.000    26632294.600   104510734.996          50.000  
E30  24701404.220   129806721.813          50.000    24701409.240    96933576.016          50.000  
E36  23549287.520   123752306.301          50.000    23549292.560    92412423.477          50.000  
> 2020  5 29 23 27 36.0000000  0 14       0.000000000000
G 2  24448574.400   128478126.371          50.000                                                  
G 5  21449694.040   112718818.344          50.000                                                  
G12  22738429.540   119491231.566          50.000                                                  
G21  23318094.260   122537403.531          50.000                                                  
G25  21204254.560   111429042.438          50.000    21204257.360    83209996.273          50.000  
G29  20624518.860   108382572.145          50.000                                                  
G31  24814731.880   130402206.363          50.000                                                  
E 2  24280320.640   127593932.961          50.000    24280324.560    95281172.965          50.000  
E 4  27393661.240   143954644.438          50.000    27393665.420   107498585.508          50.000  
E 9  24531132.100   128911925.238          50.000    24531137.920    96265381.266          50.000  
E11  25341189.500   133168860.379          50.000    25341190.400    99444269.211          50.000  
E25  26632872.500   139956618.582          50.000    26632880.600   104513034.566          50.000  
E30  24701150.560   129805388.848          50.000    24701155.580    96932580.617          50.000  
E36  23549370.480   123752742.176          50.000    23549375.500    92412748.965          50.000  
> 2020  5 29 23 27 37.0000000  0 14       0.000000000000
G 2  24449042.400   128480585.695          50.000                                                  
G 5  21450005.240   112720453.691          50.000                                                  
G12  22739098.000   119494744.258          50.000                                                  
G21  23317714.600   122535408.414          50.000                                                  
G25  21204704.600   111431407.465          50.000    21204707.420    83211762.367          50.000  
G29  20624346.100   108381664.238          50.000                                                  
G31  24814994.760   130403587.848          50.000                                                  
E 2  24280577.040   127595280.375          50.000    24280580.980    95282179.148          50.000  
E 4  27393668.700   143954683.684          50.000    27393672.880   107498614.816          50.000  
E 9  24530743.280   128909881.973          50.000    24530749.100    96263855.453          50.000  
E11  25341543.260   133170719.445          50.000    25341544.160    99445657.477          50.000  
E25  26633458.500   139959698.102          50.000    26633466.620   104515334.207          50.000  
E30  24700896.980   129804056.316          50.000    24700902.020    96931585.551          50.000  
E36  23549453.440   123753178.152          50.000    23549458.460    92413074.535          50.000  
> 2020  5 29 23 27 38.0000000  0 14       0.000000000000
G 2  24449510.380   128483044.984          50.000                                                  
G 5  21450316.540   112722089.629          50.000                                                  
G12  22739766.500   119498257.227          50.000                                                  
G21  23317334.980   122533413.508          50.000                                                  
G25  21205154.760   111433772.992          50.000    21205157.560    83213528.832          50.000  
G29  20624173.380   108380756.629          50.000                                                  
G31  24815257.720   130404969.734          50.000                                                  
E 2  24280833.520   127596628.254          50.000    24280837.460    95283185.680          50.000  
E 4  27393676.240   143954723.328          50.000    27393680.440   107498644.422          50.000  
E 9  24530354.500   128907838.938          50.000    24530360.320    96262329.813          50.000  
E11  25341897.020   133172578.488          50.000    25341897.940    99447045.719          50.000  
E25  26634044.540   139962777.715          50.000    26634052.640   104517633.914          50.000  
E30  24700643.500   129802724.211          50.000    24700648.520    96930590.793          50.000  
E36  23549536.420   123753614.227          50.000    23549541.440    92413400.172          50.000  
> 2020  5 29 23 27 39.0000000  0 14       0.000000000000
G 2  24449978.360   128485504.258          50.000                                                  
G 5  21450627.960   112723726.176          50.000                                                  
G12  22740435.040   119501770.453          50.000                                                  
G21  23316955.400   122531418.840          50.000                                                  
G25  21205605.000   111436139.016          50.000    21205607.800    83215295.668          50.000  
G29  20624000.720   108379849.301          50.000                                                  
G31  24815520.760   130406352.020          50.000                                                  
E 2  24281090.100   127597976.543          50.000    24281094.040    95284192.520          50.000  
E 4  27393683.880   143954763.453          50.000    27393688.060   107498674.387          50.000  
E 9  24529965.780   128905796.164          50.000    24529971.600    96260804.363          50.000  
E11  25342250.800   133174437.527          50.000    25342251.700    99448433.961          50.000  
E25  26634630.580   139965857.414          50.000    26634638.700   104519933.684          50.000  
E30  24700390.080   129801392.535          50.000    24700395.120    96929596.363          50.000  
E36  23549619.420   123754050.418          50.000    23549624.440    92413725.898          50.000  
