     3.03           OBSERVATION DATA    M: Mixed            RINEX VERSION / TYPE
sbp2rinex v2.2 (RTKL                    20210504 171524 UTC PGM / RUN BY / DATE 
log: 2020-05-21-US-MTV-2.sbp                                COMMENT             
format: Swift Navigation SBP, option: CONVBASE,EPHALL,OBSALLCOMMENT             
                                                            MARKER NAME         
                                                            MARKER NUMBER       
                                                            MARKER TYPE         
                                                            OBSERVER / AGENCY   
                                                            REC # / TYPE / VERS 
                                                            ANT # / TYPE        
 -2744310.3504 -4319958.3065  3793483.4008                  APPROX POSITION XYZ 
        0.0000        0.0000        0.0000                  ANTENNA: DELTA H/E/N
G    6 C1C L1C S1C C5I L5I S5I                              SYS / # / OBS TYPES 
E    6 C1B L1B S1B C5I L5I S5I                              SYS / # / OBS TYPES 
  2020     5    21    21    21   45.0000000     GPS         TIME OF FIRST OBS   
  2020     5    21    21    57   13.0000000     GPS         TIME OF LAST OBS    
G                                                           SYS / PHASE SHIFT   
E                                                           SYS / PHASE SHIFT   
  0                                                         GLONASS SLOT / FRQ #
 C1C    0.000 C1P    0.000 C2C    0.000 C2P    0.000        GLONASS COD/PHS/BIS 
                                                            END OF HEADER       
> 2020  5 21 21 21 45.0000000  0 12       0.000000000000
G 2  20832761.360   109476929.609          50.000                                                  
G 5  23749461.320   124804226.086          50.000                                                  
G 6  21799751.040   114558412.086          50.000    21799753.980    85546865.535          50.000  
G12  20328666.840   106827863.871          50.000                                                  
G19  23510114.880   123546491.797          50.000                                                  
G24  22448223.660   117966147.082          50.000    22448226.920    88091598.195          50.000  
G25  21891866.460   115042471.516          50.000    21891869.200    85908337.262          50.000  
G29  23905731.440   125625434.152          50.000                                                  
E13  23804897.120   125095560.570          50.000    23804901.280    93415504.863          50.000  
E15  23534611.400   123675183.391          50.000    23534616.620    92354831.957          50.000  
E21  25079230.160   131792219.762          50.000    25079234.880    98416256.387          50.000  
E27  23241048.420   122132507.996          50.000    23241052.660    91202834.773          50.000  
> 2020  5 21 21 21 46.0000000  0 12       0.000000000000
G 2  20832887.380   109477591.902          50.000                                                  
G 5  23748848.520   124801005.742          50.000                                                  
G 6  21800210.200   114560824.926          50.000    21800213.140    85548667.328          50.000  
G12  20328449.760   106826723.074          50.000                                                  
G19  23510643.800   123549271.246          50.000                                                  
G24  22448731.400   117968815.309          50.000    22448734.660    88093590.703          50.000  
G25  21891362.880   115039825.156          50.000    21891365.620    85906361.082          50.000  
G29  23905262.200   125622968.281          50.000                                                  
E13  23804661.260   125094321.164          50.000    23804665.420    93414579.332          50.000  
E15  23534864.000   123676510.824          50.000    23534869.220    92355823.223          50.000  
E21  25078844.360   131790192.309          50.000    25078849.080    98414742.379          50.000  
E27  23241154.100   122133063.367          50.000    23241158.340    91203249.496          50.000  
> 2020  5 21 21 21 47.0000000  0 12       0.000000000000
G 2  20833013.500   109478254.676          50.000                                                  
G 5  23748235.720   124797785.477          50.000                                                  
G 6  21800669.420   114563238.168          50.000    21800672.360    85550469.426          50.000  
G12  20328232.740   106825582.711          50.000                                                  
G19  23511172.720   123552050.738          50.000                                                  
G24  22449239.220   117971483.863          50.000    22449242.480    88095583.453          50.000  
G25  21890859.340   115037179.059          50.000    21890862.080    85904385.102          50.000  
G29  23904792.980   125620502.535          50.000                                                  
E13  23804425.480   125093082.090          50.000    23804429.640    93413654.051          50.000  
E15  23535116.640   123677838.512          50.000    23535121.880    92356814.676          50.000  
E21  25078458.580   131788165.078          50.000    25078463.300    98413228.539          50.000  
E27  23241259.860   122133619.141          50.000    23241264.100    91203664.523          50.000  
> 2020  5 21 21 21 48.0000000  0 12       0.000000000000
G 2  20833139.720   109478917.938          50.000                                                  
G 5  23747622.940   124794565.289          50.000                                                  
G 6  21801128.720   114565651.805          50.000    21801131.660    85552271.816          50.000  
G12  20328015.820   106824442.773          50.000                                                  
G19  23511701.640   123554830.266          50.000                                                  
G24  22449747.080   117974152.750          50.000    22449750.340    88097576.453          50.000  
G25  21890355.840   115034533.215          50.000    21890358.600    85902409.313          50.000  
G29  23904323.800   125618036.914          50.000                                                  
E13  23804189.740   125091843.344          50.000    23804193.920    93412729.012          50.000  
E15  23535369.340   123679166.465          50.000    23535374.580    92357806.332          50.000  
E21  25078072.860   131786138.086          50.000    25078077.580    98411714.875          50.000  
E27  23241365.700   122134175.316          50.000    23241369.940    91204079.848          50.000  
> 2020  5 21 21 21 49.0000000  0 12       0.000000000000
G 2  20833266.040   109479581.688          50.000                                                  
G 5  23747010.160   124791345.191          50.000                                                  
G 6  21801588.100   114568065.855          50.000    21801591.040    85554074.516          50.000  
G12  20327798.980   106823303.281          50.000                                                  
G19  23512230.580   123557609.840          50.000                                                  
G24  22450255.020   117976821.945          50.000    22450258.280    88099569.684          50.000  
G25  21889852.420   115031887.641          50.000    21889855.160    85900433.719          50.000  
G29  23903854.620   125615571.422          50.000                                                  
E13  23803954.080   125090604.930          50.000    23803958.260    93411804.223          50.000  
E15  23535622.100   123680494.668          50.000    23535627.320    92358798.168          50.000  
E21  25077687.180   131784111.324          50.000    25077691.900    98410201.383          50.000  
E27  23241471.620   122134731.883          50.000    23241475.840    91204495.465          50.000  
> 2020  5 21 21 21 50.0000000  0 12       0.000000000000
G 2  20833392.440   109480245.934          50.000                                                  
G 5  23746397.420   124788125.156          50.000                                                  
G 6  21802047.560   114570480.301          50.000    21802050.500    85555877.512          50.000  
G12  20327582.240   106822164.227          50.000                                                  
G19  23512759.520   123560389.434          50.000                                                  
G24  22450763.020   117979491.461          50.000    22450766.260    88101563.148          50.000  
G25  21889349.020   115029242.324          50.000    21889351.760    85898458.324          50.000  
G29  23903385.480   125613106.047          50.000                                                  
E13  23803718.480   125089366.844          50.000    23803722.660    93410879.680          50.000  
E15  23535874.900   123681823.137          50.000    23535880.120    92359790.211          50.000  
E21  25077301.540   131782084.801          50.000    25077306.260    98408688.074          50.000  
E27  23241577.600   122135288.855          50.000    23241581.840    91204911.387          50.000  
> 2020  5 21 21 21 51.0000000  0 12       0.000000000000
G 2  20833518.920   109480910.660          50.000                                                  
G 5  23745784.680   124784905.207          50.000                                                  
G 6  21802507.080   114572895.156          50.000    21802510.020    85557680.809          50.000  
G12  20327365.560   106821025.602          50.000                                                  
G19  23513288.460   123563169.090          50.000                                                  
G24  22451271.060   117982161.289          50.000    22451274.320    88103556.852          50.000  
G25  21888845.680   115026597.250          50.000    21888848.420    85896483.109          50.000  
G29  23902916.360   125610640.793          50.000                                                  
E13  23803482.940   125088129.090          50.000    23803487.120    93409955.383          50.000  
E15  23536127.740   123683151.867          50.000    23536132.980    92360782.441          50.000  
E21  25076915.960   131780058.496          50.000    25076920.680    98407174.922          50.000  
E27  23241683.660   122135846.234          50.000    23241687.900    91205327.609          50.000  
> 2020  5 21 21 21 52.0000000  0 12       0.000000000000
G 2  20833645.520   109481575.875          50.000                                                  
G 5  23745171.960   124781685.344          50.000                                                  
G 6  21802966.700   114575310.410          50.000    21802969.640    85559484.410          50.000  
G12  20327148.980   106819887.418          50.000                                                  
G19  23513817.420   123565948.777          50.000                                                  
G24  22451779.180   117984831.441          50.000    22451782.440    88105550.797          50.000  
G25  21888342.400   115023952.445          50.000    21888345.140    85894508.090          50.000  
G29  23902447.260   125608175.664          50.000                                                  
E13  23803247.480   125086891.664          50.000    23803251.640    93409031.332          50.000  
E15  23536380.640   123684480.844          50.000    23536385.860    92361774.859          50.000  
E21  25076530.400   131778032.422          50.000    25076535.120    98405661.945          50.000  
E27  23241789.800   122136404.008          50.000    23241794.040    91205744.129          50.000  
> 2020  5 21 21 21 53.0000000  0 12       0.000000000000
G 2  20833772.180   109482241.559          50.000                                                  
G 5  23744559.260   124778465.559          50.000                                                  
G 6  21803426.380   114577726.051          50.000    21803429.320    85561288.297          50.000  
G12  20326932.460   106818749.645          50.000                                                  
G19  23514346.400   123568728.496          50.000                                                  
G24  22452287.360   117987501.938          50.000    22452290.620    88107544.996          50.000  
G25  21887839.140   115021307.883          50.000    21887841.880    85892533.258          50.000  
G29  23901978.180   125605710.668          50.000                                                  
E13  23803012.060   125085654.570          50.000    23803016.220    93408107.527          50.000  
E15  23536633.580   123685810.070          50.000    23536638.820    92362767.465          50.000  
E21  25076144.900   131776006.578          50.000    25076149.620    98404149.145          50.000  
E27  23241896.020   122136962.180          50.000    23241900.260    91206160.945          50.000  
> 2020  5 21 21 21 54.0000000  0 12       0.000000000000
G 2  20833898.960   109482907.746          50.000                                                  
G 5  23743946.560   124775245.855          50.000                                                  
G 6  21803886.140   114580142.102          50.000    21803889.080    85563092.488          50.000  
G12  20326716.040   106817612.328          50.000                                                  
G19  23514875.360   123571508.258          50.000                                                  
G24  22452795.600   117990172.754          50.000    22452798.860    88109539.438          50.000  
G25  21887335.960   115018663.574          50.000    21887338.700    85890558.613          50.000  
G29  23901509.120   125603245.801          50.000                                                  
E13  23802776.720   125084417.785          50.000    23802780.880    93407183.953          50.000  
E15  23536886.580   123687139.563          50.000    23536891.800    92363760.266          50.000  
E21  25075759.440   131773980.969          50.000    25075764.160    98402636.512          50.000  
E27  23242002.320   122137520.750          50.000    23242006.560    91206578.063          50.000  
> 2020  5 21 21 21 55.0000000  0 12       0.000000000000
G 2  20834025.820   109483574.414          50.000                                                  
G 5  23743333.880   124772026.223          50.000                                                  
G 6  21804345.960   114582558.563          50.000    21804348.900    85564896.988          50.000  
G12  20326499.700   106816475.445          50.000                                                  
G19  23515404.340   123574288.066          50.000                                                  
G24  22453303.900   117992843.902          50.000    22453307.160    88111534.125          50.000  
G25  21886832.800   115016019.539          50.000    21886835.540    85888584.172          50.000  
G29  23901040.100   125600781.047          50.000                                                  
E13  23802541.420   125083181.359          50.000    23802545.580    93406260.648          50.000  
E15  23537139.620   123688469.320          50.000    23537144.840    92364753.266          50.000  
E21  25075374.020   131771955.598          50.000    25075378.740    98401124.059          50.000  
E27  23242108.680   122138079.734          50.000    23242112.920    91206995.484          50.000  
> 2020  5 21 21 21 56.0000000  0 12       0.000000000000
G 2  20834152.780   109484241.578          50.000                                                  
G 5  23742721.220   124768806.676          50.000                                                  
G 6  21804805.880   114584975.414          50.000    21804808.820    85566701.781          50.000  
G12  20326283.440   106815338.988          50.000                                                  
G19  23515933.320   123577067.902          50.000                                                  
G24  22453812.260   117995515.367          50.000    22453815.520    88113529.047          50.000  
G25  21886329.720   115013375.758          50.000    21886332.460    85886609.922          50.000  
G29  23900571.100   125598316.422          50.000                                                  
E13  23802306.200   125081945.246          50.000    23802310.360    93405337.578          50.000  
E15  23537392.720   123689799.328          50.000    23537397.940    92365746.453          50.000  
E21  25074988.640   131769930.445          50.000    25074993.360    98399611.773          50.000  
E27  23242215.140   122138639.109          50.000    23242219.360    91207413.199          50.000  
> 2020  5 21 21 21 57.0000000  0 12       0.000000000000
G 2  20834279.820   109484909.219          50.000                                                  
G 5  23742108.580   124765587.215          50.000                                                  
G 6  21805265.880   114587392.672          50.000    21805268.820    85568506.875          50.000  
G12  20326067.260   106814202.980          50.000                                                  
G19  23516462.320   123579847.789          50.000                                                  
G24  22454320.680   117998187.164          50.000    22454323.940    88115524.223          50.000  
G25  21885826.660   115010732.234          50.000    21885829.400    85884635.859          50.000  
G29  23900102.120   125595851.918          50.000                                                  
E13  23802071.040   125080709.477          50.000    23802075.200    93404414.766          50.000  
E15  23537645.860   123691129.590          50.000    23537651.080    92366739.832          50.000  
E21  25074603.320   131767905.527          50.000    25074608.040    98398099.656          50.000  
E27  23242321.660   122139198.883          50.000    23242325.900    91207831.211          50.000  
> 2020  5 21 21 21 58.0000000  0 12       0.000000000000
G 2  20834406.960   109485577.344          50.000                                                  
G 5  23741495.940   124762367.820          50.000                                                  
G 6  21805725.940   114589810.336          50.000    21805728.880    85570312.273          50.000  
G12  20325851.160   106813067.398          50.000                                                  
G19  23516991.320   123582627.711          50.000                                                  
G24  22454829.180   118000859.273          50.000    22454832.440    88117519.625          50.000  
G25  21885323.680   115008088.977          50.000    21885326.420    85882662.000          50.000  
G29  23899633.160   125593387.547          50.000                                                  
E13  23801835.940   125079474.023          50.000    23801840.100    93403492.188          50.000  
E15  23537899.040   123692460.109          50.000    23537904.280    92367733.402          50.000  
E21  25074218.040   131765880.828          50.000    25074222.740    98396587.711          50.000  
E27  23242428.260   122139759.066          50.000    23242432.480    91208249.527          50.000  
> 2020  5 21 21 21 59.0000000  0 12       0.000000000000
G 2  20834534.200   109486245.957          50.000                                                  
G 5  23740883.340   124759148.508          50.000                                                  
G 6  21806186.080   114592228.395          50.000    21806189.020    85572117.965          50.000  
G12  20325635.160   106811932.254          50.000                                                  
G19  23517520.340   123585407.660          50.000                                                  
G24  22455337.720   118003531.715          50.000    22455340.980    88119515.281          50.000  
G25  21884820.720   115005445.965          50.000    21884823.460    85880688.324          50.000  
G29  23899164.220   125590923.293          50.000                                                  
E13  23801600.900   125078238.902          50.000    23801605.060    93402569.855          50.000  
E15  23538152.280   123693790.891          50.000    23538157.520    92368727.164          50.000  
E21  25073832.800   131763856.375          50.000    25073837.500    98395075.941          50.000  
E27  23242534.920   122140319.637          50.000    23242539.160    91208668.137          50.000  
> 2020  5 21 21 22  0.0000000  0 12       0.000000000000
G 2  20834661.520   109486915.055          50.000                                                  
G 5  23740270.740   124755929.281          50.000                                                  
G 6  21806646.300   114594646.852          50.000    21806649.240    85573923.957          50.000  
G12  20325419.220   106810797.543          50.000                                                  
G19  23518049.360   123588187.656          50.000                                                  
G24  22455846.340   118006204.484          50.000    22455849.600    88121511.180          50.000  
G25  21884317.820   115002803.215          50.000    21884320.560    85878714.844          50.000  
G29  23898695.320   125588459.164          50.000                                                  
E13  23801365.940   125077004.113          50.000    23801370.100    93401647.773          50.000  
E15  23538405.580   123695121.926          50.000    23538410.800    92369721.121          50.000  
E21  25073447.600   131761832.148          50.000    25073452.300    98393564.348          50.000  
E27  23242641.680   122140880.617          50.000    23242645.920    91209087.051          50.000  
> 2020  5 21 21 22  1.0000000  0 12       0.000000000000
G 2  20834788.940   109487584.633          50.000                                                  
G 5  23739658.140   124752710.133          50.000                                                  
G 6  21807106.600   114597065.715          50.000    21807109.540    85575730.250          50.000  
G12  20325203.380   106809663.270          50.000                                                  
G19  23518578.380   123590967.699          50.000                                                  
G24  22456355.020   118008877.594          50.000    22456358.280    88123507.328          50.000  
G25  21883814.980   115000160.715          50.000    21883817.720    85876741.551          50.000  
G29  23898226.440   125585995.164          50.000                                                  
E13  23801131.020   125075769.652          50.000    23801135.180    93400725.938          50.000  
E15  23538658.900   123696453.215          50.000    23538664.140    92370715.266          50.000  
E21  25073062.440   131759808.152          50.000    25073067.160    98392052.922          50.000  
E27  23242748.500   122141441.996          50.000    23242752.740    91209506.262          50.000  
> 2020  5 21 21 22  2.0000000  0 12       0.000000000000
G 2  20834916.460   109488254.711          50.000                                                  
G 5  23739045.580   124749491.066          50.000                                                  
G 6  21807566.960   114599484.980          50.000    21807569.900    85577536.840          50.000  
G12  20324987.620   106808529.430          50.000                                                  
G19  23519107.400   123593747.770          50.000                                                  
G24  22456863.760   118011551.043          50.000    22456867.020    88125503.738          50.000  
G25  21883312.160   114997518.480          50.000    21883314.900    85874768.453          50.000  
G29  23897757.580   125583531.289          50.000                                                  
E13  23800896.180   125074535.527          50.000    23800900.340    93399804.352          50.000  
E15  23538912.300   123697784.766          50.000    23538917.520    92371709.605          50.000  
E21  25072677.320   131757784.387          50.000    25072682.040    98390541.668          50.000  
E27  23242855.420   122142003.777          50.000    23242859.640    91209925.773          50.000  
> 2020  5 21 21 22  3.0000000  0 12       0.000000000000
G 2  20835044.060   109488925.266          50.000                                                  
G 5  23738433.020   124746272.086          50.000                                                  
G 6  21808027.400   114601904.641          50.000    21808030.360    85579343.734          50.000  
G12  20324771.940   106807396.012          50.000                                                  
G19  23519636.440   123596527.883          50.000                                                  
G24  22457372.560   118014224.816          50.000    22457375.820    88127500.383          50.000  
G25  21882809.420   114994876.508          50.000    21882812.160    85872795.551          50.000  
G29  23897288.740   125581067.543          50.000                                                  
E13  23800661.400   125073301.730          50.000    23800665.560    93398883.008          50.000  
E15  23539165.720   123699116.574          50.000    23539170.960    92372704.137          50.000  
E21  25072292.260   131755760.852          50.000    25072296.980    98389030.586          50.000  
E27  23242962.400   122142565.957          50.000    23242966.620    91210345.582          50.000  
> 2020  5 21 21 22  4.0000000  0 12       0.000000000000
G 2  20835171.760   109489596.316          50.000                                                  
G 5  23737820.480   124743053.184          50.000                                                  
G 6  21808487.940   114604324.711          50.000    21808490.880    85581150.926          50.000  
G12  20324556.340   106806263.043          50.000                                                  
G19  23520165.500   123599308.039          50.000                                                  
G24  22457881.420   118016898.922          50.000    22457884.680    88129497.281          50.000  
G25  21882306.720   114992234.785          50.000    21882309.460    85870822.836          50.000  
G29  23896819.920   125578603.910          50.000                                                  
E13  23800426.680   125072068.266          50.000    23800430.840    93397961.914          50.000  
E15  23539419.220   123700448.633          50.000    23539424.440    92373698.855          50.000  
E21  25071907.240   131753737.551          50.000    25071911.960    98387519.684          50.000  
E27  23243069.440   122143128.535          50.000    23243073.680    91210765.691          50.000  
> 2020  5 21 21 22  5.0000000  0 12       0.000000000000
G 2  20835299.540   109490267.832          50.000                                                  
G 5  23737207.960   124739834.363          50.000                                                  
G 6  21808948.540   114606745.164          50.000    21808951.480    85582958.406          50.000  
G12  20324340.820   106805130.496          50.000                                                  
G19  23520694.540   123602088.227          50.000                                                  
G24  22458390.340   118019573.336          50.000    22458393.600    88131494.406          50.000  
G25  21881804.060   114989593.316          50.000    21881806.800    85868850.316          50.000  
G29  23896351.140   125576140.410          50.000                                                  
E13  23800192.020   125070835.121          50.000    23800196.180    93397041.063          50.000  
E15  23539672.740   123701780.949          50.000    23539677.980    92374693.766          50.000  
E21  25071522.260   131751714.480          50.000    25071526.980    98386008.945          50.000  
E27  23243176.580   122143691.516          50.000    23243180.820    91211186.098          50.000  
> 2020  5 21 21 22  6.0000000  0 12       0.000000000000
G 2  20835427.420   109490939.848          50.000                                                  
G 5  23736595.460   124736615.633          50.000                                                  
G 6  21809409.200   114609166.023          50.000    21809412.140    85584766.191          50.000  
G12  20324125.380   106803998.391          50.000                                                  
G19  23521223.600   123604868.453          50.000                                                  
G24  22458899.340   118022248.074          50.000    22458902.600    88133491.773          50.000  
G25  21881301.460   114986952.102          50.000    21881304.180    85866877.977          50.000  
G29  23895882.360   125573677.027          50.000                                                  
E13  23799957.420   125069602.301          50.000    23799961.580    93396120.449          50.000  
E15  23539926.320   123703113.523          50.000    23539931.560    92375688.871          50.000  
E21  25071137.320   131749691.637          50.000    25071142.040    98384498.383          50.000  
E27  23243283.780   122144254.895          50.000    23243288.020    91211606.805          50.000  
> 2020  5 21 21 22  7.0000000  0 12       0.000000000000
G 2  20835555.400   109491612.355          50.000                                                  
G 5  23735982.960   124733396.973          50.000                                                  
G 6  21809869.960   114611587.281          50.000    21809872.900    85586574.273          50.000  
G12  20323910.040   106802866.715          50.000                                                  
G19  23521752.680   123607648.723          50.000                                                  
G24  22459408.380   118024923.102          50.000    22459411.640    88135489.359          50.000  
G25  21880798.900   114984311.148          50.000    21880801.640    85864905.840          50.000  
G29  23895413.620   125571213.770          50.000                                                  
E13  23799722.880   125068369.813          50.000    23799727.040    93395200.086          50.000  
E15  23540179.960   123704446.348          50.000    23540185.180    92376684.164          50.000  
E21  25070752.440   131747669.023          50.000    25070757.160    98382987.992          50.000  
E27  23243391.060   122144818.676          50.000    23243395.300    91212027.809          50.000  
> 2020  5 21 21 22  8.0000000  0 12       0.000000000000
G 2  20835683.460   109492285.336          50.000                                                  
G 5  23735370.500   124730178.410          50.000                                                  
G 6  21810330.780   114614008.949          50.000    21810333.720    85588382.660          50.000  
G12  20323694.760   106801735.465          50.000                                                  
G19  23522281.740   123610429.023          50.000                                                  
G24  22459917.480   118027598.465          50.000    22459920.740    88137487.195          50.000  
G25  21880296.380   114981670.469          50.000    21880299.120    85862933.902          50.000  
G29  23894944.900   125568750.641          50.000                                                  
E13  23799488.400   125067137.660          50.000    23799492.580    93394279.969          50.000  
E15  23540433.620   123705779.434          50.000    23540438.860    92377679.648          50.000  
E21  25070367.600   131745646.645          50.000    25070372.300    98381477.773          50.000  
E27  23243498.420   122145382.855          50.000    23243502.660    91212449.113          50.000  
> 2020  5 21 21 22  9.0000000  0 12       0.000000000000
G 2  20835811.620   109492958.805          50.000                                                  
G 5  23734758.040   124726959.926          50.000                                                  
G 6  21810791.680   114616431.012          50.000    21810794.620    85590191.344          50.000  
G12  20323479.580   106800604.672          50.000                                                  
G19  23522810.840   123613209.367          50.000                                                  
G24  22460426.640   118030274.164          50.000    22460429.920    88139485.281          50.000  
G25  21879793.940   114979030.043          50.000    21879796.660    85860962.160          50.000  
G29  23894476.200   125566287.637          50.000                                                  
E13  23799254.000   125065905.844          50.000    23799258.160    93393360.109          50.000  
E15  23540687.360   123707112.785          50.000    23540692.580    92378675.332          50.000  
E21  25069982.780   131743624.500          50.000    25069987.500    98379967.730          50.000  
E27  23243605.860   122145947.453          50.000    23243610.100    91212870.727          50.000  
> 2020  5 21 21 22 10.0000000  0 12       0.000000000000
G 2  20835939.860   109493632.766          50.000                                                  
G 5  23734145.600   124723741.512          50.000                                                  
G 6  21811252.660   114618853.473          50.000    21811255.600    85592000.324          50.000  
G12  20323264.480   106799474.313          50.000                                                  
G19  23523339.920   123615989.754          50.000                                                  
G24  22460935.880   118032950.168          50.000    22460939.140    88141483.594          50.000  
G25  21879291.520   114976389.867          50.000    21879294.260    85858990.602          50.000  
G29  23894007.540   125563824.754          50.000                                                  
E13  23799019.660   125064674.355          50.000    23799023.820    93392440.492          50.000  
E15  23540941.140   123708446.383          50.000    23540946.360    92379671.199          50.000  
E21  25069598.020   131741602.578          50.000    25069602.740    98378457.855          50.000  
E27  23243713.380   122146512.434          50.000    23243717.620    91213292.629          50.000  
> 2020  5 21 21 22 11.0000000  0 12       0.000000000000
G 2  20836068.200   109494307.211          50.000                                                  
G 5  23733533.160   124720523.188          50.000                                                  
G 6  21811713.720   114621276.328          50.000    21811716.660    85593809.598          50.000  
G12  20323049.460   106798344.379          50.000                                                  
G19  23523869.020   123618770.176          50.000                                                  
G24  22461445.160   118035626.500          50.000    22461448.420    88143482.156          50.000  
G25  21878789.160   114973749.953          50.000    21878791.900    85857019.238          50.000  
G29  23893538.900   125561362.000          50.000                                                  
E13  23798785.380   125063443.195          50.000    23798789.540    93391521.117          50.000  
E15  23541194.960   123709780.234          50.000    23541200.180    92380667.258          50.000  
E21  25069213.320   131739580.898          50.000    25069218.040    98376948.160          50.000  
E27  23243820.960   122147077.820          50.000    23243825.200    91213714.832          50.000  
> 2020  5 21 21 22 12.0000000  0 12       0.000000000000
G 2  20836196.640   109494982.141          50.000                                                  
G 5  23732920.740   124717304.941          50.000                                                  
G 6  21812174.860   114623699.605          50.000    21812177.800    85595619.188          50.000  
G12  20322834.520   106797214.879          50.000                                                  
G19  23524398.120   123621550.637          50.000                                                  
G24  22461954.520   118038303.168          50.000    22461957.780    88145480.961          50.000  
G25  21878286.860   114971110.305          50.000    21878289.600    85855048.070          50.000  
G29  23893070.260   125558899.371          50.000                                                  
E13  23798551.160   125062212.355          50.000    23798555.320    93390601.984          50.000  
E15  23541448.840   123711114.352          50.000    23541454.060    92381663.512          50.000  
E21  25068828.640   131737559.449          50.000    25068833.360    98375438.637          50.000  
E27  23243928.640   122147643.602          50.000    23243932.860    91214137.332          50.000  
> 2020  5 21 21 22 13.0000000  0 12       0.000000000000
G 2  20836325.160   109495657.555          50.000                                                  
G 5  23732308.360   124714086.785          50.000                                                  
G 6  21812636.060   114626123.266          50.000    21812639.000    85597429.063          50.000  
G12  20322619.680   106796085.820          50.000                                                  
G19  23524927.240   123624331.137          50.000                                                  
G24  22462463.940   118040980.164          50.000    22462467.200    88147480.016          50.000  
G25  21877784.600   114968470.910          50.000    21877787.320    85853077.094          50.000  
G29  23892601.660   125556436.863          50.000                                                  
E13  23798317.000   125060981.844          50.000    23798321.160    93389683.098          50.000  
E15  23541702.760   123712448.719          50.000    23541707.980    92382659.957          50.000  
E21  25068444.020   131735538.215          50.000    25068448.740    98373929.273          50.000  
E27  23244036.380   122148209.789          50.000    23244040.620    91214560.133          50.000  
> 2020  5 21 21 22 14.0000000  0 12       0.000000000000
G 2  20836453.780   109496333.465          50.000                                                  
G 5  23731695.980   124710868.707          50.000                                                  
G 6  21813097.340   114628547.324          50.000    21813100.280    85599239.234          50.000  
G12  20322404.900   106794957.191          50.000                                                  
G19  23525456.360   123627111.676          50.000                                                  
G24  22462973.420   118043657.492          50.000    22462976.680    88149479.320          50.000  
G25  21877282.380   114965831.773          50.000    21877285.120    85851106.313          50.000  
G29  23892133.080   125553974.484          50.000                                                  
E13  23798082.900   125059751.668          50.000    23798087.060    93388764.461          50.000  
E15  23541956.720   123713783.340          50.000    23541961.960    92383656.590          50.000  
E21  25068059.440   131733517.230          50.000    25068064.160    98372420.098          50.000  
E27  23244144.200   122148776.379          50.000    23244148.420    91214983.234          50.000  
> 2020  5 21 21 22 15.0000000  0 12       0.000000000000
G 2  20836582.500   109497009.848          50.000                                                  
G 5  23731083.600   124707650.715          50.000                                                  
G 6  21813558.700   114630971.785          50.000    21813561.640    85601049.711          50.000  
G12  20322190.220   106793829.012          50.000                                                  
G19  23525985.480   123629892.254          50.000                                                  
G24  22463482.960   118046335.156          50.000    22463486.220    88151478.875          50.000  
G25  21876780.220   114963192.898          50.000    21876782.960    85849135.727          50.000  
G29  23891664.540   125551512.223          50.000                                                  
E13  23797848.880   125058521.828          50.000    23797853.040    93387846.070          50.000  
E15  23542210.740   123715118.219          50.000    23542215.960    92384653.414          50.000  
E21  25067674.900   131731496.469          50.000    25067679.620    98370911.086          50.000  
E27  23244252.080   122149343.355          50.000    23244256.320    91215406.629          50.000  
> 2020  5 21 21 22 16.0000000  0 12       0.000000000000
G 2  20836711.300   109497686.727          50.000                                                  
G 5  23730471.260   124704432.801          50.000                                                  
G 6  21814020.140   114633396.641          50.000    21814023.080    85602860.477          50.000  
G12  20321975.620   106792701.262          50.000                                                  
G19  23526514.620   123632672.875          50.000                                                  
G24  22463992.560   118049013.117          50.000    22463995.820    88153478.648          50.000  
G25  21876278.100   114960554.285          50.000    21876280.840    85847165.332          50.000  
G29  23891196.000   125549050.090          50.000                                                  
E13  23797614.900   125057292.320          50.000    23797619.060    93386927.934          50.000  
E15  23542464.800   123716453.352          50.000    23542470.040    92385650.430          50.000  
E21  25067290.400   131729475.945          50.000    25067295.120    98369402.258          50.000  
E27  23244360.060   122149910.754          50.000    23244364.300    91215830.332          50.000  
> 2020  5 21 21 22 17.0000000  0 12       0.000000000000
G 2  20836840.200   109498364.078          50.000                                                  
G 5  23729858.920   124701214.973          50.000                                                  
G 6  21814481.660   114635821.898          50.000    21814484.600    85604671.547          50.000  
G12  20321761.100   106791573.945          50.000                                                  
G19  23527043.760   123635453.520          50.000                                                  
G24  22464502.220   118051691.387          50.000    22464505.480    88155478.652          50.000  
G25  21875776.040   114957915.922          50.000    21875778.780    85845195.125          50.000  
G29  23890727.500   125546588.074          50.000                                                  
E13  23797381.000   125056063.109          50.000    23797385.160    93386010.016          50.000  
E15  23542718.920   123717788.738          50.000    23542724.160    92386647.637          50.000  
E21  25066905.960   131727455.645          50.000    25066910.660    98367893.590          50.000  
E27  23244468.100   122150478.527          50.000    23244472.340    91216254.320          50.000  
> 2020  5 21 21 22 18.0000000  0 12       0.000000000000
G 2  20836969.200   109499041.926          50.000                                                  
G 5  23729246.600   124697997.230          50.000                                                  
G 6  21814943.240   114638247.563          50.000    21814946.180    85606482.918          50.000  
G12  20321546.660   106790447.070          50.000                                                  
G19  23527572.900   123638234.207          50.000                                                  
G24  22465011.940   118054369.984          50.000    22465015.200    88157478.902          50.000  
G25  21875274.020   114955277.820          50.000    21875276.760    85843225.117          50.000  
G29  23890259.020   125544126.188          50.000                                                  
E13  23797147.140   125054834.258          50.000    23797151.300    93385092.367          50.000  
E15  23542973.100   123719124.391          50.000    23542978.320    92387645.035          50.000  
E21  25066521.560   131725435.582          50.000    25066526.260    98366385.102          50.000  
E27  23244576.220   122151046.719          50.000    23244580.460    91216678.621          50.000  
> 2020  5 21 21 22 19.0000000  0 12       0.000000000000
G 2  20837098.280   109499720.250          50.000                                                  
G 5  23728634.300   124694779.566          50.000                                                  
G 6  21815404.900   114640673.613          50.000    21815407.840    85608294.582          50.000  
G12  20321332.300   106789320.625          50.000                                                  
G19  23528102.060   123641014.922          50.000                                                  
G24  22465521.720   118057048.902          50.000    22465524.980    88159479.395          50.000  
G25  21874772.060   114952639.965          50.000    21874774.800    85841255.293          50.000  
G29  23889790.560   125541664.430          50.000                                                  
E13  23796913.360   125053605.738          50.000    23796917.520    93384174.969          50.000  
E15  23543227.300   123720460.289          50.000    23543232.540    92388642.621          50.000  
E21  25066137.180   131723415.750          50.000    25066141.900    98364876.789          50.000  
E27  23244684.420   122151615.313          50.000    23244688.660    91217103.215          50.000  
> 2020  5 21 21 22 20.0000000  0 12       0.000000000000
G 2  20837227.440   109500399.066          50.000                                                  
G 5  23728022.020   124691561.980          50.000                                                  
G 6  21815866.640   114643100.070          50.000    21815869.580    85610106.543          50.000  
G12  20321118.020   106788194.613          50.000                                                  
G19  23528631.220   123643795.676          50.000                                                  
G24  22466031.560   118059728.160          50.000    22466034.840    88161480.137          50.000  
G25  21874270.140   114950002.387          50.000    21874272.880    85839285.672          50.000  
G29  23889322.120   125539202.797          50.000                                                  
E13  23796679.640   125052377.535          50.000    23796683.800    93383257.801          50.000  
E15  23543481.560   123721796.445          50.000    23543486.800    92389640.402          50.000  
E21  25065752.880   131721396.148          50.000    25065757.580    98363368.645          50.000  
E27  23244792.700   122152184.293          50.000    23244796.940    91217528.105          50.000  
> 2020  5 21 21 22 21.0000000  0 12       0.000000000000
G 2  20837356.720   109501078.363          50.000                                                  
G 5  23727409.740   124688344.484          50.000                                                  
G 6  21816328.460   114645526.926          50.000    21816331.400    85611918.805          50.000  
G12  20320903.840   106787069.043          50.000                                                  
G19  23529160.380   123646576.473          50.000                                                  
G24  22466541.480   118062407.727          50.000    22466544.740    88163481.109          50.000  
G25  21873768.280   114947365.066          50.000    21873771.020    85837316.246          50.000  
G29  23888853.720   125536741.285          50.000                                                  
E13  23796446.000   125051149.672          50.000    23796450.160    93382340.891          50.000  
E15  23543735.880   123723132.852          50.000    23543741.100    92390638.367          50.000  
E21  25065368.600   131719376.785          50.000    25065373.320    98361860.680          50.000  
E27  23244901.060   122152753.688          50.000    23244905.280    91217953.301          50.000  
> 2020  5 21 21 22 22.0000000  0 12       0.000000000000
G 2  20837486.080   109501758.152          50.000                                                  
G 5  23726797.480   124685127.066          50.000                                                  
G 6  21816790.360   114647954.172          50.000    21816793.300    85613731.359          50.000  
G12  20320689.740   106785943.914          50.000                                                  
G19  23529689.560   123649357.316          50.000                                                  
G24  22467051.440   118065087.637          50.000    22467054.700    88165482.344          50.000  
G25  21873266.460   114944728.008          50.000    21873269.200    85835347.016          50.000  
G29  23888385.320   125534279.898          50.000                                                  
E13  23796212.400   125049922.113          50.000    23796216.560    93381424.211          50.000  
E15  23543990.240   123724469.531          50.000    23543995.460    92391636.535          50.000  
E21  25064984.360   131717357.645          50.000    25064989.080    98360352.879          50.000  
E27  23245009.480   122153323.469          50.000    23245013.720    91218378.789          50.000  
> 2020  5 21 21 22 23.0000000  0 12       0.000000000000
G 2  20837615.520   109502438.426          50.000                                                  
G 5  23726185.260   124681909.734          50.000                                                  
G 6  21817252.320   114650381.832          50.000    21817255.260    85615544.223          50.000  
G12  20320475.720   106784819.219          50.000                                                  
G19  23530218.740   123652138.191          50.000                                                  
G24  22467561.480   118067767.867          50.000    22467564.740    88167483.813          50.000  
G25  21872764.700   114942091.199          50.000    21872767.420    85833377.969          50.000  
G29  23887916.960   125531818.641          50.000                                                  
E13  23795978.880   125048694.918          50.000    23795983.040    93380507.797          50.000  
E15  23544244.640   123725806.453          50.000    23544249.880    92392634.887          50.000  
E21  25064600.180   131715338.742          50.000    25064604.900    98358845.258          50.000  
E27  23245117.980   122153893.664          50.000    23245122.220    91218804.586          50.000  
> 2020  5 21 21 22 24.0000000  0 12       0.000000000000
G 2  20837745.060   109503119.184          50.000                                                  
G 5  23725573.020   124678692.496          50.000                                                  
G 6  21817714.360   114652809.883          50.000    21817717.300    85617357.375          50.000  
G12  20320261.780   106783694.957          50.000                                                  
G19  23530747.940   123654919.105          50.000                                                  
G24  22468071.560   118070448.414          50.000    22468074.840    88169485.520          50.000  
G25  21872262.980   114939454.648          50.000    21872265.700    85831409.117          50.000  
G29  23887448.620   125529357.504          50.000                                                  
E13  23795745.400   125047468.035          50.000    23795749.560    93379591.617          50.000  
E15  23544499.100   123727143.633          50.000    23544504.340    92393633.430          50.000  
E21  25064216.040   131713320.070          50.000    25064220.760    98357337.809          50.000  
E27  23245226.560   122154464.258          50.000    23245230.800    91219230.676          50.000  
> 2020  5 21 21 22 25.0000000  0 12       0.000000000000
G 2  20837874.700   109503800.426          50.000                                                  
G 5  23724960.820   124675475.328          50.000                                                  
G 6  21818176.480   114655238.328          50.000    21818179.420    85619170.824          50.000  
G12  20320047.920   106782571.141          50.000                                                  
G19  23531277.140   123657700.059          50.000                                                  
G24  22468581.720   118073129.277          50.000    22468584.980    88171487.461          50.000  
G25  21871761.300   114936818.355          50.000    21871764.040    85829440.457          50.000  
G29  23886980.300   125526896.484          50.000                                                  
E13  23795512.000   125046241.484          50.000    23795516.160    93378675.688          50.000  
E15  23544753.600   123728481.066          50.000    23544758.840    92394632.164          50.000  
E21  25063831.940   131711301.633          50.000    25063836.660    98355830.535          50.000  
E27  23245335.220   122155035.250          50.000    23245339.460    91219657.066          50.000  
> 2020  5 21 21 22 26.0000000  0 12       0.000000000000
G 2  20838004.440   109504482.145          50.000                                                  
G 5  23724348.640   124672258.250          50.000                                                  
G 6  21818638.680   114657667.172          50.000    21818641.620    85620984.570          50.000  
G12  20319834.140   106781447.750          50.000                                                  
G19  23531806.340   123660481.047          50.000                                                  
G24  22469091.940   118075810.465          50.000    22469095.200    88173489.645          50.000  
G25  21871259.680   114934182.320          50.000    21871262.420    85827471.992          50.000  
G29  23886512.020   125524435.598          50.000                                                  
E13  23795278.660   125045015.254          50.000    23795282.820    93377759.996          50.000  
E15  23545008.160   123729818.758          50.000    23545013.400    92395631.086          50.000  
E21  25063447.900   131709283.418          50.000    25063452.600    98354323.426          50.000  
E27  23245443.960   122155606.637          50.000    23245448.180    91220083.750          50.000  
> 2020  5 21 21 22 27.0000000  0 12       0.000000000000
G 2  20838134.240   109505164.348          50.000                                                  
G 5  23723736.460   124669041.262          50.000                                                  
G 6  21819100.940   114660096.414          50.000    21819103.880    85622798.617          50.000  
G12  20319620.460   106780324.805          50.000                                                  
G19  23532335.560   123663262.074          50.000                                                  
G24  22469602.200   118078491.965          50.000    22469605.480    88175492.063          50.000  
G25  21870758.120   114931546.559          50.000    21870760.840    85825503.730          50.000  
G29  23886043.740   125521974.836          50.000                                                  
E13  23795045.380   125043789.363          50.000    23795049.540    93376844.559          50.000  
E15  23545262.760   123731156.703          50.000    23545268.000    92396630.203          50.000  
E21  25063063.880   131707265.445          50.000    25063068.600    98352816.500          50.000  
E27  23245552.760   122156178.434          50.000    23245557.000    91220510.742          50.000  
> 2020  5 21 21 22 28.0000000  0 12       0.000000000000
G 2  20838264.160   109505847.039          50.000                                                  
G 5  23723124.300   124665824.344          50.000                                                  
G 6  21819563.280   114662526.055          50.000    21819566.240    85624612.957          50.000  
G12  20319406.840   106779202.301          50.000                                                  
G19  23532864.780   123666043.141          50.000                                                  
G24  22470112.540   118081173.789          50.000    22470115.800    88177494.723          50.000  
G25  21870256.600   114928911.043          50.000    21870259.320    85823535.652          50.000  
G29  23885575.500   125519514.203          50.000                                                  
E13  23794812.160   125042563.805          50.000    23794816.320    93375929.367          50.000  
E15  23545517.420   123732494.902          50.000    23545522.640    92397629.508          50.000  
E21  25062679.920   131705247.703          50.000    25062684.640    98351309.746          50.000  
E27  23245661.640   122156750.629          50.000    23245665.880    91220938.031          50.000  
> 2020  5 21 21 22 29.0000000  0 12       0.000000000000
G 2  20838394.160   109506530.211          50.000                                                  
G 5  23722512.160   124662607.523          50.000                                                  
G 6  21820025.720   114664956.098          50.000    21820028.660    85626427.598          50.000  
G12  20319193.320   106778080.227          50.000                                                  
G19  23533394.000   123668824.250          50.000                                                  
G24  22470622.940   118083855.918          50.000    22470626.200    88179497.609          50.000  
G25  21869755.120   114926275.805          50.000    21869757.860    85821567.777          50.000  
G29  23885107.280   125517053.684          50.000                                                  
E13  23794579.000   125041338.570          50.000    23794583.160    93375014.422          50.000  
E15  23545772.120   123733833.352          50.000    23545777.340    92398629.000          50.000  
E21  25062296.000   131703230.191          50.000    25062300.720    98349803.164          50.000  
E27  23245770.600   122157323.227          50.000    23245774.840    91221365.617          50.000  
> 2020  5 21 21 22 30.0000000  0 12       0.000000000000
G 2  20838524.260   109507213.863          50.000                                                  
G 5  23721900.020   124659390.793          50.000                                                  
G 6  21820488.200   114667386.535          50.000    21820491.160    85628242.535          50.000  
G12  20318979.880   106776958.590          50.000                                                  
G19  23533923.240   123671605.391          50.000                                                  
G24  22471133.380   118086538.391          50.000    22471136.660    88181500.754          50.000  
G25  21869253.700   114923640.820          50.000    21869256.440    85819600.098          50.000  
G29  23884639.080   125514593.301          50.000                                                  
E13  23794345.920   125040113.672          50.000    23794350.080    93374099.727          50.000  
E15  23546026.860   123735172.070          50.000    23546032.100    92399628.691          50.000  
E21  25061912.120   131701212.918          50.000    25061916.840    98348296.758          50.000  
E27  23245879.640   122157896.227          50.000    23245883.880    91221793.508          50.000  
> 2020  5 21 21 22 31.0000000  0 12       0.000000000000
G 2  20838654.440   109507898.004          50.000                                                  
G 5  23721287.920   124656174.137          50.000                                                  
G 6  21820950.780   114669817.375          50.000    21820953.720    85630057.770          50.000  
G12  20318766.520   106775837.395          50.000                                                  
