     3.03           OBSERVATION DATA    M: Mixed            RINEX VERSION / TYPE
sbp2rinex v2.2 (RTKL                    20210504 171525 UTC PGM / RUN BY / DATE 
log: 2020-06-04-US-MTV-2.sbp                                COMMENT             
format: Swift Navigation SBP, option: CONVBASE,EPHALL,OBSALLCOMMENT             
                                                            MARKER NAME         
                                                            MARKER NUMBER       
                                                            MARKER TYPE         
                                                            OBSERVER / AGENCY   
                                                            REC # / TYPE / VERS 
                                                            ANT # / TYPE        
 -2741955.5197 -4323372.1783  3791312.8546                  APPROX POSITION XYZ 
        0.0000        0.0000        0.0000                  ANTENNA: DELTA H/E/N
G    6 C1C L1C S1C C5I L5I S5I                              SYS / # / OBS TYPES 
E    6 C1B L1B S1B C5I L5I S5I                              SYS / # / OBS TYPES 
  2020     6     4    23    32   38.0000000     GPS         TIME OF FIRST OBS   
  2020     6     4    23    54   59.0000000     GPS         TIME OF LAST OBS    
G                                                           SYS / PHASE SHIFT   
E                                                           SYS / PHASE SHIFT   
  0                                                         GLONASS SLOT / FRQ #
 C1C    0.000 C1P    0.000 C2C    0.000 C2P    0.000        GLONASS COD/PHS/BIS 
                                                            END OF HEADER       
> 2020  6  4 23 32 38.0000000  0 12       0.000000000000
G 5  22167781.060   116492387.121          50.000                                                  
G12  23990899.560   126072993.242          50.000                                                  
G13  24603751.100   129293603.930          50.000                                                  
G15  23947889.660   125846789.621          50.000                                                  
G20  23490366.220   123442667.078          50.000                                                  
G21  22989456.020   120810405.430          50.000                                                  
G25  22125349.900   116269419.688          50.000    22125353.580    86824560.305          50.000  
G26  23360720.960   122761323.395          50.000    23360723.060    91672406.563          50.000  
G29  20410749.440   107259205.027          50.000                                                  
E 5  26548680.920   139514214.695          50.000    26548686.440   104182676.125          50.000  
E15  23493140.060   123457249.719          50.000    23493145.340    92192089.160          50.000  
E30  25071207.920   131750023.035          50.000    25071214.480    98384733.945          50.000  
> 2020  6  4 23 32 39.0000000  0 12       0.000000000000
G 5  22168270.720   116494960.281          50.000                                                  
G12  23991625.620   126076808.719          50.000                                                  
G13  24603316.400   129291319.602          50.000                                                  
G15  23947327.780   125843836.926          50.000                                                  
G20  23489705.880   123439197.027          50.000                                                  
G21  22989125.120   120808666.531          50.000                                                  
G25  22125940.580   116272523.691          50.000    22125944.240    86826878.230          50.000  
G26  23360280.860   122759010.676          50.000    23360282.960    91670679.535          50.000  
G29  20410692.320   107258904.824          50.000                                                  
E 5  26548663.020   139514120.641          50.000    26548668.540   104182605.895          50.000  
E15  23493112.040   123457102.547          50.000    23493117.340    92191979.262          50.000  
E30  25071773.440   131752994.859          50.000    25071780.000    98386953.164          50.000  
> 2020  6  4 23 32 40.0000000  0 12       0.000000000000
G 5  22168760.460   116497533.891          50.000                                                  
G12  23992351.700   126080624.277          50.000                                                  
G13  24602881.760   129289035.488          50.000                                                  
G15  23946765.920   125840884.344          50.000                                                  
G20  23489045.580   123435727.148          50.000                                                  
G21  22988794.240   120806927.840          50.000                                                  
G25  22126531.320   116275628.023          50.000    22126534.980    86829196.395          50.000  
G26  23359840.840   122756698.422          50.000    23359842.940    91668952.852          50.000  
G29  20410635.260   107258605.000          50.000                                                  
E 5  26548645.220   139514027.043          50.000    26548650.720   104182535.996          50.000  
E15  23493084.060   123456955.469          50.000    23493089.360    92191869.430          50.000  
E30  25072338.980   131755966.809          50.000    25072345.560    98389172.473          50.000  
> 2020  6  4 23 32 41.0000000  0 12       0.000000000000
G 5  22169250.280   116500107.945          50.000                                                  
G12  23993077.800   126084439.926          50.000                                                  
G13  24602447.140   129286751.594          50.000                                                  
G15  23946204.080   125837931.863          50.000                                                  
G20  23488385.320   123432257.441          50.000                                                  
G21  22988463.420   120805189.348          50.000                                                  
G25  22127122.120   116278732.699          50.000    22127125.780    86831514.824          50.000  
G26  23359400.920   122754386.633          50.000    23359403.020    91667226.516          50.000  
G29  20410578.280   107258305.543          50.000                                                  
E 5  26548627.480   139513933.895          50.000    26548633.000   104182466.441          50.000  
E15  23493056.100   123456808.496          50.000    23493061.380    92191759.680          50.000  
E30  25072904.540   131758938.852          50.000    25072911.120    98391391.855          50.000  
> 2020  6  4 23 32 42.0000000  0 12       0.000000000000
G 5  22169740.200   116502682.457          50.000                                                  
G12  23993803.920   126088255.648          50.000                                                  
G13  24602012.580   129284467.922          50.000                                                  
G15  23945642.260   125834979.465          50.000                                                  
G20  23487725.100   123428787.906          50.000                                                  
G21  22988132.640   120803451.043          50.000                                                  
G25  22127712.980   116281837.727          50.000    22127716.660    86833833.508          50.000  
G26  23358961.100   122752075.301          50.000    23358963.200    91665500.523          50.000  
G29  20410521.360   107258006.461          50.000                                                  
E 5  26548609.840   139513841.199          50.000    26548615.360   104182397.219          50.000  
E15  23493028.140   123456661.625          50.000    23493033.440    92191650.004          50.000  
E30  25073470.140   131761911.004          50.000    25073476.700    98393611.316          50.000  
> 2020  6  4 23 32 43.0000000  0 12       0.000000000000
G 5  22170230.200   116505257.410          50.000                                                  
G12  23994530.040   126092071.473          50.000                                                  
G13  24601578.040   129282184.469          50.000                                                  
G15  23945080.460   125832027.184          50.000                                                  
G20  23487064.900   123425318.559          50.000                                                  
G21  22987801.880   120801712.941          50.000                                                  
G25  22128303.920   116284943.074          50.000    22128307.580    86836152.438          50.000  
G26  23358521.360   122749764.441          50.000    23358523.460    91663774.883          50.000  
G29  20410464.520   107257707.758          50.000                                                  
E 5  26548592.300   139513748.957          50.000    26548597.800   104182328.340          50.000  
E15  23493000.220   123456514.848          50.000    23493005.500    92191540.395          50.000  
E30  25074035.740   131764883.266          50.000    25074042.300    98395830.863          50.000  
> 2020  6  4 23 32 44.0000000  0 12       0.000000000000
G 5  22170720.280   116507832.820          50.000                                                  
G12  23995256.180   126095887.367          50.000                                                  
G13  24601143.560   129279901.238          50.000                                                  
G15  23944518.680   125829075.008          50.000                                                  
G20  23486404.740   123421849.379          50.000                                                  
G21  22987471.180   120799975.031          50.000                                                  
G25  22128894.920   116288048.758          50.000    22128898.580    86838471.617          50.000  
G26  23358081.700   122747454.047          50.000    23358083.800    91662049.586          50.000  
G29  20410407.760   107257409.434          50.000                                                  
E 5  26548574.820   139513657.168          50.000    26548580.340   104182259.793          50.000  
E15  23492972.300   123456368.172          50.000    23492977.600    92191430.867          50.000  
E30  25074601.360   131767855.637          50.000    25074607.920    98398050.484          50.000  
> 2020  6  4 23 32 45.0000000  0 12       0.000000000000
G 5  22171210.460   116510408.672          50.000                                                  
G12  23995982.340   126099703.352          50.000                                                  
G13  24600709.120   129277618.219          50.000                                                  
G15  23943956.920   125826122.934          50.000                                                  
G20  23485744.600   123418380.375          50.000                                                  
G21  22987140.500   120798237.332          50.000                                                  
G25  22129485.960   116291154.781          50.000    22129489.640    86840791.047          50.000  
G26  23357642.140   122745144.117          50.000    23357644.240    91660324.641          50.000  
G29  20410351.060   107257111.473          50.000                                                  
E 5  26548557.440   139513565.836          50.000    26548562.960   104182191.594          50.000  
E15  23492944.420   123456221.605          50.000    23492949.700    92191321.414          50.000  
E30  25075167.000   131770828.125          50.000    25075173.580    98400270.199          50.000  
> 2020  6  4 23 32 46.0000000  0 12       0.000000000000
G 5  22171700.700   116512984.973          50.000                                                  
G12  23996708.520   126103519.406          50.000                                                  
G13  24600274.720   129275335.418          50.000                                                  
G15  23943395.180   125823170.961          50.000                                                  
G20  23485084.500   123414911.551          50.000                                                  
G21  22986809.860   120796499.832          50.000                                                  
G25  22130077.080   116294261.129          50.000    22130080.760    86843110.719          50.000  
G26  23357202.660   122742834.652          50.000    23357204.760    91658600.043          50.000  
G29  20410294.420   107256813.891          50.000                                                  
E 5  26548540.140   139513474.949          50.000    26548545.660   104182123.723          50.000  
E15  23492916.540   123456075.129          50.000    23492921.840    92191212.035          50.000  
E30  25075732.680   131773800.707          50.000    25075739.240    98402489.984          50.000  
> 2020  6  4 23 32 47.0000000  0 12       0.000000000000
G 5  22172191.040   116515561.723          50.000                                                  
G12  23997434.700   126107335.551          50.000                                                  
G13  24599840.340   129273052.832          50.000                                                  
G15  23942833.460   125820219.094          50.000                                                  
G20  23484424.440   123411442.898          50.000                                                  
G21  22986479.260   120794762.531          50.000                                                  
G25  22130668.280   116297367.836          50.000    22130671.940    86845430.664          50.000  
G26  23356763.260   122740525.660          50.000    23356765.360    91656875.797          50.000  
G29  20410237.860   107256516.672          50.000                                                  
E 5  26548522.940   139513384.527          50.000    26548528.460   104182056.199          50.000  
E15  23492888.680   123455928.758          50.000    23492893.980    92191102.730          50.000  
E30  25076298.360   131776773.406          50.000    25076304.920    98404709.852          50.000  
> 2020  6  4 23 32 48.0000000  0 12       0.000000000000
G 5  22172681.460   116518138.918          50.000                                                  
G12  23998160.900   126111151.777          50.000                                                  
G13  24599406.020   129270770.469          50.000                                                  
G15  23942271.740   125817267.328          50.000                                                  
G20  23483764.400   123407974.430          50.000                                                  
G21  22986148.700   120793025.430          50.000                                                  
G25  22131259.520   116300474.867          50.000    22131263.200    86847750.848          50.000  
G26  23356323.960   122738217.129          50.000    23356326.060    91655151.895          50.000  
G29  20410181.380   107256219.828          50.000                                                  
E 5  26548505.820   139513294.547          50.000    26548511.340   104181989.008          50.000  
E15  23492860.840   123455782.488          50.000    23492866.140    92190993.504          50.000  
E30  25076864.060   131779746.195          50.000    25076870.640    98406929.793          50.000  
> 2020  6  4 23 32 49.0000000  0 12       0.000000000000
G 5  22173171.980   116520716.563          50.000                                                  
G12  23998887.140   126114968.109          50.000                                                  
G13  24598971.740   129268488.324          50.000                                                  
G15  23941710.060   125814315.676          50.000                                                  
G20  23483104.420   123404506.125          50.000                                                  
G21  22985818.180   120791288.523          50.000                                                  
G25  22131850.840   116303582.234          50.000    22131854.500    86850071.281          50.000  
G26  23355884.760   122735909.055          50.000    23355886.860    91653428.332          50.000  
G29  20410124.960   107255923.359          50.000                                                  
E 5  26548488.780   139513205.031          50.000    26548494.300   104181922.160          50.000  
E15  23492833.040   123455636.316          50.000    23492838.320    92190884.352          50.000  
E30  25077429.780   131782719.102          50.000    25077436.360    98409149.816          50.000  
> 2020  6  4 23 32 50.0000000  0 12       0.000000000000
G 5  22173662.580   116523294.652          50.000                                                  
G12  23999613.380   126118784.512          50.000                                                  
G13  24598537.520   129266206.402          50.000                                                  
G15  23941148.400   125811364.117          50.000                                                  
G20  23482444.440   123401038.004          50.000                                                  
G21  22985487.700   120789551.816          50.000                                                  
G25  22132442.220   116306689.938          50.000    22132445.880    86852391.969          50.000  
G26  23355445.640   122733601.457          50.000    23355447.740    91651705.125          50.000  
G29  20410068.620   107255627.262          50.000                                                  
E 5  26548471.840   139513115.957          50.000    26548477.340   104181855.645          50.000  
E15  23492805.240   123455490.242          50.000    23492810.540    92190775.270          50.000  
E30  25077995.540   131785692.125          50.000    25078002.100    98411369.930          50.000  
> 2020  6  4 23 32 51.0000000  0 12       0.000000000000
G 5  22174153.260   116525873.199          50.000                                                  
G12  24000339.620   126122601.016          50.000                                                  
G13  24598103.320   129263924.703          50.000                                                  
G15  23940586.760   125808412.656          50.000                                                  
G20  23481784.520   123397570.059          50.000                                                  
G21  22985157.240   120787815.301          50.000                                                  
G25  22133033.660   116309797.977          50.000    22133037.320    86854712.906          50.000  
G26  23355006.600   122731294.316          50.000    23355008.700    91649982.266          50.000  
G29  20410012.340   107255331.543          50.000                                                  
E 5  26548454.980   139513027.344          50.000    26548460.480   104181789.473          50.000  
E15  23492777.460   123455344.273          50.000    23492782.760    92190666.266          50.000  
E30  25078561.300   131788665.242          50.000    25078567.880    98413590.113          50.000  
> 2020  6  4 23 32 52.0000000  0 12       0.000000000000
G 5  22174644.020   116528452.191          50.000                                                  
G12  24001065.900   126126417.574          50.000                                                  
G13  24597669.160   129261643.219          50.000                                                  
G15  23940025.140   125805461.301          50.000                                                  
G20  23481124.620   123394102.289          50.000                                                  
G21  22984826.840   120786078.996          50.000                                                  
G25  22133625.160   116312906.352          50.000    22133628.840    86857034.090          50.000  
G26  23354567.660   122728987.648          50.000    23354569.760    91648259.754          50.000  
G29  20409956.140   107255036.199          50.000                                                  
E 5  26548438.200   139512939.176          50.000    26548443.700   104181723.633          50.000  
E15  23492749.700   123455198.410          50.000    23492755.000    92190557.344          50.000  
E30  25079127.100   131791638.469          50.000    25079133.660    98415810.379          50.000  
> 2020  6  4 23 32 53.0000000  0 12       0.000000000000
G 5  22175134.880   116531031.629          50.000                                                  
G12  24001792.180   126130234.227          50.000                                                  
G13  24597235.060   129259361.961          50.000                                                  
G15  23939463.520   125802510.043          50.000                                                  
G20  23480464.760   123390634.688          50.000                                                  
G21  22984496.460   120784342.887          50.000                                                  
G25  22134216.740   116316015.066          50.000    22134220.400    86859355.531          50.000  
G26  23354128.800   122726681.438          50.000    23354130.900    91646537.582          50.000  
G29  20409900.020   107254741.230          50.000                                                  
E 5  26548421.500   139512851.461          50.000    26548427.020   104181658.129          50.000  
E15  23492721.960   123455052.637          50.000    23492727.260    92190448.488          50.000  
E30  25079692.900   131794611.805          50.000    25079699.480    98418030.727          50.000  
> 2020  6  4 23 32 54.0000000  0 12       0.000000000000
G 5  22175625.800   116533611.520          50.000                                                  
G12  24002518.480   126134050.953          50.000                                                  
G13  24596800.980   129257080.914          50.000                                                  
G15  23938901.940   125799558.887          50.000                                                  
G20  23479804.920   123387167.262          50.000                                                  
G21  22984166.140   120782606.973          50.000                                                  
G25  22134808.360   116319124.105          50.000    22134812.040    86861677.215          50.000  
G26  23353690.040   122724375.707          50.000    23353692.120    91644815.773          50.000  
G29  20409843.960   107254446.629          50.000                                                  
E 5  26548404.900   139512764.207          50.000    26548410.420   104181592.973          50.000  
E15  23492694.240   123454906.969          50.000    23492699.540    92190339.707          50.000  
E30  25080258.720   131797585.246          50.000    25080265.300    98420251.148          50.000  
> 2020  6  4 23 32 55.0000000  0 12       0.000000000000
G 5  22176116.820   116536191.848          50.000                                                  
G12  24003244.800   126137867.762          50.000                                                  
G13  24596366.960   129254800.094          50.000                                                  
G15  23938340.360   125796607.840          50.000                                                  
G20  23479145.140   123383700.016          50.000                                                  
G21  22983835.840   120780871.242          50.000                                                  
G25  22135400.060   116322233.480          50.000    22135403.720    86863999.152          50.000  
G26  23353251.360   122722070.434          50.000    23353253.440    91643094.305          50.000  
G29  20409787.960   107254152.402          50.000                                                  
E 5  26548388.380   139512677.406          50.000    26548393.900   104181528.156          50.000  
E15  23492666.540   123454761.398          50.000    23492671.840    92190231.004          50.000  
E30  25080824.580   131800558.789          50.000    25080831.160    98422471.652          50.000  
> 2020  6  4 23 32 56.0000000  0 12       0.000000000000
G 5  22176607.940   116538772.629          50.000                                                  
G12  24003971.140   126141684.656          50.000                                                  
G13  24595932.980   129252519.492          50.000                                                  
G15  23937778.820   125793656.902          50.000                                                  
G20  23478485.360   123380232.953          50.000                                                  
G21  22983505.580   120779135.723          50.000                                                  
G25  22135991.820   116325343.195          50.000    22135995.480    86866321.336          50.000  
G26  23352812.760   122719765.629          50.000    23352814.860    91641373.184          50.000  
G29  20409732.040   107253858.563          50.000                                                  
E 5  26548371.940   139512591.051          50.000    26548377.460   104181463.672          50.000  
E15  23492638.860   123454615.941          50.000    23492644.160    92190122.383          50.000  
E30  25081390.440   131803532.441          50.000    25081397.020    98424692.234          50.000  
> 2020  6  4 23 32 57.0000000  0 12       0.000000000000
G 5  22177099.120   116541353.855          50.000                                                  
G12  24004697.480   126145501.629          50.000                                                  
G13  24595499.040   129250239.113          50.000                                                  
G15  23937217.300   125790706.055          50.000                                                  
G20  23477825.640   123376766.082          50.000                                                  
G21  22983175.360   120777400.426          50.000                                                  
G25  22136583.640   116328453.246          50.000    22136587.320    86868643.766          50.000  
G26  23352374.260   122717461.297          50.000    23352376.360    91639652.410          50.000  
G29  20409676.200   107253565.086          50.000                                                  
E 5  26548355.600   139512505.152          50.000    26548361.120   104181399.523          50.000  
E15  23492611.200   123454470.574          50.000    23492616.500    92190013.828          50.000  
E30  25081956.340   131806506.203          50.000    25081962.900    98426912.898          50.000  
> 2020  6  4 23 32 58.0000000  0 12       0.000000000000
G 5  22177590.400   116543935.520          50.000                                                  
G12  24005423.840   126149318.676          50.000                                                  
G13  24595065.140   129247958.957          50.000                                                  
G15  23936655.780   125787755.316          50.000                                                  
G20  23477165.940   123373299.367          50.000                                                  
G21  22982845.160   120775665.305          50.000                                                  
G25  22137175.520   116331563.617          50.000    22137179.200    86870966.449          50.000  
G26  23351935.840   122715157.410          50.000    23351937.940    91637931.980          50.000  
G29  20409620.420   107253271.977          50.000                                                  
E 5  26548339.340   139512419.707          50.000    26548344.860   104181335.719          50.000  
E15  23492583.560   123454325.297          50.000    23492588.840    92189905.344          50.000  
E30  25082522.240   131809480.074          50.000    25082528.820    98429133.645          50.000  
> 2020  6  4 23 32 59.0000000  0 12       0.000000000000
G 5  22178081.760   116546517.641          50.000                                                  
G12  24006150.220   126153135.805          50.000                                                  
G13  24594631.280   129245679.012          50.000                                                  
G15  23936094.300   125784804.695          50.000                                                  
G20  23476506.280   123369832.832          50.000                                                  
G21  22982515.020   120773930.383          50.000                                                  
G25  22137767.480   116334674.336          50.000    22137771.160    86873289.387          50.000  
G26  23351497.520   122712854.012          50.000    23351499.620    91636211.914          50.000  
G29  20409564.720   107252979.262          50.000                                                  
E 5  26548323.160   139512334.715          50.000    26548328.680   104181272.250          50.000  
E15  23492555.940   123454180.141          50.000    23492561.220    92189796.945          50.000  
E30  25083088.180   131812454.059          50.000    25083094.760    98431354.473          50.000  
> 2020  6  4 23 33  0.0000000  0 12       0.000000000000
G 5  22178573.220   116549100.215          50.000                                                  
G12  24006876.620   126156953.023          50.000                                                  
G13  24594197.460   129243399.289          50.000                                                  
G15  23935532.840   125781854.168          50.000                                                  
G20  23475846.660   123366366.488          50.000                                                  
G21  22982184.920   120772195.664          50.000                                                  
G25  22138359.500   116337785.391          50.000    22138363.160    86875612.578          50.000  
G26  23351059.280   122710551.070          50.000    23351061.380    91634492.184          50.000  
G29  20409509.080   107252686.906          50.000                                                  
E 5  26548307.080   139512250.176          50.000    26548312.600   104181209.121          50.000  
E15  23492528.320   123454035.074          50.000    23492533.620    92189688.617          50.000  
E30  25083654.120   131815428.133          50.000    25083660.700    98433575.371          50.000  
> 2020  6  4 23 33  1.0000000  0 12       0.000000000000
G 5  22179064.740   116551683.227          50.000                                                  
G12  24007603.020   126160770.328          50.000                                                  
G13  24593763.680   129241119.797          50.000                                                  
G15  23934971.380   125778903.750          50.000                                                  
G20  23475187.060   123362900.301          50.000                                                  
G21  22981854.840   120770461.133          50.000                                                  
G25  22138951.580   116340896.777          50.000    22138955.240    86877936.012          50.000  
G26  23350621.140   122708248.609          50.000    23350623.240    91632772.816          50.000  
G29  20409453.520   107252394.930          50.000                                                  
E 5  26548291.080   139512166.090          50.000    26548296.600   104181146.332          50.000  
E15  23492500.740   123453890.113          50.000    23492506.040    92189580.367          50.000  
E30  25084220.100   131818402.328          50.000    25084226.680    98435796.359          50.000  
> 2020  6  4 23 33  2.0000000  0 12       0.000000000000
G 5  22179556.360   116554266.688          50.000                                                  
G12  24008329.440   126164587.707          50.000                                                  
G13  24593329.940   129238840.512          50.000                                                  
G15  23934409.960   125775953.438          50.000                                                  
G20  23474527.500   123359434.305          50.000                                                  
G21  22981524.820   120768726.813          50.000                                                  
G25  22139543.720   116344008.504          50.000    22139547.400    86880259.703          50.000  
G26  23350183.080   122705946.590          50.000    23350185.180    91631053.777          50.000  
G29  20409398.040   107252103.324          50.000                                                  
E 5  26548275.160   139512082.461          50.000    26548280.680   104181083.879          50.000  
E15  23492473.180   123453745.246          50.000    23492478.460    92189472.188          50.000  
E30  25084786.080   131821376.613          50.000    25084792.660    98438017.414          50.000  
> 2020  6  4 23 33  3.0000000  0 12       0.000000000000
G 5  22180048.060   116556850.590          50.000                                                  
G12  24009055.880   126168405.145          50.000                                                  
G13  24592896.260   129236561.453          50.000                                                  
G15  23933848.560   125773003.227          50.000                                                  
G20  23473867.980   123355968.492          50.000                                                  
G21  22981194.820   120766992.699          50.000                                                  
G25  22140135.920   116347120.555          50.000    22140139.600    86882583.637          50.000  
G26  23349745.120   122703645.051          50.000    23349747.200    91629335.094          50.000  
G29  20409342.620   107251812.113          50.000                                                  
E 5  26548259.340   139511999.281          50.000    26548264.840   104181021.766          50.000  
E15  23492445.620   123453600.488          50.000    23492450.920    92189364.090          50.000  
E30  25085352.100   131824351.016          50.000    25085358.680    98440238.559          50.000  
> 2020  6  4 23 33  4.0000000  0 12       0.000000000000
G 5  22180539.860   116559434.949          50.000                                                  
G12  24009782.340   126172222.688          50.000                                                  
G13  24592462.600   129234282.609          50.000                                                  
G15  23933287.160   125770053.129          50.000                                                  
G20  23473208.500   123352502.848          50.000                                                  
G21  22980864.860   120765258.777          50.000                                                  
G25  22140728.200   116350232.953          50.000    22140731.860    86884907.832          50.000  
G26  23349307.240   122701343.984          50.000    23349309.320    91627616.770          50.000  
G29  20409287.280   107251521.258          50.000                                                  
E 5  26548243.600   139511916.555          50.000    26548249.100   104180959.988          50.000  
E15  23492418.100   123453455.824          50.000    23492423.400    92189256.063          50.000  
E30  25085918.120   131827325.527          50.000    25085924.700    98442459.785          50.000  
> 2020  6  4 23 33  5.0000000  0 12       0.000000000000
G 5  22181031.720   116562019.750          50.000                                                  
G12  24010508.800   126176040.313          50.000                                                  
G13  24592029.000   129232003.988          50.000                                                  
G15  23932725.800   125767103.117          50.000                                                  
G20  23472549.040   123349037.379          50.000                                                  
G21  22980534.960   120763525.055          50.000                                                  
G25  22141320.520   116353345.684          50.000    22141324.200    86887232.270          50.000  
G26  23348869.440   122699043.379          50.000    23348871.540    91625898.781          50.000  
G29  20409232.000   107251230.797          50.000                                                  
E 5  26548227.940   139511834.285          50.000    26548233.460   104180898.555          50.000  
E15  23492390.600   123453311.270          50.000    23492395.880    92189148.117          50.000  
E30  25086484.180   131830300.145          50.000    25086490.760    98444681.086          50.000  
> 2020  6  4 23 33  6.0000000  0 12       0.000000000000
G 5  22181523.680   116564604.996          50.000                                                  
G12  24011235.300   126179858.012          50.000                                                  
G13  24591595.420   129229725.586          50.000                                                  
G15  23932164.440   125764153.227          50.000                                                  
G20  23471889.600   123345572.082          50.000                                                  
G21  22980205.080   120761791.520          50.000                                                  
G25  22141912.920   116356458.750          50.000    22141916.600    86889556.961          50.000  
G26  23348431.740   122696743.242          50.000    23348433.840    91624181.148          50.000  
G29  20409176.800   107250940.691          50.000                                                  
E 5  26548212.360   139511752.457          50.000    26548217.880   104180837.449          50.000  
E15  23492363.100   123453166.801          50.000    23492368.400    92189040.234          50.000  
E30  25087050.260   131833274.863          50.000    25087056.840    98446902.465          50.000  
> 2020  6  4 23 33  7.0000000  0 12       0.000000000000
G 5  22182015.720   116567190.699          50.000                                                  
G12  24011961.800   126183675.797          50.000                                                  
G13  24591161.900   129227447.410          50.000                                                  
G15  23931603.120   125761203.434          50.000                                                  
G20  23471230.220   123342106.965          50.000                                                  
G21  22979875.220   120760058.191          50.000                                                  
G25  22142505.380   116359572.148          50.000    22142509.060    86891881.898          50.000  
G26  23347994.120   122694443.574          50.000    23347996.220    91622463.863          50.000  
G29  20409121.660   107250650.969          50.000                                                  
E 5  26548196.880   139511671.098          50.000    26548202.400   104180776.691          50.000  
E15  23492335.620   123453022.445          50.000    23492340.920    92188932.434          50.000  
E30  25087616.340   131836249.691          50.000    25087622.920    98449123.926          50.000  
> 2020  6  4 23 33  8.0000000  0 12       0.000000000000
G 5  22182507.860   116569776.844          50.000                                                  
G12  24012688.320   126187493.660          50.000                                                  
G13  24590728.420   129225169.453          50.000                                                  
G15  23931041.820   125758253.754          50.000                                                  
G20  23470570.860   123338642.031          50.000                                                  
G21  22979545.420   120758325.059          50.000                                                  
G25  22143097.920   116362685.883          50.000    22143101.580    86894207.090          50.000  
G26  23347556.600   122692144.359          50.000    23347558.700    91620746.922          50.000  
G29  20409066.600   107250361.613          50.000                                                  
E 5  26548181.480   139511590.184          50.000    26548187.000   104180716.270          50.000  
E15  23492308.180   123452878.188          50.000    23492313.480    92188824.711          50.000  
E30  25088182.460   131839224.625          50.000    25088189.040    98451345.465          50.000  
> 2020  6  4 23 33  9.0000000  0 12       0.000000000000
G 5  22183000.060   116572363.445          50.000                                                  
G12  24013414.840   126191311.602          50.000                                                  
G13  24590294.980   129222891.719          50.000                                                  
G15  23930480.520   125755304.180          50.000                                                  
G20  23469911.540   123335177.266          50.000                                                  
G21  22979215.660   120756592.121          50.000                                                  
G25  22143690.500   116365799.926          50.000    22143694.180    86896532.512          50.000  
G26  23347119.160   122689845.621          50.000    23347121.260    91619030.332          50.000  
G29  20409011.600   107250072.637          50.000                                                  
E 5  26548166.180   139511509.727          50.000    26548171.680   104180656.191          50.000  
E15  23492280.740   123452734.031          50.000    23492286.040    92188717.063          50.000  
E30  25088748.580   131842199.660          50.000    25088755.160    98453567.078          50.000  
> 2020  6  4 23 33 10.0000000  0 12       0.000000000000
G 5  22183492.360   116574950.492          50.000                                                  
G12  24014141.400   126195129.629          50.000                                                  
G13  24589861.580   129220614.203          50.000                                                  
G15  23929919.260   125752354.703          50.000                                                  
G20  23469252.240   123331712.676          50.000                                                  
G21  22978885.920   120754859.391          50.000                                                  
G25  22144283.140   116368914.340          50.000    22144286.820    86898858.207          50.000  
G26  23346681.820   122687547.352          50.000    23346683.920    91617314.090          50.000  
G29  20408956.680   107249784.023          50.000                                                  
E 5  26548150.960   139511429.715          50.000    26548156.460   104180596.441          50.000  
E15  23492253.340   123452589.969          50.000    23492258.620    92188609.480          50.000  
E30  25089314.740   131845174.797          50.000    25089321.320    98455788.773          50.000  
> 2020  6  4 23 33 11.0000000  0 12       0.000000000000
G 5  22183984.740   116577537.980          50.000                                                  
G12  24014867.960   126198947.734          50.000                                                  
G13  24589428.240   129218336.906          50.000                                                  
G15  23929358.020   125749405.344          50.000                                                  
G20  23468592.980   123328248.262          50.000                                                  
G21  22978556.240   120753126.848          50.000                                                  
G25  22144875.860   116372029.066          50.000    22144879.540    86901184.137          50.000  
G26  23346244.560   122685249.555          50.000    23346246.660    91615598.203          50.000  
G29  20408901.840   107249495.805          50.000                                                  
E 5  26548135.820   139511350.172          50.000    26548141.320   104180537.043          50.000  
E15  23492225.940   123452446.004          50.000    23492231.220    92188501.977          50.000  
E30  25089880.920   131848150.047          50.000    25089887.500    98458010.547          50.000  
> 2020  6  4 23 33 12.0000000  0 12       0.000000000000
G 5  22184477.220   116580125.926          50.000                                                  
G12  24015594.540   126202765.914          50.000                                                  
G13  24588994.920   129216059.844          50.000                                                  
G15  23928796.780   125746456.078          50.000                                                  
G20  23467933.760   123324784.039          50.000                                                  
G21  22978226.580   120751394.516          50.000                                                  
G25  22145468.640   116375144.141          50.000    22145472.320    86903510.328          50.000  
G26  23345807.400   122682952.207          50.000    23345809.480    91613882.656          50.000  
G29  20408847.060   107249207.949          50.000                                                  
E 5  26548120.760   139511271.070          50.000    26548126.280   104180477.977          50.000  
E15  23492198.560   123452302.156          50.000    23492203.860    92188394.559          50.000  
E30  25090447.100   131851125.398          50.000    25090453.680    98460232.398          50.000  
> 2020  6  4 23 33 13.0000000  0 12       0.000000000000
G 5  22184969.780   116582714.313          50.000                                                  
G12  24016321.120   126206584.176          50.000                                                  
G13  24588561.640   129213783.000          50.000                                                  
G15  23928235.580   125743506.926          50.000                                                  
G20  23467274.580   123321319.980          50.000                                                  
G21  22977896.960   120749662.379          50.000                                                  
G25  22146061.480   116378259.547          50.000    22146065.160    86905836.766          50.000  
G26  23345370.320   122680655.352          50.000    23345372.400    91612167.469          50.000  
G29  20408792.360   107248920.480          50.000                                                  
E 5  26548105.800   139511192.426          50.000    26548111.300   104180419.246          50.000  
E15  23492171.200   123452158.395          50.000    23492176.500    92188287.203          50.000  
E30  25091013.320   131854100.871          50.000    25091019.900    98462454.340          50.000  
> 2020  6  4 23 33 14.0000000  0 12       0.000000000000
G 5  22185462.400   116585303.141          50.000                                                  
G12  24017047.740   126210402.531          50.000                                                  
G13  24588128.420   129211506.387          50.000                                                  
G15  23927674.400   125740557.879          50.000                                                  
G20  23466615.420   123317856.117          50.000                                                  
G21  22977567.380   120747930.445          50.000                                                  
G25  22146654.380   116381375.270          50.000    22146658.060    86908163.438          50.000  
G26  23344933.320   122678358.941          50.000    23344935.420    91610452.621          50.000  
G29  20408737.720   107248633.379          50.000                                                  
E 5  26548090.920   139511114.234          50.000    26548096.420   104180360.855          50.000  
E15  23492143.860   123452014.734          50.000    23492149.160    92188179.926          50.000  
E30  25091579.540   131857076.438          50.000    25091586.140    98464676.352          50.000  
> 2020  6  4 23 33 15.0000000  0 12       0.000000000000
G 5  22185955.140   116587892.406          50.000                                                  
G12  24017774.360   126214220.953          50.000                                                  
G13  24587695.240   129209229.984          50.000                                                  
G15  23927113.220   125737608.953          50.000                                                  
G20  23465956.300   123314392.426          50.000                                                  
G21  22977237.840   120746198.703          50.000                                                  
G25  22147247.360   116384491.332          50.000    22147251.040    86910490.367          50.000  
G26  23344496.420   122676063.020          50.000    23344498.520    91608738.133          50.000  
G29  20408683.160   107248346.660          50.000                                                  
E 5  26548076.120   139511036.496          50.000    26548081.640   104180302.809          50.000  
E15  23492116.540   123451871.176          50.000    23492121.840    92188072.723          50.000  
E30  25092145.800   131860052.105          50.000    25092152.380    98466898.441          50.000  
> 2020  6  4 23 33 16.0000000  0 12       0.000000000000
G 5  22186447.940   116590482.121          50.000                                                  
G12  24018501.000   126218039.461          50.000                                                  
G13  24587262.100   129206953.809          50.000                                                  
G15  23926552.080   125734660.109          50.000                                                  
G20  23465297.220   123310928.910          50.000                                                  
G21  22976908.340   120744467.160          50.000                                                  
G25  22147840.380   116387607.727          50.000    22147844.060    86912817.543          50.000  
G26  23344059.600   122673767.559          50.000    23344061.700    91607023.992          50.000  
G29  20408628.680   107248060.309          50.000                                                  
E 5  26548061.420   139510959.215          50.000    26548066.920   104180245.094          50.000  
E15  23492089.240   123451727.719          50.000    23492094.540    92187965.598          50.000  
E30  25092712.080   131863027.891          50.000    25092718.660    98469120.617          50.000  
> 2020  6  4 23 33 17.0000000  0 12       0.000000000000
G 5  22186940.840   116593072.289          50.000                                                  
G12  24019227.640   126221858.035          50.000                                                  
G13  24586829.000   129204677.867          50.000                                                  
G15  23925990.960   125731711.387          50.000                                                  
G20  23464638.160   123307465.574          50.000                                                  
G21  22976578.880   120742735.816          50.000                                                  
G25  22148433.480   116390724.457          50.000    22148437.160    86915144.973          50.000  
G26  23343622.880   122671472.555          50.000    23343624.980    91605310.191          50.000  
G29  20408574.260   107247774.320          50.000                                                  
E 5  26548046.800   139510882.383          50.000    26548052.300   104180187.723          50.000  
E15  23492061.960   123451584.367          50.000    23492067.260    92187858.547          50.000  
E30  25093278.360   131866003.770          50.000    25093284.960    98471342.863          50.000  
> 2020  6  4 23 33 18.0000000  0 12       0.000000000000
G 5  22187433.800   116595662.895          50.000                                                  
G12  24019954.320   126225676.703          50.000                                                  
G13  24586395.940   129202402.133          50.000                                                  
G15  23925429.840   125728762.758          50.000                                                  
G20  23463979.140   123304002.414          50.000                                                  
G21  22976249.460   120741004.672          50.000                                                  
G25  22149026.640   116393841.523          50.000    22149030.320    86917472.648          50.000  
G26  23343186.240   122669178.031          50.000    23343188.340    91603596.746          50.000  
G29  20408519.900   107247488.723          50.000                                                  
E 5  26548032.260   139510806.004          50.000    26548037.780   104180130.684          50.000  
E15  23492034.700   123451441.105          50.000    23492040.000    92187751.566          50.000  
E30  25093844.680   131868979.758          50.000    25093851.260    98473565.188          50.000  
> 2020  6  4 23 33 19.0000000  0 12       0.000000000000
G 5  22187926.860   116598253.945          50.000                                                  
G12  24020681.000   126229495.438          50.000                                                  
G13  24585962.920   129200126.625          50.000                                                  
G15  23924868.760   125725814.238          50.000                                                  
G20  23463320.160   123300539.438          50.000                                                  
G21  22975920.060   120739273.734          50.000                                                  
G25  22149619.860   116396958.914          50.000    22149623.540    86919800.570          50.000  
G26  23342749.700   122666883.980          50.000    23342751.800    91601883.660          50.000  
G29  20408465.640   107247203.500          50.000                                                  
E 5  26548017.820   139510730.086          50.000    26548023.320   104180073.992          50.000  
E15  23492007.460   123451297.953          50.000    23492012.760    92187644.668          50.000  
E30  25094411.020   131871955.852          50.000    25094417.600    98475787.594          50.000  
> 2020  6  4 23 33 20.0000000  0 12       0.000000000000
G 5  22188420.020   116600845.449          50.000                                                  
G12  24021407.700   126233314.258          50.000                                                  
G13  24585529.940   129197851.344          50.000                                                  
G15  23924307.700   125722865.816          50.000                                                  
G20  23462661.220   123297076.641          50.000                                                  
G21  22975590.720   120737542.988          50.000                                                  
G25  22150213.140   116400076.641          50.000    22150216.820    86922128.738          50.000  
G26  23342313.240   122664590.383          50.000    23342315.340    91600170.910          50.000  
G29  20408411.420   107246918.637          50.000                                                  
E 5  26548003.460   139510654.609          50.000    26548008.960   104180017.633          50.000  
E15  23491980.240   123451154.906          50.000    23491985.540    92187537.848          50.000  
E30  25094977.360   131874932.051          50.000    25094983.960    98478010.078          50.000  
> 2020  6  4 23 33 21.0000000  0 12       0.000000000000
G 5  22188913.240   116603437.387          50.000                                                  
G12  24022134.420   126237133.180          50.000                                                  
G13  24585097.020   129195576.277          50.000                                                  
G15  23923746.660   125719917.520          50.000                                                  
G20  23462002.300   123293614.027          50.000                                                  
G21  22975261.400   120735812.438          50.000                                                  
G25  22150806.500   116403194.715          50.000    22150810.180    86924457.172          50.000  
G26  23341876.880   122662297.262          50.000    23341878.980    91598458.516          50.000  
G29  20408357.280   107246634.164          50.000                                                  
E 5  26547989.180   139510579.590          50.000    26547994.680   104179961.613          50.000  
E15  23491953.040   123451011.953          50.000    23491958.340    92187431.098          50.000  
E30  25095543.740   131877908.363          50.000    25095550.320    98480232.648          50.000  
> 2020  6  4 23 33 22.0000000  0 12       0.000000000000
G 5  22189406.560   116606029.781          50.000                                                  
G12  24022861.140   126240952.129          50.000                                                  
G13  24584664.120   129193301.445          50.000                                                  
G15  23923185.620   125716969.316          50.000                                                  
G20  23461343.420   123290151.578          50.000                                                  
G21  22974932.120   120734082.086          50.000                                                  
G25  22151399.900   116406313.094          50.000    22151403.580    86926785.828          50.000  
G26  23341440.600   122660004.605          50.000    23341442.700    91596746.469          50.000  
G29  20408303.220   107246350.066          50.000                                                  
E 5  26547974.980   139510505.035          50.000    26547980.500   104179905.938          50.000  
E15  23491925.860   123450869.090          50.000    23491931.160    92187324.414          50.000  
E30  25096110.140   131880884.766          50.000    25096116.720    98482455.285          50.000  
> 2020  6  4 23 33 23.0000000  0 12       0.000000000000
G 5  22189899.960   116608622.617          50.000                                                  
G12  24023587.880   126244771.191          50.000                                                  
G13  24584231.280   129191026.816          50.000                                                  
G15  23922624.620   125714021.223          50.000                                                  
G20  23460684.560   123286689.328          50.000                                                  
G21  22974602.880   120732351.918          50.000                                                  
G25  22151993.380   116409431.824          50.000    22151997.060    86929114.750          50.000  
G26  23341004.420   122657712.418          50.000    23341006.500    91595034.770          50.000  
G29  20408249.240   107246066.340          50.000                                                  
E 5  26547960.880   139510430.922          50.000    26547966.400   104179850.594          50.000  
E15  23491898.700   123450726.340          50.000    23491903.980    92187217.813          50.000  
E30  25096676.540   131883861.281          50.000    25096683.140    98484678.004          50.000  
> 2020  6  4 23 33 24.0000000  0 12       0.000000000000
G 5  22190393.440   116611215.895          50.000                                                  
G12  24024314.640   126248590.328          50.000                                                  
G13  24583798.480   129188752.426          50.000                                                  
G15  23922063.640   125711073.234          50.000                                                  
