     3.03           OBSERVATION DATA    M: Mixed            RINEX VERSION / TYPE
sbp2rinex v2.2 (RTKL                    20210504 171526 UTC PGM / RUN BY / DATE 
log: 2020-06-05-US-MTV-2.sbp                                COMMENT             
format: Swift Navigation SBP, option: CONVBASE,EPHALL,OBSALLCOMMENT             
                                                            MARKER NAME         
                                                            MARKER NUMBER       
                                                            MARKER TYPE         
                                                            OBSERVER / AGENCY   
                                                            REC # / TYPE / VERS 
                                                            ANT # / TYPE        
 -2744475.9526 -4320022.2477  3793289.6547                  APPROX POSITION XYZ 
        0.0000        0.0000        0.0000                  ANTENNA: DELTA H/E/N
G    6 C1C L1C S1C C5I L5I S5I                              SYS / # / OBS TYPES 
E    6 C1B L1B S1B C5I L5I S5I                              SYS / # / OBS TYPES 
  2020     6     5    20    18   25.0000000     GPS         TIME OF FIRST OBS   
  2020     6     5    20    48   23.0000000     GPS         TIME OF LAST OBS    
G                                                           SYS / PHASE SHIFT   
E                                                           SYS / PHASE SHIFT   
  0                                                         GLONASS SLOT / FRQ #
 C1C    0.000 C1P    0.000 C2C    0.000 C2P    0.000        GLONASS COD/PHS/BIS 
                                                            END OF HEADER       
> 2020  6  5 20 18 25.0000000  0 13       0.000000000000
G 2  20815434.880   109385868.320          50.000                                                  
G 5  23819664.640   125173069.215          50.000                                                  
G 6  21805197.520   114587033.250          50.000    21805200.220    85568238.543          50.000  
G12  20360670.060   106996050.375          50.000                                                  
G19  23429068.300   123120568.641          50.000                                                  
G24  22395990.320   117691654.945          50.000    22395993.380    87886619.379          50.000  
G25  21960274.100   115401953.711          50.000    21960276.720    86176781.223          50.000  
E11  22998569.320   120858317.805          50.000    22998569.460    90251334.434          50.000  
E12  22043934.460   115841680.566          50.000    22043935.300    86505146.176          50.000  
E24  21677077.660   113913635.395          50.000    21677093.400    85065344.406          50.000  
E25  25101110.300   131907197.660          50.000    25101115.100    98502116.324          50.000  
E31  26243370.580   137909797.355          50.000    26243376.620   102984572.074          50.000  
E33  27726476.360   145703601.117          50.000    27726480.360   108804625.227          50.000  
> 2020  6  5 20 18 26.0000000  0 13       0.000000000000
G 2  20815547.140   109386458.199          50.000                                                  
G 5  23819050.020   125169839.316          50.000                                                  
G 6  21805655.460   114589439.727          50.000    21805658.160    85570035.590          50.000  
G12  20360441.560   106994849.555          50.000                                                  
G19  23429595.720   123123340.238          50.000                                                  
G24  22396491.760   117694289.984          50.000    22396494.800    87888587.102          50.000  
G25  21959764.200   115399274.168          50.000    21959766.820    86174780.262          50.000  
E11  22998315.740   120856985.324          50.000    22998315.900    90250339.398          50.000  
E12  22044184.500   115842994.488          50.000    22044185.340    86506127.355          50.000  
E24  21677180.520   113914175.977          50.000    21677196.280    85065748.090          50.000  
E25  25100719.760   131905145.309          50.000    25100724.540    98500583.723          50.000  
E31  26243860.480   137912371.797          50.000    26243866.520   102986494.547          50.000  
E33  27726987.660   145706287.988          50.000    27726991.660   108806631.656          50.000  
> 2020  6  5 20 18 27.0000000  0 13       0.000000000000
G 2  20815659.480   109387048.566          50.000                                                  
G 5  23818435.400   125166609.480          50.000                                                  
G 6  21806113.480   114591846.594          50.000    21806116.180    85571832.926          50.000  
G12  20360213.140   106993649.176          50.000                                                  
G19  23430123.140   123126111.875          50.000                                                  
G24  22396993.240   117696925.367          50.000    22396996.300    87890555.082          50.000  
G25  21959254.360   115396594.871          50.000    21959256.960    86172779.488          50.000  
E11  22998062.260   120855653.203          50.000    22998062.400    90249344.633          50.000  
E12  22044434.580   115844308.676          50.000    22044435.420    86507108.727          50.000  
E24  21677283.480   113914716.953          50.000    21677299.220    85066152.066          50.000  
E25  25100329.240   131903093.168          50.000    25100334.040    98499051.281          50.000  
E31  26244350.420   137914946.445          50.000    26244356.460   102988417.172          50.000  
E33  27727498.960   145708974.848          50.000    27727502.960   108808638.074          50.000  
> 2020  6  5 20 18 28.0000000  0 13       0.000000000000
G 2  20815771.920   109387639.434          50.000                                                  
G 5  23817820.780   125163379.711          50.000                                                  
G 6  21806571.560   114594253.879          50.000    21806574.280    85573630.574          50.000  
G12  20359984.780   106992449.207          50.000                                                  
G19  23430650.580   123128883.555          50.000                                                  
G24  22397494.820   117699561.090          50.000    22397497.860    87892523.316          50.000  
G25  21958744.540   115393915.805          50.000    21958747.140    86170778.891          50.000  
E11  22997808.820   120854321.402          50.000    22997808.960    90248350.109          50.000  
E12  22044684.700   115845623.129          50.000    22044685.560    86508090.301          50.000  
E24  21677386.480   113915258.309          50.000    21677402.240    85066556.324          50.000  
E25  25099938.780   131901041.262          50.000    25099943.580    98497519.012          50.000  
E31  26244840.400   137917521.316          50.000    26244846.440   102990339.965          50.000  
E33  27728010.240   145711661.699          50.000    27728014.240   108810644.488          50.000  
> 2020  6  5 20 18 29.0000000  0 13       0.000000000000
G 2  20815884.440   109388230.797          50.000                                                  
G 5  23817206.200   125160150.020          50.000                                                  
G 6  21807029.740   114596661.566          50.000    21807032.440    85575428.523          50.000  
G12  20359756.520   106991249.672          50.000                                                  
G19  23431178.020   123131655.285          50.000                                                  
G24  22397996.440   117702197.148          50.000    22397999.500    87894491.797          50.000  
G25  21958234.780   115391237.004          50.000    21958237.380    86168778.484          50.000  
E11  22997555.460   120852989.949          50.000    22997555.600    90247355.840          50.000  
E12  22044934.880   115846937.855          50.000    22044935.740    86509072.074          50.000  
E24  21677489.580   113915800.094          50.000    21677505.340    85066960.902          50.000  
E25  25099548.360   131898989.582          50.000    25099553.140    98495986.914          50.000  
E31  26245330.420   137920096.395          50.000    26245336.460   102992262.910          50.000  
E33  27728521.540   145714348.551          50.000    27728525.540   108812650.902          50.000  
> 2020  6  5 20 18 30.0000000  0 13       0.000000000000
G 2  20815997.080   109388822.641          50.000                                                  
G 5  23816591.620   125156920.387          50.000                                                  
G 6  21807487.980   114599069.668          50.000    21807490.680    85577226.777          50.000  
G12  20359528.340   106990050.563          50.000                                                  
G19  23431705.460   123134427.051          50.000                                                  
G24  22398498.120   117704833.539          50.000    22398501.180    87896460.531          50.000  
G25  21957725.080   115388558.445          50.000    21957727.680    86166778.266          50.000  
E11  22997302.140   120851658.789          50.000    22997302.280    90246361.793          50.000  
E12  22045185.120   115848252.844          50.000    22045185.980    86510054.047          50.000  
E24  21677592.760   113916342.262          50.000    21677608.500    85067365.770          50.000  
E25  25099157.980   131896938.113          50.000    25099162.760    98494454.977          50.000  
E31  26245820.480   137922671.703          50.000    26245826.540   102994186.027          50.000  
E33  27729032.820   145717035.391          50.000    27729036.820   108814657.309          50.000  
> 2020  6  5 20 18 31.0000000  0 13       0.000000000000
G 2  20816109.800   109389414.988          50.000                                                  
G 5  23815977.060   125153690.828          50.000                                                  
G 6  21807946.300   114601478.172          50.000    21807949.000    85579025.336          50.000  
G12  20359300.240   106988851.875          50.000                                                  
G19  23432232.920   123137198.867          50.000                                                  
G24  22398999.880   117707470.250          50.000    22399002.940    87898429.504          50.000  
G25  21957215.400   115385880.121          50.000    21957218.000    86164778.219          50.000  
E11  22997048.900   120850327.988          50.000    22997049.040    90245368.012          50.000  
E12  22045435.400   115849568.102          50.000    22045436.260    86511036.219          50.000  
E24  21677696.000   113916884.816          50.000    21677711.740    85067770.926          50.000  
E25  25098767.640   131894886.859          50.000    25098772.420    98492923.195          50.000  
E31  26246310.600   137925247.207          50.000    26246316.640   102996109.293          50.000  
E33  27729544.120   145719722.238          50.000    27729548.120   108816663.719          50.000  
> 2020  6  5 20 18 32.0000000  0 13       0.000000000000
G 2  20816222.600   109390007.828          50.000                                                  
G 5  23815362.500   125150461.344          50.000                                                  
G 6  21808404.700   114603887.086          50.000    21808407.420    85580824.199          50.000  
G12  20359072.220   106987653.621          50.000                                                  
G19  23432760.400   123139970.723          50.000                                                  
G24  22399501.700   117710107.297          50.000    22399504.740    87900398.727          50.000  
G25  21956705.780   115383202.063          50.000    21956708.380    86162778.371          50.000  
E11  22996795.700   120848997.480          50.000    22996795.860    90244374.453          50.000  
E12  22045685.740   115850883.617          50.000    22045686.600    86512018.586          50.000  
E24  21677799.320   113917427.773          50.000    21677815.060    85068176.379          50.000  
E25  25098377.340   131892835.828          50.000    25098382.120    98491391.582          50.000  
E31  26246800.740   137927822.945          50.000    26246806.780   102998032.734          50.000  
E33  27730055.400   145722409.059          50.000    27730059.400   108818670.109          50.000  
> 2020  6  5 20 18 33.0000000  0 13       0.000000000000
G 2  20816335.520   109390601.152          50.000                                                  
G 5  23814747.960   125147231.918          50.000                                                  
G 6  21808863.180   114606296.395          50.000    21808865.880    85582623.359          50.000  
G12  20358844.280   106986455.801          50.000                                                  
G19  23433287.880   123142742.621          50.000                                                  
G24  22400003.560   117712744.676          50.000    22400006.620    87902368.195          50.000  
G25  21956196.220   115380524.234          50.000    21956198.820    86160778.695          50.000  
E11  22996542.600   120847667.332          50.000    22996542.740    90243381.160          50.000  
E12  22045936.120   115852199.395          50.000    22045936.980    86513001.148          50.000  
E24  21677902.720   113917971.125          50.000    21677918.460    85068582.125          50.000  
E25  25097987.080   131890785.023          50.000    25097991.880    98489860.137          50.000  
E31  26247290.920   137930398.883          50.000    26247296.980   102999956.320          50.000  
E33  27730566.680   145725095.871          50.000    27730570.680   108820676.492          50.000  
> 2020  6  5 20 18 34.0000000  0 13       0.000000000000
G 2  20816448.520   109391194.980          50.000                                                  
G 5  23814133.420   125144002.555          50.000                                                  
G 6  21809321.740   114608706.105          50.000    21809324.440    85584422.816          50.000  
G12  20358616.420   106985258.395          50.000                                                  
G19  23433815.360   123145514.555          50.000                                                  
G24  22400505.500   117715382.367          50.000    22400508.560    87904337.898          50.000  
G25  21955686.680   115377846.664          50.000    21955689.280    86158779.215          50.000  
E11  22996289.540   120846337.520          50.000    22996289.680    90242388.121          50.000  
E12  22046186.560   115853515.445          50.000    22046187.420    86513983.910          50.000  
E24  21678006.200   113918514.863          50.000    21678021.940    85068988.164          50.000  
E25  25097596.860   131888734.445          50.000    25097601.660    98488328.863          50.000  
E31  26247781.160   137932975.031          50.000    26247787.200   103001880.066          50.000  
E33  27731077.980   145727782.680          50.000    27731081.960   108822682.875          50.000  
> 2020  6  5 20 18 35.0000000  0 13       0.000000000000
G 2  20816561.620   109391789.301          50.000                                                  
G 5  23813518.920   125140773.270          50.000                                                  
G 6  21809780.360   114611116.246          50.000    21809783.080    85586222.598          50.000  
G12  20358388.640   106984061.418          50.000                                                  
G19  23434342.840   123148286.539          50.000                                                  
G24  22401007.500   117718020.391          50.000    22401010.560    87906307.852          50.000  
G25  21955177.200   115375169.348          50.000    21955179.820    86156779.918          50.000  
E11  22996036.540   120845008.035          50.000    22996036.700    90241395.320          50.000  
E12  22046437.040   115854831.754          50.000    22046437.900    86514966.871          50.000  
E24  21678109.740   113919059.016          50.000    21678125.480    85069394.512          50.000  
E25  25097206.700   131886684.094          50.000    25097211.500    98486797.754          50.000  
E31  26248271.420   137935551.410          50.000    26248277.460   103003803.984          50.000  
E33  27731589.260   145730469.480          50.000    27731593.260   108824689.254          50.000  
> 2020  6  5 20 18 36.0000000  0 13       0.000000000000
G 2  20816674.800   109392384.117          50.000                                                  
G 5  23812904.420   125137544.055          50.000                                                  
G 6  21810239.080   114613526.773          50.000    21810241.780    85588022.664          50.000  
G12  20358160.960   106982864.875          50.000                                                  
G19  23434870.340   123151058.570          50.000                                                  
G24  22401509.560   117720658.738          50.000    22401512.620    87908278.043          50.000  
G25  21954667.780   115372492.281          50.000    21954670.380    86154780.809          50.000  
E11  22995783.620   120843678.883          50.000    22995783.760    90240402.773          50.000  
E12  22046687.580   115856148.344          50.000    22046688.440    86515950.035          50.000  
E24  21678213.360   113919603.555          50.000    21678229.100    85069801.148          50.000  
E25  25096816.560   131884633.949          50.000    25096821.360    98485266.805          50.000  
E31  26248761.740   137938128.004          50.000    26248767.780   103005728.063          50.000  
E33  27732100.540   145733156.270          50.000    27732104.540   108826695.621          50.000  
> 2020  6  5 20 18 37.0000000  0 13       0.000000000000
G 2  20816788.080   109392979.430          50.000                                                  
G 5  23812289.920   125134314.906          50.000                                                  
G 6  21810697.860   114615937.707          50.000    21810700.560    85589823.039          50.000  
G12  20357933.340   106981668.742          50.000                                                  
G19  23435397.860   123153830.645          50.000                                                  
G24  22402011.680   117723297.418          50.000    22402014.740    87910248.488          50.000  
G25  21954158.400   115369815.445          50.000    21954161.000    86152781.875          50.000  
E11  22995530.740   120842350.035          50.000    22995530.900    90239410.453          50.000  
E12  22046938.180   115857465.176          50.000    22046939.020    86516933.387          50.000  
E24  21678317.060   113920148.484          50.000    21678332.800    85070208.074          50.000  
E25  25096426.480   131882584.031          50.000    25096431.280    98483736.020          50.000  
E31  26249252.080   137940704.797          50.000    26249258.120   103007652.289          50.000  
E33  27732611.820   145735843.047          50.000    27732615.800   108828701.977          50.000  
> 2020  6  5 20 18 38.0000000  0 13       0.000000000000
G 2  20816901.460   109393575.234          50.000                                                  
G 5  23811675.460   125131085.816          50.000                                                  
G 6  21811156.720   114618349.059          50.000    21811159.440    85591623.723          50.000  
G12  20357705.800   106980473.055          50.000                                                  
G19  23435925.380   123156602.766          50.000                                                  
G24  22402513.880   117725936.449          50.000    22402516.940    87912219.191          50.000  
G25  21953649.060   115367138.855          50.000    21953651.660    86150783.125          50.000  
E11  22995277.940   120841021.535          50.000    22995278.080    90238418.391          50.000  
E12  22047188.820   115858782.289          50.000    22047189.660    86517916.945          50.000  
E24  21678420.840   113920693.816          50.000    21678436.580    85070615.305          50.000  
E25  25096036.440   131880534.340          50.000    25096041.220    98482205.406          50.000  
E31  26249742.480   137943281.813          50.000    26249748.520   103009576.684          50.000  
E33  27733123.080   145738529.828          50.000    27733127.080   108830708.340          50.000  
> 2020  6  5 20 18 39.0000000  0 13       0.000000000000
G 2  20817014.940   109394171.531          50.000                                                  
G 5  23811060.980   125127856.793          50.000                                                  
G 6  21811615.660   114620760.801          50.000    21811618.380    85593424.699          50.000  
G12  20357478.360   106979277.793          50.000                                                  
G19  23436452.900   123159374.922          50.000                                                  
G24  22403016.140   117728575.820          50.000    22403019.200    87914190.148          50.000  
G25  21953139.760   115364462.512          50.000    21953142.360    86148784.555          50.000  
E11  22995025.200   120839693.367          50.000    22995025.340    90237426.578          50.000  
E12  22047439.500   115860099.660          50.000    22047440.340    86518900.695          50.000  
E24  21678524.680   113921239.539          50.000    21678540.420    85071022.824          50.000  
E25  25095646.440   131878484.863          50.000    25095651.220    98480674.953          50.000  
E31  26250232.900   137945859.039          50.000    26250238.940   103011501.234          50.000  
E33  27733634.360   145741216.594          50.000    27733638.360   108832714.688          50.000  
> 2020  6  5 20 18 40.0000000  0 13       0.000000000000
G 2  20817128.500   109394768.328          50.000                                                  
G 5  23810446.540   125124627.836          50.000                                                  
G 6  21812074.680   114623172.961          50.000    21812077.400    85595225.988          50.000  
G12  20357250.980   106978082.949          50.000                                                  
G19  23436980.420   123162147.113          50.000                                                  
G24  22403518.460   117731215.523          50.000    22403521.520    87916161.355          50.000  
G25  21952630.520   115361786.418          50.000    21952633.120    86146786.176          50.000  
E11  22994772.520   120838365.531          50.000    22994772.660    90236435.016          50.000  
E12  22047690.240   115861417.301          50.000    22047691.080    86519884.648          50.000  
E24  21678628.600   113921785.664          50.000    21678644.340    85071430.645          50.000  
E25  25095256.480   131876435.629          50.000    25095261.260    98479144.684          50.000  
E31  26250723.380   137948436.488          50.000    26250729.420   103013425.953          50.000  
E33  27734145.640   145743903.348          50.000    27734149.640   108834721.031          50.000  
> 2020  6  5 20 18 41.0000000  0 13       0.000000000000
G 2  20817242.160   109395365.617          50.000                                                  
G 5  23809832.100   125121398.957          50.000                                                  
G 6  21812533.780   114625585.512          50.000    21812536.480    85597027.566          50.000  
G12  20357023.680   106976888.527          50.000                                                  
G19  23437507.960   123164919.359          50.000                                                  
G24  22404020.840   117733855.582          50.000    22404023.900    87918132.828          50.000  
G25  21952121.320   115359110.582          50.000    21952123.920    86144787.988          50.000  
E11  22994519.900   120837038.004          50.000    22994520.040    90235443.676          50.000  
E12  22047941.020   115862735.207          50.000    22047941.880    86520868.797          50.000  
E24  21678732.600   113922332.184          50.000    21678748.340    85071838.758          50.000  
E25  25094866.560   131874386.602          50.000    25094871.360    98477614.566          50.000  
E31  26251213.880   137951014.145          50.000    26251219.940   103015350.824          50.000  
E33  27734656.920   145746590.105          50.000    27734660.900   108836727.375          50.000  
> 2020  6  5 20 18 42.0000000  0 13       0.000000000000
G 2  20817355.920   109395963.391          50.000                                                  
G 5  23809217.680   125118170.141          50.000                                                  
G 6  21812992.960   114627998.480          50.000    21812995.660    85598829.457          50.000  
G12  20356796.480   106975694.543          50.000                                                  
G19  23438035.520   123167691.641          50.000                                                  
G24  22404523.300   117736496.000          50.000    22404526.360    87920104.566          50.000  
G25  21951612.180   115356434.984          50.000    21951614.780    86142789.977          50.000  
E11  22994267.340   120835710.809          50.000    22994267.480    90234452.594          50.000  
E12  22048191.860   115864053.367          50.000    22048192.720    86521853.137          50.000  
E24  21678836.680   113922879.098          50.000    21678852.420    85072247.168          50.000  
E25  25094476.680   131872337.773          50.000    25094481.480    98476084.598          50.000  
E31  26251704.440   137953592.027          50.000    26251710.480   103017275.863          50.000  
E33  27735168.180   145749276.840          50.000    27735172.180   108838733.703          50.000  
> 2020  6  5 20 18 43.0000000  0 13       0.000000000000
G 2  20817469.760   109396561.668          50.000                                                  
G 5  23808603.260   125114941.383          50.000                                                  
G 6  21813452.200   114630411.840          50.000    21813454.900    85600631.641          50.000  
G12  20356569.360   106974500.977          50.000                                                  
G19  23438563.080   123170463.969          50.000                                                  
G24  22405025.820   117739136.746          50.000    22405028.880    87922076.551          50.000  
G25  21951103.080   115353759.637          50.000    21951105.680    86140792.152          50.000  
E11  22994014.860   120834383.977          50.000    22994015.000    90233461.773          50.000  
E12  22048442.760   115865371.793          50.000    22048443.600    86522837.676          50.000  
E24  21678940.820   113923426.406          50.000    21678956.580    85072655.875          50.000  
E25  25094086.840   131870289.191          50.000    25094091.640    98474554.813          50.000  
E31  26252195.040   137956170.102          50.000    26252201.080   103019201.047          50.000  
E33  27735679.440   145751963.563          50.000    27735683.440   108840740.016          50.000  
> 2020  6  5 20 18 44.0000000  0 13       0.000000000000
G 2  20817583.700   109397160.434          50.000                                                  
G 5  23807988.860   125111712.703          50.000                                                  
G 6  21813911.520   114632825.613          50.000    21813914.240    85602434.133          50.000  
G12  20356342.300   106973307.840          50.000                                                  
G19  23439090.640   123173236.332          50.000                                                  
G24  22405528.400   117741777.820          50.000    22405531.460    87924048.781          50.000  
G25  21950594.020   115351084.527          50.000    21950596.620    86138794.508          50.000  
E11  22993762.420   120833057.445          50.000    22993762.560    90232471.184          50.000  
E12  22048693.700   115866690.496          50.000    22048694.540    86523822.422          50.000  
E24  21679045.060   113923974.109          50.000    21679060.800    85073064.875          50.000  
E25  25093697.060   131868240.832          50.000    25093701.860    98473025.195          50.000  
E31  26252685.680   137958748.414          50.000    26252691.720   103021126.410          50.000  
E33  27736190.720   145754650.281          50.000    27736194.720   108842746.336          50.000  
> 2020  6  5 20 18 45.0000000  0 13       0.000000000000
G 2  20817697.740   109397759.688          50.000                                                  
G 5  23807374.480   125108484.090          50.000                                                  
G 6  21814370.920   114635239.777          50.000    21814373.640    85604236.918          50.000  
G12  20356115.340   106972115.141          50.000                                                  
G19  23439618.220   123176008.746          50.000                                                  
G24  22406031.040   117744419.223          50.000    22406034.100    87926021.258          50.000  
G25  21950085.000   115348409.672          50.000    21950087.600    86136797.055          50.000  
E11  22993510.060   120831731.238          50.000    22993510.200    90231480.836          50.000  
E12  22048944.680   115868009.449          50.000    22048945.520    86524807.355          50.000  
E24  21679149.360   113924522.207          50.000    21679165.100    85073474.168          50.000  
E25  25093307.300   131866192.699          50.000    25093312.100    98471495.746          50.000  
E31  26253176.340   137961326.918          50.000    26253182.400   103023051.914          50.000  
E33  27736701.980   145757336.988          50.000    27736705.980   108844752.641          50.000  
> 2020  6  5 20 18 46.0000000  0 13       0.000000000000
G 2  20817811.860   109398359.445          50.000                                                  
G 5  23806760.100   125105255.555          50.000                                                  
G 6  21814830.400   114637654.363          50.000    21814833.120    85606040.020          50.000  
G12  20355888.460   106970922.863          50.000                                                  
G19  23440145.800   123178781.195          50.000                                                  
G24  22406533.740   117747060.945          50.000    22406536.800    87927993.969          50.000  
G25  21949576.040   115345735.059          50.000    21949578.640    86134799.777          50.000  
E11  22993257.740   120830405.375          50.000    22993257.900    90230490.742          50.000  
E12  22049195.720   115869328.684          50.000    22049196.580    86525792.496          50.000  
E24  21679253.720   113925070.707          50.000    21679269.480    85073883.758          50.000  
E25  25092917.600   131864144.789          50.000    25092922.400    98469966.461          50.000  
E31  26253667.060   137963905.645          50.000    26253673.120   103024977.586          50.000  
E33  27737213.240   145760023.695          50.000    27737217.240   108846758.945          50.000  
> 2020  6  5 20 18 47.0000000  0 13       0.000000000000
G 2  20817926.080   109398959.688          50.000                                                  
G 5  23806145.740   125102027.082          50.000                                                  
G 6  21815289.960   114640069.348          50.000    21815292.680    85607843.414          50.000  
G12  20355661.660   106969731.000          50.000                                                  
G19  23440673.380   123181553.691          50.000                                                  
G24  22407036.520   117749703.023          50.000    22407039.580    87929966.949          50.000  
G25  21949067.120   115343060.699          50.000    21949069.720    86132802.691          50.000  
E11  22993005.500   120829079.855          50.000    22993005.660    90229500.910          50.000  
E12  22049446.820   115870648.168          50.000    22049447.660    86526777.828          50.000  
E24  21679358.180   113925619.602          50.000    21679373.920    85074293.648          50.000  
E25  25092527.940   131862097.094          50.000    25092532.740    98468437.340          50.000  
E31  26254157.820   137966484.586          50.000    26254163.860   103026903.418          50.000  
E33  27737724.500   145762710.391          50.000    27737728.500   108848765.242          50.000  
> 2020  6  5 20 18 48.0000000  0 13       0.000000000000
G 2  20818040.400   109399560.422          50.000                                                  
G 5  23805531.400   125098798.680          50.000                                                  
G 6  21815749.600   114642484.730          50.000    21815752.300    85609647.109          50.000  
G12  20355434.940   106968539.566          50.000                                                  
G19  23441200.980   123184326.234          50.000                                                  
G24  22407539.340   117752345.430          50.000    22407542.420    87931940.172          50.000  
G25  21948558.260   115340386.586          50.000    21948560.860    86130805.789          50.000  
E11  22992753.340   120827754.656          50.000    22992753.480    90228511.313          50.000  
E12  22049697.960   115871967.918          50.000    22049698.800    86527763.355          50.000  
E24  21679462.700   113926168.891          50.000    21679478.460    85074703.836          50.000  
E25  25092138.320   131860049.605          50.000    25092143.100    98466908.371          50.000  
E31  26254648.620   137969063.746          50.000    26254654.660   103028829.414          50.000  
E33  27738235.760   145765397.074          50.000    27738239.760   108850771.531          50.000  
> 2020  6  5 20 18 49.0000000  0 13       0.000000000000
G 2  20818154.820   109400161.652          50.000                                                  
G 5  23804917.060   125095570.340          50.000                                                  
G 6  21816209.300   114644900.523          50.000    21816212.020    85611451.109          50.000  
G12  20355208.300   106967348.566          50.000                                                  
G19  23441728.580   123187098.828          50.000                                                  
G24  22408042.240   117754988.156          50.000    22408045.300    87933913.637          50.000  
G25  21948049.440   115337712.723          50.000    21948052.040    86128809.074          50.000  
E11  22992501.220   120826429.789          50.000    22992501.360    90227521.961          50.000  
E12  22049949.140   115873287.934          50.000    22049950.000    86528749.082          50.000  
E24  21679567.300   113926718.578          50.000    21679583.060    85075114.313          50.000  
E25  25091748.740   131858002.355          50.000    25091753.540    98465379.582          50.000  
E31  26255139.460   137971643.121          50.000    26255145.500   103030755.566          50.000  
E33  27738747.020   145768083.746          50.000    27738751.020   108852777.813          50.000  
> 2020  6  5 20 18 50.0000000  0 13       0.000000000000
G 2  20818269.320   109400763.371          50.000                                                  
G 5  23804302.740   125092342.078          50.000                                                  
G 6  21816669.100   114647316.719          50.000    21816671.800    85613255.410          50.000  
G12  20354981.740   106966157.992          50.000                                                  
G19  23442256.200   123189871.465          50.000                                                  
G24  22408545.200   117757631.234          50.000    22408548.260    87935887.363          50.000  
G25  21947540.660   115335039.102          50.000    21947543.260    86126812.539          50.000  
E11  22992249.160   120825105.238          50.000    22992249.300    90226532.848          50.000  
E12  22050200.380   115874608.219          50.000    22050201.240    86529735.008          50.000  
E24  21679671.980   113927268.652          50.000    21679687.720    85075525.082          50.000  
E25  25091359.200   131855955.332          50.000    25091364.000    98463850.961          50.000  
E31  26255630.340   137974222.699          50.000    26255636.380   103032681.875          50.000  
E33  27739258.280   145770770.414          50.000    27739262.280   108854784.090          50.000  
> 2020  6  5 20 18 51.0000000  0 13       0.000000000000
G 2  20818383.920   109401365.586          50.000                                                  
G 5  23803688.440   125089113.887          50.000                                                  
G 6  21817128.960   114649733.324          50.000    21817131.660    85615060.020          50.000  
G12  20354755.260   106964967.832          50.000                                                  
G19  23442783.820   123192644.141          50.000                                                  
G24  22409048.220   117760274.629          50.000    22409051.280    87937861.324          50.000  
G25  21947031.940   115332365.734          50.000    21947034.540    86124816.195          50.000  
E11  22991997.180   120823781.035          50.000    22991997.320    90225543.996          50.000  
E12  22050451.680   115875928.758          50.000    22050452.520    86530721.125          50.000  
E24  21679776.740   113927819.121          50.000    21679792.480    85075936.148          50.000  
E25  25090969.700   131853908.535          50.000    25090974.500    98462322.508          50.000  
E31  26256121.260   137976802.500          50.000    26256127.300   103034608.348          50.000  
E33  27739769.540   145773457.074          50.000    27739773.540   108856790.359          50.000  
> 2020  6  5 20 18 52.0000000  0 13       0.000000000000
G 2  20818498.600   109401968.293          50.000                                                  
G 5  23803074.140   125085885.754          50.000                                                  
G 6  21817588.900   114652150.328          50.000    21817591.600    85616864.926          50.000  
G12  20354528.860   106963778.113          50.000                                                  
G19  23443311.460   123195416.859          50.000                                                  
G24  22409551.320   117762918.383          50.000    22409554.380    87939835.559          50.000  
G25  21946523.260   115329692.613          50.000    21946525.860    86122820.031          50.000  
E11  22991745.260   120822457.164          50.000    22991745.400    90224555.391          50.000  
E12  22050703.020   115877249.570          50.000    22050703.860    86531707.445          50.000  
E24  21679881.560   113928369.996          50.000    21679897.300    85076347.516          50.000  
E25  25090580.260   131851861.945          50.000    25090585.040    98460794.211          50.000  
E31  26256612.220   137979382.516          50.000    26256618.260   103036534.980          50.000  
E33  27740280.780   145776143.727          50.000    27740284.780   108858796.621          50.000  
> 2020  6  5 20 18 53.0000000  0 13       0.000000000000
G 2  20818613.400   109402571.488          50.000                                                  
G 5  23802459.860   125082657.688          50.000                                                  
G 6  21818048.920   114654567.734          50.000    21818051.620    85618670.129          50.000  
G12  20354302.540   106962588.828          50.000                                                  
G19  23443839.100   123198189.621          50.000                                                  
G24  22410054.460   117765562.457          50.000    22410057.540    87941810.027          50.000  
G25  21946014.640   115327019.730          50.000    21946017.220    86120824.051          50.000  
E11  22991493.380   120821133.602          50.000    22991493.540    90223567.020          50.000  
E12  22050954.400   115878570.641          50.000    22050955.260    86532693.957          50.000  
E24  21679986.460   113928921.266          50.000    21680002.220    85076759.176          50.000  
E25  25090190.840   131849815.586          50.000    25090195.640    98459266.086          50.000  
E31  26257103.220   137981962.742          50.000    26257109.280   103038461.773          50.000  
E33  27740792.040   145778830.359          50.000    27740796.040   108860802.875          50.000  
> 2020  6  5 20 18 54.0000000  0 13       0.000000000000
G 2  20818728.280   109403175.191          50.000                                                  
G 5  23801845.600   125079429.699          50.000                                                  
G 6  21818509.000   114656985.535          50.000    21818511.720    85620475.633          50.000  
G12  20354076.320   106961399.984          50.000                                                  
G19  23444366.740   123200962.426          50.000                                                  
G24  22410557.680   117768206.871          50.000    22410560.740    87943784.750          50.000  
G25  21945506.040   115324347.117          50.000    21945508.640    86118828.270          50.000  
E11  22991241.580   120819810.375          50.000    22991241.720    90222578.895          50.000  
E12  22051205.860   115879891.980          50.000    22051206.700    86533680.672          50.000  
E24  21680091.440   113929472.934          50.000    21680107.200    85077171.137          50.000  
E25  25089801.480   131847769.438          50.000    25089806.280    98457738.117          50.000  
E31  26257594.260   137984543.176          50.000    26257600.320   103040388.719          50.000  
E33  27741303.280   145781516.996          50.000    27741307.300   108862809.129          50.000  
> 2020  6  5 20 18 55.0000000  0 13       0.000000000000
G 2  20818843.240   109403779.383          50.000                                                  
G 5  23801231.340   125076201.770          50.000                                                  
G 6  21818969.180   114659403.777          50.000    21818971.900    85622281.461          50.000  
G12  20353850.160   106960211.559          50.000                                                  
G19  23444894.400   123203735.277          50.000                                                  
G24  22411060.960   117770851.609          50.000    22411064.020    87945759.715          50.000  
G25  21944997.520   115321674.746          50.000    21945000.100    86116832.668          50.000  
E11  22990989.840   120818487.461          50.000    22990989.980    90221591.004          50.000  
E12  22051457.340   115881213.578          50.000    22051458.200    86534667.578          50.000  
E24  21680196.500   113930024.992          50.000    21680212.240    85077583.387          50.000  
E25  25089412.160   131845723.527          50.000    25089416.940    98456210.328          50.000  
E31  26258085.340   137987123.828          50.000    26258091.400   103042315.828          50.000  
E33  27741814.540   145784203.621          50.000    27741818.540   108864815.371          50.000  
> 2020  6  5 20 18 56.0000000  0 13       0.000000000000
G 2  20818958.320   109404384.070          50.000                                                  
G 5  23800617.100   125072973.910          50.000                                                  
G 6  21819429.420   114661822.391          50.000    21819432.140    85624087.566          50.000  
G12  20353624.100   106959023.570          50.000                                                  
G19  23445422.060   123206508.164          50.000                                                  
G24  22411564.300   117773496.680          50.000    22411567.360    87947734.934          50.000  
G25  21944489.020   115319002.617          50.000    21944491.620    86114837.250          50.000  
E11  22990738.160   120817164.914          50.000    22990738.320    90220603.387          50.000  
E12  22051708.880   115882535.449          50.000    22051709.740    86535654.691          50.000  
E24  21680301.620   113930577.453          50.000    21680317.380    85077995.938          50.000  
E25  25089022.880   131843677.844          50.000    25089027.660    98454682.707          50.000  
E31  26258576.460   137989704.699          50.000    26258582.520   103044243.102          50.000  
E33  27742325.780   145786890.230          50.000    27742329.780   108866821.605          50.000  
> 2020  6  5 20 18 57.0000000  0 13       0.000000000000
G 2  20819073.480   109404989.238          50.000                                                  
G 5  23800002.880   125069746.133          50.000                                                  
G 6  21819889.760   114664241.410          50.000    21819892.460    85625893.977          50.000  
G12  20353398.120   106957835.996          50.000                                                  
G19  23445949.740   123209281.094          50.000                                                  
G24  22412067.700   117776142.086          50.000    22412070.780    87949710.395          50.000  
G25  21943980.580   115316330.734          50.000    21943983.180    86112842.012          50.000  
E11  22990486.540   120815842.648          50.000    22990486.700    90219615.984          50.000  
E12  22051960.480   115883857.566          50.000    22051961.320    86536641.984          50.000  
E24  21680406.840   113931130.301          50.000    21680422.580    85078408.777          50.000  
E25  25088633.640   131841632.371          50.000    25088638.420    98453155.246          50.000  
E31  26259067.640   137992285.777          50.000    26259073.680   103046170.527          50.000  
E33  27742837.020   145789576.828          50.000    27742841.020   108868827.832          50.000  
> 2020  6  5 20 18 58.0000000  0 13       0.000000000000
G 2  20819188.720   109405594.914          50.000                                                  
G 5  23799388.660   125066518.418          50.000                                                  
G 6  21820350.160   114666660.840          50.000    21820352.860    85627700.691          50.000  
G12  20353172.200   106956648.863          50.000                                                  
G19  23446477.420   123212054.066          50.000                                                  
G24  22412571.180   117778787.816          50.000    22412574.240    87951686.102          50.000  
G25  21943472.180   115313659.102          50.000    21943474.780    86110846.961          50.000  
E11  22990235.000   120814520.762          50.000    22990235.140    90218628.859          50.000  
E12  22052212.120   115885179.969          50.000    22052212.980    86537629.492          50.000  
E24  21680512.120   113931683.555          50.000    21680527.860    85078821.922          50.000  
E25  25088244.440   131839587.125          50.000    25088249.220    98451627.949          50.000  
E31  26259558.840   137994867.063          50.000    26259564.880   103048098.109          50.000  
E33  27743348.260   145792263.426          50.000    27743352.280   108870834.055          50.000  
> 2020  6  5 20 18 59.0000000  0 13       0.000000000000
G 2  20819304.080   109406201.070          50.000                                                  
G 5  23798774.460   125063290.770          50.000                                                  
G 6  21820810.640   114669080.656          50.000    21820813.340    85629507.699          50.000  
G12  20352946.380   106955462.137          50.000                                                  
G19  23447005.100   123214827.078          50.000                                                  
G24  22413074.700   117781433.871          50.000    22413077.760    87953662.055          50.000  
G25  21942963.840   115310987.719          50.000    21942966.440    86108852.098          50.000  
E11  22989983.520   120813199.184          50.000    22989983.660    90217641.969          50.000  
E12  22052463.820   115886502.621          50.000    22052464.660    86538617.188          50.000  
E24  21680617.460   113932237.188          50.000    21680633.220    85079235.352          50.000  
E25  25087855.280   131837542.094          50.000    25087860.060    98450100.816          50.000  
E31  26260050.080   137997448.570          50.000    26260056.140   103050025.859          50.000  
E33  27743859.500   145794950.000          50.000    27743863.520   108872840.262          50.000  
> 2020  6  5 20 19  0.0000000  0 13       0.000000000000
G 2  20819419.520   109406807.723          50.000                                                  
G 5  23798160.280   125060063.199          50.000                                                  
G 6  21821271.180   114671500.895          50.000    21821273.900    85631315.020          50.000  
G12  20352720.640   106954275.852          50.000                                                  
G19  23447532.800   123217600.133          50.000                                                  
G24  22413578.300   117784080.266          50.000    22413581.360    87955638.254          50.000  
G25  21942455.540   115308316.594          50.000    21942458.140    86106857.430          50.000  
E11  22989732.100   120811877.957          50.000    22989732.240    90216655.340          50.000  
E12  22052715.560   115887825.543          50.000    22052716.400    86539605.086          50.000  
E24  21680722.900   113932791.227          50.000    21680738.640    85079649.082          50.000  
E25  25087466.160   131835497.297          50.000    25087470.960    98448573.859          50.000  
E31  26260541.360   138000030.293          50.000    26260547.420   103051953.766          50.000  
E33  27744370.740   145797636.574          50.000    27744374.760   108874846.469          50.000  
> 2020  6  5 20 19  1.0000000  0 13       0.000000000000
G 2  20819535.060   109407414.867          50.000                                                  
G 5  23797546.100   125056835.703          50.000                                                  
G 6  21821731.820   114673921.523          50.000    21821734.540    85633122.633          50.000  
G12  20352494.980   106953089.992          50.000                                                  
G19  23448060.500   123220373.242          50.000                                                  
G24  22414081.940   117786726.980          50.000    22414085.020    87957614.699          50.000  
G25  21941947.280   115305645.703          50.000    21941949.880    86104862.934          50.000  
E11  22989480.720   120810557.020          50.000    22989480.880    90215668.926          50.000  
E12  22052967.360   115889148.719          50.000    22052968.200    86540593.172          50.000  
E24  21680828.400   113933345.664          50.000    21680844.140    85080063.109          50.000  
E25  25087077.100   131833452.730          50.000    25087081.880    98447047.074          50.000  
E31  26261032.700   138002612.230          50.000    26261038.740   103053881.836          50.000  
E33  27744881.980   145800323.145          50.000    27744885.980   108876852.672          50.000  
> 2020  6  5 20 19  2.0000000  0 13       0.000000000000
G 2  20819650.680   109408022.500          50.000                                                  
G 5  23796931.940   125053608.285          50.000                                                  
G 6  21822192.520   114676342.559          50.000    21822195.240    85634930.547          50.000  
G12  20352269.400   106951904.555          50.000                                                  
G19  23448588.220   123223146.391          50.000                                                  
G24  22414585.660   117789374.031          50.000    22414588.740    87959591.391          50.000  
G25  21941439.080   115302975.070          50.000    21941441.680    86102868.629          50.000  
E11  22989229.440   120809236.457          50.000    22989229.580    90214682.789          50.000  
E12  22053219.200   115890472.172          50.000    22053220.040    86541581.465          50.000  
E24  21680933.980   113933900.492          50.000    21680949.720    85080477.430          50.000  
E25  25086688.060   131831408.383          50.000    25086692.860    98445520.449          50.000  
E31  26261524.060   138005194.383          50.000    26261530.120   103055810.063          50.000  
E33  27745393.220   145803009.699          50.000    27745397.220   108878858.863          50.000  
> 2020  6  5 20 19  3.0000000  0 13       0.000000000000
G 2  20819766.400   109408630.625          50.000                                                  
G 5  23796317.800   125050380.926          50.000                                                  
G 6  21822653.320   114678764.004          50.000    21822656.020    85636738.770          50.000  
G12  20352043.900   106950719.551          50.000                                                  
G19  23449115.940   123225919.582          50.000                                                  
G24  22415089.440   117792021.434          50.000    22415092.520    87961568.344          50.000  
G25  21940930.920   115300304.672          50.000    21940933.520    86100874.504          50.000  
E11  22988978.200   120807916.188          50.000    22988978.340    90213696.875          50.000  
E12  22053471.080   115891795.883          50.000    22053471.940    86542569.949          50.000  
E24  21681039.640   113934455.723          50.000    21681055.380    85080892.047          50.000  
E25  25086299.080   131829364.250          50.000    25086303.880    98443993.988          50.000  
E31  26262015.480   138007776.746          50.000    26262021.520   103057738.449          50.000  
E33  27745904.460   145805696.238          50.000    27745908.460   108880865.047          50.000  
> 2020  6  5 20 19  4.0000000  0 13       0.000000000000
G 2  20819882.220   109409239.238          50.000                                                  
G 5  23795703.660   125047153.668          50.000                                                  
G 6  21823114.180   114681185.832          50.000    21823116.880    85638547.277          50.000  
G12  20351818.480   106949534.973          50.000                                                  
G19  23449643.660   123228692.813          50.000                                                  
G24  22415593.300   117794669.160          50.000    22415596.360    87963545.543          50.000  
G25  21940422.800   115297634.527          50.000    21940425.400    86098880.566          50.000  
E11  22988727.020   120806596.277          50.000    22988727.160    90212711.227          50.000  
E12  22053723.040   115893119.855          50.000    22053723.880    86543558.629          50.000  
E24  21681145.380   113935011.348          50.000    21681161.120    85081306.961          50.000  
E25  25085910.140   131827320.340          50.000    25085914.940    98442467.691          50.000  
E31  26262506.920   138010359.313          50.000    26262512.980   103059666.988          50.000  
E33  27746415.680   145808382.773          50.000    27746419.680   108882871.223          50.000  
> 2020  6  5 20 19  5.0000000  0 13       0.000000000000
G 2  20819998.140   109409848.348          50.000                                                  
G 5  23795089.560   125043926.496          50.000                                                  
G 6  21823575.120   114683608.090          50.000    21823577.820    85640356.105          50.000  
G12  20351593.140   106948350.813          50.000                                                  
G19  23450171.400   123231466.082          50.000                                                  
G24  22416097.200   117797317.238          50.000    22416100.280    87965523.004          50.000  
G25  21939914.740   115294964.645          50.000    21939917.340    86096886.820          50.000  
E11  22988475.920   120805276.680          50.000    22988476.060    90211725.813          50.000  
E12  22053975.020   115894444.094          50.000    22053975.880    86544547.508          50.000  
E24  21681251.180   113935567.363          50.000    21681266.920    85081722.168          50.000  
E25  25085521.240   131825276.652          50.000    25085526.040    98440941.563          50.000  
E31  26262998.400   138012942.105          50.000    26263004.460   103061595.695          50.000  
E33  27746926.920   145811069.297          50.000    27746930.920   108884877.391          50.000  
> 2020  6  5 20 19  6.0000000  0 13       0.000000000000
G 2  20820114.140   109410457.949          50.000                                                  
G 5  23794475.460   125040699.383          50.000                                                  
G 6  21824036.120   114686030.734          50.000    21824038.840    85642165.223          50.000  
G12  20351367.880   106947167.082          50.000                                                  
G19  23450699.160   123234239.395          50.000                                                  
G24  22416601.180   117799965.641          50.000    22416604.240    87967500.703          50.000  
G25  21939406.720   115292294.996          50.000    21939409.320    86094893.254          50.000  
E11  22988224.860   120803957.406          50.000    22988225.000    90210740.645          50.000  
E12  22054227.080   115895768.598          50.000    22054227.920    86545536.586          50.000  
E24  21681357.060   113936123.781          50.000    21681372.800    85082137.676          50.000  
E25  25085132.380   131823233.191          50.000    25085137.180    98439415.602          50.000  
E31  26263489.940   138015525.105          50.000    26263496.000   103063524.559          50.000  
E33  27747438.140   145813755.805          50.000    27747442.140   108886883.547          50.000  
> 2020  6  5 20 19  7.0000000  0 13       0.000000000000
G 2  20820230.240   109411068.039          50.000                                                  
G 5  23793861.360   125037472.344          50.000                                                  
G 6  21824497.220   114688453.777          50.000    21824499.920    85643974.641          50.000  
G12  20351142.720   106945983.789          50.000                                                  
G19  23451226.900   123237012.750          50.000                                                  
G24  22417105.220   117802614.359          50.000    22417108.280    87969478.641          50.000  
G25  21938898.760   115289625.605          50.000    21938901.360    86092899.879          50.000  
E11  22987973.880   120802638.477          50.000    22987974.020    90209755.730          50.000  
E12  22054479.160   115897093.355          50.000    22054480.020    86546525.852          50.000  
E24  21681463.020   113936680.590          50.000    21681478.760    85082553.473          50.000  
E25  25084743.560   131821189.953          50.000    25084748.360    98437889.809          50.000  
E31  26263981.500   138018108.313          50.000    26263987.560   103065453.574          50.000  
