     3.03           OBSERVATION DATA    M: Mixed            RINEX VERSION / TYPE
sbp2rinex v2.2 (RTKL                    20210504 171526 UTC PGM / RUN BY / DATE 
log: 2020-07-08-US-MTV-1.sbp                                COMMENT             
format: Swift Navigation SBP, option: CONVBASE,EPHALL,OBSALLCOMMENT             
                                                            MARKER NAME         
                                                            MARKER NUMBER       
                                                            MARKER TYPE         
                                                            OBSERVER / AGENCY   
                                                            REC # / TYPE / VERS 
                                                            ANT # / TYPE        
 -2724447.6243 -4348213.1617  3775595.0171                  APPROX POSITION XYZ 
        0.0000        0.0000        0.0000                  ANTENNA: DELTA H/E/N
G    6 C1C L1C S1C C5I L5I S5I                              SYS / # / OBS TYPES 
E    6 C1B L1B S1B C5I L5I S5I                              SYS / # / OBS TYPES 
  2020     7     8    22    28   25.0000000     GPS         TIME OF FIRST OBS   
  2020     7     8    23     4   54.0000000     GPS         TIME OF LAST OBS    
G                                                           SYS / PHASE SHIFT   
E                                                           SYS / PHASE SHIFT   
  0                                                         GLONASS SLOT / FRQ #
 C1C    0.000 C1P    0.000 C2C    0.000 C2P    0.000        GLONASS COD/PHS/BIS 
                                                            END OF HEADER       
> 2020  7  8 22 28 25.0000000  0 14       0.000000000000
G10  23733783.940   124721813.246          50.000    23733785.060    93136414.371          50.000  
G13  23362493.560   122770779.758          50.000                                                  
G15  21928150.560   115233024.430          50.000                                                  
G16  23762473.200   124872641.359          50.000                                                  
G20  21038958.080   110560470.020          50.000                                                  
G21  23149701.160   121652515.387          50.000                                                  
G26  22453319.700   117992906.609          50.000    22453320.860    88111578.660          50.000  
G29  21045975.740   110597343.715          50.000                                                  
E 2  26991544.100   141841486.305          50.000    26991549.200   105920573.398          50.000  
E 5  24940329.600   131062281.207          50.000    24940334.380    97871170.242          50.000  
E 9  23445891.600   123208972.180          50.000    23445895.560    92006689.758          50.000  
E27  27589732.380   144984980.375          50.000    27589737.540   108267988.102          50.000  
E30  24865104.720   130666964.820          50.000    24865109.500    97575963.137          50.000  
E36  24366508.080   128046825.984          50.000    24366512.980    95619369.215          50.000  
> 2020  7  8 22 28 26.0000000  0 14       0.000000000000
G10  23733172.120   124718598.160          50.000    23733173.260    93134013.500          50.000  
G13  23362446.320   122770531.488          50.000                                                  
G15  21927900.160   115231708.559          50.000                                                  
G16  23762110.740   124870736.676          50.000                                                  
G20  21038574.700   110558455.344          50.000                                                  
G21  23149373.880   121650795.516          50.000                                                  
G26  22453378.620   117993216.266          50.000    22453379.780    88111809.895          50.000  
G29  21046313.060   110599116.324          50.000                                                  
E 2  26992084.420   141844325.656          50.000    26992089.500   105922693.691          50.000  
E 5  24939932.000   131060191.785          50.000    24939936.780    97869609.961          50.000  
E 9  23445976.020   123209415.730          50.000    23445979.960    92007020.980          50.000  
E27  27589566.000   144984106.035          50.000    27589571.160   108267335.188          50.000  
E30  24865383.840   130668431.617          50.000    24865388.640    97577058.473          50.000  
E36  24366693.600   128047800.840          50.000    24366698.480    95620097.191          50.000  
> 2020  7  8 22 28 27.0000000  0 14       0.000000000000
G10  23732560.360   124715383.301          50.000    23732561.480    93131612.797          50.000  
G13  23362399.180   122770283.840          50.000                                                  
G15  21927649.880   115230393.293          50.000                                                  
G16  23761748.400   124868832.563          50.000                                                  
G20  21038191.400   110556441.090          50.000                                                  
G21  23149046.620   121649075.727          50.000                                                  
G26  22453437.660   117993526.539          50.000    22453438.820    88112041.594          50.000  
G29  21046650.460   110600889.410          50.000                                                  
E 2  26992624.740   141847165.023          50.000    26992629.820   105924813.996          50.000  
E 5  24939534.460   131058102.680          50.000    24939539.240    97868049.914          50.000  
E 9  23446060.500   123209859.754          50.000    23446064.460    92007352.555          50.000  
E27  27589399.700   144983232.148          50.000    27589404.860   108266682.609          50.000  
E30  24865663.040   130669898.805          50.000    24865667.820    97578154.098          50.000  
E36  24366879.120   128048775.832          50.000    24366884.020    95620825.270          50.000  
> 2020  7  8 22 28 28.0000000  0 14       0.000000000000
G10  23731948.640   124712168.676          50.000    23731949.760    93129212.266          50.000  
G13  23362352.180   122770036.805          50.000                                                  
G15  21927399.700   115229078.633          50.000                                                  
G16  23761386.160   124866928.984          50.000                                                  
G20  21037808.180   110554427.266          50.000                                                  
G21  23148719.360   121647356.023          50.000                                                  
G26  22453496.820   117993837.402          50.000    22453497.980    88112273.730          50.000  
G29  21046987.960   110602662.961          50.000                                                  
E 2  26993165.060   141850004.398          50.000    26993170.140   105926934.309          50.000  
E 5  24939136.980   131056013.891          50.000    24939141.740    97866490.105          50.000  
E 9  23446145.100   123210304.246          50.000    23446149.040    92007684.484          50.000  
E27  27589233.500   144982358.707          50.000    27589238.660   108266030.363          50.000  
E30  24865942.300   130671366.348          50.000    24865947.100    97579249.992          50.000  
E36  24367064.680   128049750.922          50.000    24367069.580    95621553.422          50.000  
> 2020  7  8 22 28 29.0000000  0 14       0.000000000000
G10  23731336.940   124708954.266          50.000    23731338.080    93126811.895          50.000  
G13  23362305.280   122769790.387          50.000                                                  
G15  21927149.640   115227764.570          50.000                                                  
G16  23761024.040   124865025.977          50.000                                                  
G20  21037425.040   110552413.859          50.000                                                  
G21  23148392.140   121645636.410          50.000                                                  
G26  22453556.100   117994148.871          50.000    22453557.260    88112506.320          50.000  
G29  21047325.540   110604436.984          50.000                                                  
E 2  26993705.380   141852843.801          50.000    26993710.460   105929054.637          50.000  
E 5  24938739.540   131053925.422          50.000    24938744.320    97864930.535          50.000  
E 9  23446229.760   123210749.203          50.000    23446233.720    92008016.758          50.000  
E27  27589067.380   144981485.715          50.000    27589072.520   108265378.453          50.000  
E30  24866221.640   130672834.266          50.000    24866226.420    97580346.160          50.000  
E36  24367250.260   128050726.117          50.000    24367255.160    95622281.652          50.000  
> 2020  7  8 22 28 30.0000000  0 14       0.000000000000
G10  23730725.320   124705740.094          50.000    23730726.440    93124411.703          50.000  
G13  23362258.520   122769544.590          50.000                                                  
G15  21926899.700   115226451.113          50.000                                                  
G16  23760662.000   124863123.500          50.000                                                  
G20  21037041.980   110550400.875          50.000                                                  
G21  23148064.920   121643916.891          50.000                                                  
G26  22453615.480   117994460.922          50.000    22453616.640    88112739.344          50.000  
G29  21047663.220   110606211.477          50.000                                                  
E 2  26994245.700   141855683.215          50.000    26994250.780   105931174.977          50.000  
E 5  24938342.180   131051837.281          50.000    24938346.960    97863371.207          50.000  
E 9  23446314.540   123211194.641          50.000    23446318.480    92008349.387          50.000  
E27  27588901.340   144980613.164          50.000    27588906.480   108264726.871          50.000  
E30  24866501.060   130674302.563          50.000    24866505.840    97581442.617          50.000  
E36  24367435.860   128051701.438          50.000    24367440.740    95623009.977          50.000  
> 2020  7  8 22 28 31.0000000  0 14       0.000000000000
G10  23730113.720   124702526.152          50.000    23730114.860    93122011.684          50.000  
G13  23362211.860   122769299.414          50.000                                                  
G15  21926649.860   115225138.254          50.000                                                  
G16  23760300.080   124861221.598          50.000                                                  
G20  21036659.000   110548388.324          50.000                                                  
G21  23147737.720   121642197.453          50.000                                                  
G26  22453674.980   117994773.598          50.000    22453676.140    88112972.836          50.000  
G29  21048000.980   110607986.434          50.000                                                  
E 2  26994786.020   141858522.637          50.000    26994791.100   105933295.324          50.000  
E 5  24937944.880   131049749.441          50.000    24937949.660    97861812.109          50.000  
E 9  23446399.380   123211640.539          50.000    23446403.340    92008682.363          50.000  
E27  27588735.380   144979741.070          50.000    27588740.540   108264075.633          50.000  
E30  24866780.540   130675771.238          50.000    24866785.320    97582539.355          50.000  
E36  24367621.460   128052676.855          50.000    24367626.360    95623738.371          50.000  
> 2020  7  8 22 28 32.0000000  0 14       0.000000000000
G10  23729502.160   124699312.438          50.000    23729503.300    93119611.832          50.000  
G13  23362165.320   122769054.840          50.000                                                  
G15  21926400.160   115223826.000          50.000                                                  
G16  23759938.260   124859320.246          50.000                                                  
G20  21036276.120   110546376.188          50.000                                                  
G21  23147410.540   121640478.102          50.000                                                  
G26  22453734.580   117995086.859          50.000    22453735.740    88113206.766          50.000  
G29  21048338.840   110609761.863          50.000                                                  
E 2  26995326.360   141861362.082          50.000    26995331.440   105935415.688          50.000  
E 5  24937547.640   131047661.926          50.000    24937552.420    97860253.250          50.000  
E 9  23446484.320   123212086.902          50.000    23446488.280    92009015.684          50.000  
E27  27588569.500   144978869.410          50.000    27588574.660   108263424.719          50.000  
E30  24867060.080   130677240.285          50.000    24867064.860    97583636.367          50.000  
E36  24367807.100   128053652.371          50.000    24367812.000    95624466.840          50.000  
> 2020  7  8 22 28 33.0000000  0 14       0.000000000000
G10  23728890.660   124696098.934          50.000    23728891.780    93117212.141          50.000  
G13  23362118.900   122768810.883          50.000                                                  
G15  21926150.560   115222514.344          50.000                                                  
G16  23759576.560   124857419.438          50.000                                                  
G20  21035893.300   110544364.500          50.000                                                  
G21  23147083.380   121638758.836          50.000                                                  
G26  22453794.320   117995400.742          50.000    22453795.480    88113441.156          50.000  
G29  21048676.780   110611537.766          50.000                                                  
E 2  26995866.680   141864201.531          50.000    26995871.760   105937536.055          50.000  
E 5  24937150.460   131045574.734          50.000    24937155.240    97858694.633          50.000  
E 9  23446569.360   123212533.742          50.000    23446573.300    92009349.363          50.000  
E27  27588403.720   144977998.219          50.000    27588408.880   108262774.156          50.000  
E30  24867339.700   130678709.703          50.000    24867344.500    97584733.660          50.000  
E36  24367992.760   128054628.020          50.000    24367997.660    95625195.406          50.000  
> 2020  7  8 22 28 34.0000000  0 14       0.000000000000
G10  23728279.200   124692885.676          50.000    23728280.320    93114812.629          50.000  
G13  23362072.580   122768567.547          50.000                                                  
G15  21925901.060   115221203.281          50.000                                                  
G16  23759214.940   124855519.180          50.000                                                  
G20  21035510.560   110542353.215          50.000                                                  
G21  23146756.220   121637039.660          50.000                                                  
G26  22453854.160   117995715.219          50.000    22453855.320    88113675.992          50.000  
G29  21049014.820   110613314.137          50.000                                                  
E 2  26996407.020   141867041.012          50.000    26996412.100   105939656.445          50.000  
E 5  24936753.340   131043487.848          50.000    24936758.120    97857136.246          50.000  
E 9  23446654.480   123212981.039          50.000    23446658.420    92009683.387          50.000  
E27  27588238.020   144977127.469          50.000    27588243.180   108262123.918          50.000  
E30  24867619.400   130680179.492          50.000    24867624.180    97585831.227          50.000  
E36  24368178.440   128055603.766          50.000    24368183.340    95625924.051          50.000  
> 2020  7  8 22 28 35.0000000  0 14       0.000000000000
G10  23727667.780   124689672.637          50.000    23727668.900    93112413.281          50.000  
G13  23362026.400   122768324.832          50.000                                                  
G15  21925651.700   115219892.820          50.000                                                  
G16  23758853.440   124853619.488          50.000                                                  
G20  21035127.920   110540342.371          50.000                                                  
G21  23146429.100   121635320.574          50.000                                                  
G26  22453914.120   117996030.305          50.000    22453915.280    88113911.281          50.000  
G29  21049352.940   110615090.984          50.000                                                  
E 2  26996947.360   141869880.492          50.000    26996952.440   105941776.836          50.000  
E 5  24936356.280   131041401.289          50.000    24936361.060    97855578.098          50.000  
E 9  23446739.680   123213428.816          50.000    23446743.640    92010017.766          50.000  
E27  27588072.400   144976257.148          50.000    27588077.560   108261474.004          50.000  
E30  24867899.160   130681649.664          50.000    24867903.940    97586929.082          50.000  
E36  24368364.140   128056579.633          50.000    24368369.040    95626652.781          50.000  
> 2020  7  8 22 28 36.0000000  0 14       0.000000000000
G10  23727056.400   124686459.836          50.000    23727057.520    93110014.117          50.000  
G13  23361980.340   122768082.727          50.000                                                  
G15  21925402.440   115218582.973          50.000                                                  
G16  23758492.060   124851720.348          50.000                                                  
G20  21034745.340   110538331.945          50.000                                                  
G21  23146101.980   121633601.574          50.000                                                  
G26  22453974.200   117996345.980          50.000    22453975.360    88114147.016          50.000  
G29  21049691.140   110616868.297          50.000                                                  
E 2  26997487.700   141872720.008          50.000    26997492.780   105943897.250          50.000  
E 5  24935959.280   131039315.051          50.000    24935964.060    97854020.195          50.000  
E 9  23446824.980   123213877.059          50.000    23446828.920    92010352.492          50.000  
E27  27587906.880   144975387.301          50.000    27587912.040   108260824.445          50.000  
E30  24868179.000   130683120.211          50.000    24868183.780    97588027.219          50.000  
E36  24368549.860   128057555.578          50.000    24368554.760    95627381.570          50.000  
> 2020  7  8 22 28 37.0000000  0 14       0.000000000000
G10  23726445.060   124683247.258          50.000    23726446.200    93107615.113          50.000  
G13  23361934.380   122767841.242          50.000                                                  
G15  21925153.300   115217273.723          50.000                                                  
G16  23758130.760   124849821.750          50.000                                                  
G20  21034362.860   110536321.961          50.000                                                  
G21  23145774.880   121631882.660          50.000                                                  
G26  22454034.380   117996662.270          50.000    22454035.540    88114383.207          50.000  
G29  21050029.440   110618646.070          50.000                                                  
E 2  26998028.040   141875559.520          50.000    26998033.120   105946017.660          50.000  
E 5  24935562.340   131037229.125          50.000    24935567.120    97852462.523          50.000  
E 9  23446910.360   123214325.770          50.000    23446914.320    92010687.566          50.000  
E27  27587741.440   144974517.887          50.000    27587746.600   108260175.203          50.000  
E30  24868458.900   130684591.113          50.000    24868463.680    97589125.617          50.000  
E36  24368735.600   128058531.672          50.000    24368740.500    95628110.473          50.000  
> 2020  7  8 22 28 38.0000000  0 14       0.000000000000
G10  23725833.760   124680034.906          50.000    23725834.900    93105216.281          50.000  
G13  23361888.540   122767600.371          50.000                                                  
G15  21924904.260   115215965.070          50.000                                                  
G16  23757769.580   124847923.715          50.000                                                  
G20  21033980.440   110534312.387          50.000                                                  
G21  23145447.800   121630163.832          50.000                                                  
G26  22454094.680   117996979.148          50.000    22454095.840    88114619.836          50.000  
G29  21050367.840   110620424.320          50.000                                                  
E 2  26998568.380   141878399.055          50.000    26998573.480   105948138.094          50.000  
E 5  24935165.460   131035143.512          50.000    24935170.240    97850905.086          50.000  
E 9  23446995.840   123214774.949          50.000    23446999.800    92011022.992          50.000  
E27  27587576.080   144973648.926          50.000    27587581.240   108259526.305          50.000  
E30  24868738.880   130686062.410          50.000    24868743.660    97590224.313          50.000  
E36  24368921.360   128059507.859          50.000    24368926.260    95628839.445          50.000  
> 2020  7  8 22 28 39.0000000  0 14       0.000000000000
G10  23725222.520   124676822.785          50.000    23725223.660    93102817.621          50.000  
G13  23361842.820   122767360.121          50.000                                                  
G15  21924655.360   115214657.023          50.000                                                  
G16  23757408.500   124846026.230          50.000                                                  
G20  21033598.120   110532303.242          50.000                                                  
G21  23145120.740   121628445.098          50.000                                                  
G26  22454155.100   117997296.645          50.000    22454156.260    88114856.926          50.000  
G29  21050706.320   110622203.039          50.000                                                  
E 2  26999108.740   141881238.602          50.000    26999113.820   105950258.531          50.000  
E 5  24934768.660   131033058.234          50.000    24934773.420    97849347.898          50.000  
E 9  23447081.400   123215224.598          50.000    23447085.360    92011358.770          50.000  
E27  27587410.800   144972780.406          50.000    27587415.960   108258877.734          50.000  
E30  24869018.940   130687534.082          50.000    24869023.720    97591323.285          50.000  
E36  24369107.160   128060484.168          50.000    24369112.040    95629568.504          50.000  
> 2020  7  8 22 28 40.0000000  0 14       0.000000000000
G10  23724611.320   124673610.891          50.000    23724612.440    93100419.129          50.000  
G13  23361797.220   122767120.488          50.000                                                  
G15  21924406.560   115213349.582          50.000                                                  
G16  23757047.520   124844129.316          50.000                                                  
G20  21033215.880   110530294.551          50.000                                                  
G21  23144793.680   121626726.457          50.000                                                  
G26  22454215.640   117997614.742          50.000    22454216.780    88115094.465          50.000  
G29  21051044.880   110623982.230          50.000                                                  
E 2  26999649.080   141884078.172          50.000    26999654.180   105952378.988          50.000  
E 5  24934371.900   131030973.270          50.000    24934376.680    97847790.945          50.000  
E 9  23447167.060   123215674.723          50.000    23447171.020    92011694.902          50.000  
E27  27587245.620   144971912.352          50.000    27587250.780   108258229.516          50.000  
E30  24869299.060   130689006.121          50.000    24869303.840    97592422.535          50.000  
E36  24369292.960   128061460.582          50.000    24369297.860    95630297.645          50.000  
> 2020  7  8 22 28 41.0000000  0 14       0.000000000000
G10  23724000.160   124670399.230          50.000    23724001.280    93098020.813          50.000  
G13  23361751.740   122766881.461          50.000                                                  
G15  21924157.880   115212042.742          50.000                                                  
G16  23756686.660   124842232.941          50.000                                                  
G20  21032833.720   110528286.254          50.000                                                  
G21  23144466.660   121625007.910          50.000                                                  
G26  22454276.280   117997933.441          50.000    22454277.440    88115332.453          50.000  
G29  21051383.540   110625761.875          50.000                                                  
E 2  27000189.440   141886917.746          50.000    27000194.540   105954499.445          50.000  
E 5  24933975.200   131028888.633          50.000    24933979.980    97846234.238          50.000  
E 9  23447252.800   123216125.305          50.000    23447256.760    92012031.375          50.000  
E27  27587080.520   144971044.730          50.000    27587085.680   108257581.613          50.000  
E30  24869579.240   130690478.535          50.000    24869584.040    97593522.066          50.000  
E36  24369478.780   128062437.094          50.000    24369483.680    95631026.855          50.000  
> 2020  7  8 22 28 42.0000000  0 14       0.000000000000
G10  23723389.040   124667187.785          50.000    23723390.160    93095622.660          50.000  
G13  23361706.380   122766643.055          50.000                                                  
G15  21923909.300   115210736.508          50.000                                                  
G16  23756325.900   124840337.121          50.000                                                  
G20  21032451.620   110526278.395          50.000                                                  
G21  23144139.640   121623289.434          50.000                                                  
G26  22454337.040   117998252.730          50.000    22454338.200    88115570.883          50.000  
G29  21051722.280   110627541.996          50.000                                                  
E 2  27000729.800   141889757.340          50.000    27000734.900   105956619.922          50.000  
E 5  24933578.560   131026804.289          50.000    24933583.340    97844677.746          50.000  
E 9  23447338.640   123216576.363          50.000    23447342.600    92012368.203          50.000  
E27  27586915.500   144970177.563          50.000    27586920.660   108256934.055          50.000  
E30  24869859.500   130691951.320          50.000    24869864.300    97594621.871          50.000  
E36  24369664.620   128063413.707          50.000    24369669.520    95631756.145          50.000  
> 2020  7  8 22 28 43.0000000  0 14       0.000000000000
G10  23722777.960   124663976.574          50.000    23722779.100    93093224.680          50.000  
G13  23361661.120   122766405.273          50.000                                                  
G15  21923660.860   115209430.867          50.000                                                  
G16  23755965.240   124838441.855          50.000                                                  
G20  21032069.620   110524270.949          50.000                                                  
G21  23143812.640   121621571.063          50.000                                                  
G26  22454397.920   117998572.637          50.000    22454399.080    88115809.773          50.000  
G29  21052061.120   110629322.586          50.000                                                  
E 2  27001270.160   141892596.957          50.000    27001275.260   105958740.414          50.000  
E 5  24933182.000   131024720.289          50.000    24933186.760    97843121.516          50.000  
E 9  23447424.560   123217027.883          50.000    23447428.520    92012705.379          50.000  
E27  27586750.580   144969310.840          50.000    27586755.720   108256286.824          50.000  
E30  24870139.840   130693424.480          50.000    24870144.620    97595721.957          50.000  
E36  24369850.500   128064390.465          50.000    24369855.400    95632485.543          50.000  
> 2020  7  8 22 28 44.0000000  0 14       0.000000000000
G10  23722166.940   124660765.598          50.000    23722168.060    93090826.871          50.000  
G13  23361616.000   122766168.109          50.000                                                  
G15  21923412.520   115208125.840          50.000                                                  
G16  23755604.680   124836547.141          50.000                                                  
G20  21031687.700   110522263.938          50.000                                                  
G21  23143485.660   121619852.770          50.000                                                  
G26  22454458.900   117998893.129          50.000    22454460.060    88116049.105          50.000  
G29  21052400.040   110631103.648          50.000                                                  
E 2  27001810.520   141895436.574          50.000    27001815.620   105960860.906          50.000  
E 5  24932785.480   131022636.605          50.000    24932790.260    97841565.516          50.000  
E 9  23447510.580   123217479.887          50.000    23447514.520    92013042.914          50.000  
E27  27586585.720   144968444.574          50.000    27586590.880   108255639.938          50.000  
E30  24870420.240   130694898.020          50.000    24870425.040    97596822.324          50.000  
E36  24370036.380   128065367.332          50.000    24370041.280    95633215.020          50.000  
> 2020  7  8 22 28 45.0000000  0 14       0.000000000000
G10  23721555.940   124657554.848          50.000    23721557.080    93088429.234          50.000  
G13  23361570.980   122765931.559          50.000                                                  
G15  21923164.280   115206821.406          50.000                                                  
G16  23755244.240   124834652.980          50.000                                                  
G20  21031305.860   110520257.371          50.000                                                  
G21  23143158.700   121618134.590          50.000                                                  
G26  22454520.000   117999214.246          50.000    22454521.160    88116288.898          50.000  
G29  21052739.060   110632885.184          50.000                                                  
E 2  27002350.900   141898276.211          50.000    27002355.980   105962981.410          50.000  
E 5  24932389.020   131020553.230          50.000    24932393.800    97840009.750          50.000  
E 9  23447596.680   123217932.348          50.000    23447600.620    92013380.789          50.000  
E27  27586420.960   144967578.746          50.000    27586426.120   108254993.379          50.000  
E30  24870700.720   130696371.926          50.000    24870705.520    97597922.973          50.000  
E36  24370222.300   128066344.273          50.000    24370227.200    95633944.555          50.000  
> 2020  7  8 22 28 46.0000000  0 14       0.000000000000
G10  23720945.000   124654344.320          50.000    23720946.140    93086031.766          50.000  
G13  23361526.080   122765695.629          50.000                                                  
G15  21922916.180   115205517.578          50.000                                                  
G16  23754883.900   124832759.379          50.000                                                  
G20  21030924.100   110518251.207          50.000                                                  
G21  23142831.760   121616416.473          50.000                                                  
G26  22454581.220   117999535.949          50.000    22454582.380    88116529.129          50.000  
G29  21053078.160   110634667.180          50.000                                                  
E 2  27002891.260   141901115.859          50.000    27002896.360   105965101.926          50.000  
E 5  24931992.640   131018470.184          50.000    24931997.420    97838454.227          50.000  
E 9  23447682.860   123218385.277          50.000    23447686.820    92013719.016          50.000  
E27  27586256.280   144966713.371          50.000    27586261.440   108254347.156          50.000  
E30  24870981.280   130697846.211          50.000    24870986.060    97599023.895          50.000  
E36  24370408.220   128067321.352          50.000    24370413.120    95634674.191          50.000  
> 2020  7  8 22 28 47.0000000  0 14       0.000000000000
G10  23720334.100   124651134.035          50.000    23720335.240    93083634.477          50.000  
G13  23361481.300   122765460.313          50.000                                                  
G15  21922668.180   115204214.359          50.000                                                  
G16  23754523.660   124830866.340          50.000                                                  
G20  21030542.420   110516245.469          50.000                                                  
G21  23142504.820   121614698.449          50.000                                                  
G26  22454642.560   117999858.254          50.000    22454643.720    88116769.813          50.000  
G29  21053417.360   110636449.645          50.000                                                  
E 2  27003431.640   141903955.527          50.000    27003436.720   105967222.457          50.000  
E 5  24931596.300   131016387.449          50.000    24931601.080    97836898.938          50.000  
E 9  23447769.140   123218838.680          50.000    23447773.100    92014057.594          50.000  
E27  27586091.700   144965848.453          50.000    27586096.860   108253701.277          50.000  
E30  24871261.900   130699320.871          50.000    24871266.680    97600125.102          50.000  
E36  24370594.180   128068298.547          50.000    24370599.080    95635403.914          50.000  
> 2020  7  8 22 28 48.0000000  0 14       0.000000000000
G10  23719723.260   124647923.965          50.000    23719724.380    93081237.348          50.000  
G13  23361436.640   122765225.602          50.000                                                  
G15  21922420.300   115202911.746          50.000                                                  
G16  23754163.540   124828973.848          50.000                                                  
G20  21030160.820   110514240.168          50.000                                                  
G21  23142177.920   121612980.516          50.000                                                  
G26  22454704.000   118000181.156          50.000    22454705.160    88117010.938          50.000  
G29  21053756.640   110638232.582          50.000                                                  
E 2  27003972.000   141906795.211          50.000    27003977.100   105969342.996          50.000  
E 5  24931200.040   131014305.043          50.000    24931204.820    97835343.895          50.000  
E 9  23447855.520   123219292.555          50.000    23447859.460    92014396.527          50.000  
E27  27585927.200   144964983.969          50.000    27585932.360   108253055.723          50.000  
E30  24871542.580   130700795.910          50.000    24871547.380    97601226.590          50.000  
E36  24370780.160   128069275.848          50.000    24370785.060    95636133.715          50.000  
> 2020  7  8 22 28 49.0000000  0 14       0.000000000000
G10  23719112.440   124644714.125          50.000    23719113.560    93078840.391          50.000  
G13  23361392.100   122764991.512          50.000                                                  
G15  21922172.540   115201609.723          50.000                                                  
G16  23753803.520   124827081.902          50.000                                                  
G20  21029779.320   110512235.289          50.000                                                  
G21  23141851.020   121611262.668          50.000                                                  
G26  22454765.560   118000504.672          50.000    22454766.720    88117252.523          50.000  
G29  21054096.000   110640015.977          50.000                                                  
E 2  27004512.380   141909634.902          50.000    27004517.480   105971463.543          50.000  
E 5  24930803.820   131012222.949          50.000    24930808.600    97833789.086          50.000  
E 9  23447941.980   123219746.891          50.000    23447945.920    92014735.805          50.000  
E27  27585762.780   144964119.945          50.000    27585767.940   108252410.508          50.000  
E30  24871823.340   130702271.313          50.000    24871828.140    97602328.352          50.000  
E36  24370966.140   128070253.238          50.000    24370971.040    95636863.586          50.000  
> 2020  7  8 22 28 50.0000000  0 14       0.000000000000
G10  23718501.660   124641504.520          50.000    23718502.800    93076443.609          50.000  
G13  23361347.660   122764758.035          50.000                                                  
G15  21921924.880   115200308.305          50.000                                                  
G16  23753443.600   124825190.516          50.000                                                  
G20  21029397.880   110510230.855          50.000                                                  
G21  23141524.140   121609544.914          50.000                                                  
G26  22454827.240   118000828.777          50.000    22454828.400    88117494.551          50.000  
G29  21054435.460   110641799.852          50.000                                                  
E 2  27005052.760   141912474.609          50.000    27005057.860   105973584.102          50.000  
E 5  24930407.680   131010141.168          50.000    24930412.460    97832234.512          50.000  
E 9  23448028.520   123220201.691          50.000    23448032.460    92015075.426          50.000  
E27  27585598.440   144963256.359          50.000    27585603.600   108251765.625          50.000  
E30  24872104.180   130703747.086          50.000    24872108.960    97603430.391          50.000  
E36  24371152.160   128071230.746          50.000    24371157.060    95637593.543          50.000  
> 2020  7  8 22 28 51.0000000  0 14       0.000000000000
G10  23717890.940   124638295.141          50.000    23717892.060    93074046.996          50.000  
G13  23361303.360   122764525.188          50.000                                                  
G15  21921677.340   115199007.508          50.000                                                  
G16  23753083.780   124823299.680          50.000                                                  
G20  21029016.520   110508226.840          50.000                                                  
G21  23141197.280   121607827.238          50.000                                                  
G26  22454889.040   118001153.496          50.000    22454890.200    88117737.035          50.000  
G29  21054775.020   110643584.191          50.000                                                  
E 2  27005593.140   141915314.336          50.000    27005598.240   105975704.676          50.000  
E 5  24930011.600   131008059.723          50.000    24930016.360    97830680.188          50.000  
E 9  23448115.160   123220656.973          50.000    23448119.100    92015415.410          50.000  
E27  27585434.200   144962393.238          50.000    27585439.360   108251121.086          50.000  
E30  24872385.080   130705223.242          50.000    24872389.860    97604532.715          50.000  
E36  24371338.200   128072208.391          50.000    24371343.100    95638323.602          50.000  
> 2020  7  8 22 28 52.0000000  0 14       0.000000000000
G10  23717280.260   124635085.988          50.000    23717281.380    93071650.551          50.000  
G13  23361259.160   122764292.945          50.000                                                  
G15  21921429.920   115197707.297          50.000                                                  
G16  23752724.060   124821409.398          50.000                                                  
G20  21028635.260   110506223.246          50.000                                                  
G21  23140870.440   121606109.660          50.000                                                  
G26  22454950.940   118001478.809          50.000    22454952.100    88117979.965          50.000  
G29  21055114.660   110645369.000          50.000                                                  
E 2  27006133.520   141918154.070          50.000    27006138.620   105977825.254          50.000  
E 5  24929615.560   131005978.582          50.000    24929620.340    97829126.086          50.000  
E 9  23448201.880   123221112.723          50.000    23448205.840    92015755.742          50.000  
E27  27585270.040   144961530.551          50.000    27585275.180   108250476.871          50.000  
E30  24872666.040   130706699.762          50.000    24872670.840    97605635.309          50.000  
E36  24371524.260   128073186.125          50.000    24371529.160    95639053.727          50.000  
> 2020  7  8 22 28 53.0000000  0 14       0.000000000000
G10  23716669.620   124631877.070          50.000    23716670.740    93069254.285          50.000  
G13  23361215.080   122764061.313          50.000                                                  
G15  21921182.620   115196407.688          50.000                                                  
G16  23752364.460   124819519.668          50.000                                                  
G20  21028254.060   110504220.082          50.000                                                  
G21  23140543.600   121604392.168          50.000                                                  
G26  22455012.960   118001804.719          50.000    22455014.120    88118223.336          50.000  
G29  21055454.380   110647154.281          50.000                                                  
E 2  27006673.920   141920993.820          50.000    27006679.020   105979945.848          50.000  
E 5  24929219.600   131003897.770          50.000    24929224.380    97827572.234          50.000  
E 9  23448288.700   123221568.930          50.000    23448292.640    92016096.414          50.000  
E27  27585105.960   144960668.316          50.000    27585111.100   108249832.992          50.000  
E30  24872947.100   130708176.660          50.000    24872951.880    97606738.188          50.000  
E36  24371710.340   128074163.969          50.000    24371715.240    95639783.934          50.000  
> 2020  7  8 22 28 54.0000000  0 14       0.000000000000
G10  23716059.020   124628668.375          50.000    23716060.160    93066858.180          50.000  
G13  23361171.120   122763830.305          50.000                                                  
G15  21920935.420   115195108.688          50.000                                                  
G16  23752004.960   124817630.508          50.000                                                  
G20  21027872.960   110502217.348          50.000                                                  
G21  23140216.800   121602674.770          50.000                                                  
G26  22455075.100   118002131.234          50.000    22455076.260    88118467.164          50.000  
G29  21055794.200   110648940.031          50.000                                                  
E 2  27007214.300   141923833.570          50.000    27007219.400   105982066.438          50.000  
E 5  24928823.700   131001817.277          50.000    24928828.460    97826018.621          50.000  
E 9  23448375.600   123222025.617          50.000    23448379.560    92016437.449          50.000  
E27  27584941.960   144959806.535          50.000    27584947.120   108249189.457          50.000  
E30  24873228.220   130709653.930          50.000    24873233.000    97607841.340          50.000  
E36  24371896.440   128075141.938          50.000    24371901.340    95640514.234          50.000  
> 2020  7  8 22 28 55.0000000  0 14       0.000000000000
G10  23715448.480   124625459.910          50.000    23715449.600    93064462.254          50.000  
G13  23361127.280   122763599.910          50.000                                                  
G15  21920688.360   115193810.289          50.000                                                  
G16  23751645.580   124815741.895          50.000                                                  
G20  21027491.940   110500215.035          50.000                                                  
G21  23139890.000   121600957.453          50.000                                                  
G26  22455137.340   118002458.363          50.000    22455138.500    88118711.449          50.000  
G29  21056134.100   110650726.242          50.000                                                  
E 2  27007754.700   141926673.352          50.000    27007759.800   105984187.051          50.000  
E 5  24928427.840   130999737.105          50.000    24928432.620    97824465.242          50.000  
E 9  23448462.600   123222482.770          50.000    23448466.540    92016778.828          50.000  
E27  27584778.060   144958945.191          50.000    27584783.200   108248546.246          50.000  
E30  24873509.400   130711131.570          50.000    24873514.180    97608944.770          50.000  
E36  24372082.560   128076120.004          50.000    24372087.460    95641244.609          50.000  
> 2020  7  8 22 28 56.0000000  0 14       0.000000000000
G10  23714837.960   124622251.680          50.000    23714839.100    93062066.496          50.000  
G13  23361083.560   122763370.133          50.000                                                  
G15  21920441.380   115192512.492          50.000                                                  
G16  23751286.300   124813853.832          50.000                                                  
G20  21027110.980   110498213.152          50.000                                                  
G21  23139563.220   121599240.223          50.000                                                  
G26  22455199.720   118002786.090          50.000    22455200.880    88118956.176          50.000  
G29  21056474.100   110652512.918          50.000                                                  
E 2  27008295.100   141929513.145          50.000    27008300.200   105986307.676          50.000  
E 5  24928032.060   130997657.238          50.000    24928036.840    97822912.098          50.000  
E 9  23448549.680   123222940.383          50.000    23448553.620    92017120.551          50.000  
E27  27584614.240   144958084.301          50.000    27584619.380   108247903.371          50.000  
E30  24873790.660   130712609.586          50.000    24873795.440    97610048.484          50.000  
E36  24372268.700   128077098.172          50.000    24372273.600    95641975.059          50.000  
> 2020  7  8 22 28 57.0000000  0 14       0.000000000000
G10  23714227.500   124619043.664          50.000    23714228.620    93059670.898          50.000  
G13  23361039.940   122763140.969          50.000                                                  
G15  21920194.540   115191215.305          50.000                                                  
G16  23750927.120   124811966.340          50.000                                                  
G20  21026730.120   110496211.707          50.000                                                  
G21  23139236.460   121597523.086          50.000                                                  
G26  22455262.180   118003114.402          50.000    22455263.340    88119201.344          50.000  
G29  21056814.180   110654300.063          50.000                                                  
E 2  27008835.500   141932352.941          50.000    27008840.580   105988428.301          50.000  
E 5  24927636.340   130995577.703          50.000    24927641.120    97821359.195          50.000  
E 9  23448636.840   123223398.465          50.000    23448640.800    92017462.625          50.000  
E27  27584450.500   144957223.863          50.000    27584455.660   108247260.840          50.000  
E30  24874071.980   130714087.980          50.000    24874076.780    97611152.477          50.000  
E36  24372454.860   128078076.469          50.000    24372459.760    95642705.605          50.000  
> 2020  7  8 22 28 58.0000000  0 14       0.000000000000
G10  23713617.080   124615835.891          50.000    23713618.200    93057275.488          50.000  
G13  23360996.460   122762912.422          50.000                                                  
G15  21919947.820   115189918.719          50.000                                                  
G16  23750568.040   124810079.395          50.000                                                  
G20  21026349.340   110494210.676          50.000                                                  
G21  23138909.720   121595806.039          50.000                                                  
G26  22455324.780   118003443.332          50.000    22455325.940    88119446.973          50.000  
G29  21057154.360   110656087.676          50.000                                                  
E 2  27009375.900   141935192.766          50.000    27009380.980   105990548.945          50.000  
E 5  24927240.680   130993498.492          50.000    24927245.460    97819806.539          50.000  
E 9  23448724.100   123223857.027          50.000    23448728.060    92017805.059          50.000  
E27  27584286.840   144956363.867          50.000    27584292.000   108246618.633          50.000  
E30  24874353.380   130715566.734          50.000    24874358.180    97612256.742          50.000  
E36  24372641.040   128079054.871          50.000    24372645.940    95643436.230          50.000  
> 2020  7  8 22 28 59.0000000  0 14       0.000000000000
G10  23713006.700   124612628.352          50.000    23713007.840    93054880.250          50.000  
G13  23360953.080   122762684.492          50.000                                                  
G15  21919701.200   115188622.738          50.000                                                  
G16  23750209.080   124808193.004          50.000                                                  
G20  21025968.640   110492210.059          50.000                                                  
G21  23138583.000   121594089.078          50.000                                                  
G26  22455387.480   118003772.852          50.000    22455388.640    88119693.047          50.000  
G29  21057494.620   110657875.762          50.000                                                  
E 2  27009916.300   141938032.594          50.000    27009921.400   105992669.598          50.000  
E 5  24926845.080   130991419.590          50.000    24926849.860    97818254.113          50.000  
E 9  23448811.460   123224316.047          50.000    23448815.400    92018147.832          50.000  
E27  27584123.280   144955504.328          50.000    27584128.440   108245976.770          50.000  
E30  24874634.860   130717045.875          50.000    24874639.640    97613361.297          50.000  
E36  24372827.240   128080033.367          50.000    24372832.140    95644166.922          50.000  
> 2020  7  8 22 29  0.0000000  0 14       0.000000000000
G10  23712396.380   124609421.031          50.000    23712397.500    93052485.172          50.000  
G13  23360909.820   122762457.184          50.000                                                  
G15  21919454.700   115187327.367          50.000                                                  
G16  23749850.200   124806307.172          50.000                                                  
G20  21025588.020   110490209.883          50.000                                                  
G21  23138256.280   121592372.199          50.000                                                  
G26  22455450.300   118004102.984          50.000    22455451.460    88119939.570          50.000  
G29  21057834.960   110659664.316          50.000                                                  
E 2  27010456.700   141940872.430          50.000    27010461.800   105994790.250          50.000  
E 5  24926449.540   130989341.016          50.000    24926454.320    97816701.930          50.000  
E 9  23448898.900   123224775.543          50.000    23448902.840    92018490.961          50.000  
E27  27583959.800   144954645.230          50.000    27583964.960   108245335.234          50.000  
E30  24874916.400   130718525.383          50.000    24874921.180    97614466.121          50.000  
E36  24373013.480   128081011.988          50.000    24373018.380    95644897.711          50.000  
> 2020  7  8 22 29  1.0000000  0 14       0.000000000000
G10  23711786.080   124606213.941          50.000    23711787.200    93050090.270          50.000  
G13  23360866.700   122762230.492          50.000                                                  
G15  21919208.300   115186032.586          50.000                                                  
G16  23749491.460   124804421.895          50.000                                                  
G20  21025207.480   110488210.148          50.000                                                  
G21  23137929.580   121590655.430          50.000                                                  
G26  22455513.240   118004433.715          50.000    22455514.400    88120186.543          50.000  
G29  21058175.400   110661453.336          50.000                                                  
E 2  27010997.100   141943712.293          50.000    27011002.200   105996910.926          50.000  
E 5  24926054.060   130987262.762          50.000    24926058.840    97815149.988          50.000  
E 9  23448986.420   123225235.508          50.000    23448990.380    92018834.441          50.000  
E27  27583796.400   144953786.586          50.000    27583801.560   108244694.039          50.000  
E30  24875198.000   130720005.262          50.000    24875202.800    97615571.227          50.000  
E36  24373199.720   128081990.734          50.000    24373204.620    95645628.594          50.000  
> 2020  7  8 22 29  2.0000000  0 14       0.000000000000
G10  23711175.840   124603007.090          50.000    23711176.960    93047695.543          50.000  
G13  23360823.660   122762004.414          50.000                                                  
G15  21918962.040   115184738.418          50.000                                                  
G16  23749132.800   124802537.172          50.000                                                  
G20  21024827.020   110486210.832          50.000                                                  
G21  23137602.920   121588938.742          50.000                                                  
G26  22455576.300   118004765.035          50.000    22455577.460    88120433.961          50.000  
G29  21058515.940   110663242.828          50.000                                                  
E 2  27011537.520   141946552.156          50.000    27011542.620   105999031.602          50.000  
E 5  24925658.640   130985184.832          50.000    24925663.420    97813598.289          50.000  
E 9  23449074.040   123225695.938          50.000    23449078.000    92019178.270          50.000  
E27  27583633.100   144952928.395          50.000    27583638.260   108244053.180          50.000  
E30  24875479.700   130721485.520          50.000    24875484.480    97616676.609          50.000  
E36  24373385.980   128082969.566          50.000    24373390.880    95646359.539          50.000  
> 2020  7  8 22 29  3.0000000  0 14       0.000000000000
G10  23710565.640   124599800.457          50.000    23710566.760    93045300.980          50.000  
G13  23360780.760   122761778.945          50.000                                                  
G15  21918715.880   115183444.844          50.000                                                  
G16  23748774.260   124800653.004          50.000                                                  
G20  21024446.640   110484211.934          50.000                                                  
G21  23137276.260   121587222.129          50.000                                                  
G26  22455639.460   118005096.977          50.000    22455640.620    88120681.836          50.000  
G29  21058856.560   110665032.785          50.000                                                  
E 2  27012077.940   141949392.047          50.000    27012083.020   106001152.301          50.000  
E 5  24925263.280   130983107.211          50.000    24925268.060    97812046.820          50.000  
E 9  23449161.740   123226156.836          50.000    23449165.700    92019522.445          50.000  
E27  27583469.860   144952070.641          50.000    27583475.020   108243412.652          50.000  
E30  24875761.440   130722966.152          50.000    24875766.240    97617782.277          50.000  
E36  24373572.280   128083948.504          50.000    24373577.180    95647090.563          50.000  
> 2020  7  8 22 29  4.0000000  0 14       0.000000000000
G10  23709955.480   124596594.063          50.000    23709956.600    93042906.598          50.000  
G13  23360737.980   122761554.102          50.000                                                  
G15  21918469.820   115182151.871          50.000                                                  
G16  23748415.820   124798769.383          50.000                                                  
G20  21024066.340   110482213.430          50.000                                                  
G21  23136949.600   121585505.602          50.000                                                  
G26  22455702.740   118005429.504          50.000    22455703.900    88120930.152          50.000  
G29  21059197.260   110666823.203          50.000                                                  
E 2  27012618.340   141952231.941          50.000    27012623.440   106003273.000          50.000  
E 5  24924867.980   130981029.910          50.000    24924872.760    97810495.586          50.000  
E 9  23449249.540   123226618.203          50.000    23449253.500    92019866.973          50.000  
E27  27583306.720   144951213.332          50.000    27583311.880   108242772.453          50.000  
E30  24876043.280   130724447.148          50.000    24876048.060    97618888.215          50.000  
E36  24373758.580   128084927.578          50.000    24373763.480    95647821.691          50.000  
