     3.03           OBSERVATION DATA    M: Mixed            RINEX VERSION / TYPE
sbp2rinex v2.2 (RTKL                    20210504 171526 UTC PGM / RUN BY / DATE 
log: 2020-06-05-US-MTV-1.sbp                                COMMENT             
format: Swift Navigation SBP, option: CONVBASE,EPHALL,OBSALLCOMMENT             
                                                            MARKER NAME         
                                                            MARKER NUMBER       
                                                            MARKER TYPE         
                                                            OBSERVER / AGENCY   
                                                            REC # / TYPE / VERS 
                                                            ANT # / TYPE        
 -2725613.2224 -4348388.3885  3774557.9872                  APPROX POSITION XYZ 
        0.0000        0.0000        0.0000                  ANTENNA: DELTA H/E/N
G    6 C1C L1C S1C C5I L5I S5I                              SYS / # / OBS TYPES 
E    6 C1B L1B S1B C5I L5I S5I                              SYS / # / OBS TYPES 
  2020     6     5    17    41   36.0000000     GPS         TIME OF FIRST OBS   
  2020     6     5    18    13   58.0000000     GPS         TIME OF LAST OBS    
G                                                           SYS / PHASE SHIFT   
E                                                           SYS / PHASE SHIFT   
  0                                                         GLONASS SLOT / FRQ #
 C1C    0.000 C1P    0.000 C2C    0.000 C2P    0.000        GLONASS COD/PHS/BIS 
                                                            END OF HEADER       
> 2020  6  5 17 41 36.0000000  0 14       0.000000000000
G 6  22327524.800   117331855.637          50.000    22327529.420    87617935.898          50.000  
G13  23247559.780   122166765.211          50.000                                                  
G15  23802323.640   125081825.652          50.000                                                  
G17  21059734.440   110669596.555          50.000                                                  
G19  20065061.400   105442595.164          50.000                                                  
G24  22205838.160   116692389.633          50.000    22205841.880    87140412.109          50.000  
G28  22318136.280   117282712.258          50.000                                                  
G30  23944603.300   125829649.031          50.000    23944608.160    93963687.707          50.000  
E 5  27478799.520   144401988.355          50.000    27478807.440   107832627.355          50.000  
E 9  25844982.400   135816227.086          50.000    25844990.320   101421182.793          50.000  
E12  22847866.180   120066348.328          50.000    22847868.640    89659924.063          50.000  
E24  23207602.980   121956580.648          50.000    23207620.140    91071434.113          50.000  
E26  26457016.380   139032490.844          50.000    26457023.860   103822941.012          50.000  
E33  24260071.140   127487523.074          50.000    24260074.740    95201711.145          50.000  
> 2020  6  5 17 41 37.0000000  0 14       0.000000000000
G 6  22326967.580   117328927.422          50.000    22326972.200    87615749.246          50.000  
G13  23248146.360   122169847.750          50.000                                                  
G15  23802749.620   125084064.270          50.000                                                  
G17  21060064.560   110671331.379          50.000                                                  
G19  20065077.840   105442681.527          50.000                                                  
G24  22205363.640   116689895.996          50.000    22205367.360    87138549.980          50.000  
G28  22318428.800   117284249.383          50.000                                                  
G30  23945277.880   125833193.910          50.000    23945282.720    93966334.855          50.000  
E 5  27479044.980   144403278.199          50.000    27479052.880   107833590.551          50.000  
E 9  25845452.460   135818697.293          50.000    25845460.380   101423027.430          50.000  
E12  22847421.640   120064012.203          50.000    22847424.100    89658179.555          50.000  
E24  23207289.040   121954930.922          50.000    23207306.200    91070202.176          50.000  
E26  26457490.440   139034982.066          50.000    26457497.920   103824801.340          50.000  
E33  24260137.900   127487873.879          50.000    24260141.500    95201973.109          50.000  
> 2020  6  5 17 41 38.0000000  0 14       0.000000000000
G 6  22326410.420   117325999.535          50.000    22326415.040    87613562.840          50.000  
G13  23248732.980   122172930.461          50.000                                                  
G15  23803175.680   125086303.168          50.000                                                  
G17  21060394.760   110673066.523          50.000                                                  
G19  20065094.380   105442768.461          50.000                                                  
G24  22204889.200   116687402.766          50.000    22204892.900    87136688.156          50.000  
G28  22318721.320   117285786.605          50.000                                                  
G30  23945952.480   125836738.992          50.000    23945957.340    93968982.156          50.000  
E 5  27479290.480   144404568.359          50.000    27479298.400   107834553.980          50.000  
E 9  25845922.520   135821167.496          50.000    25845930.440   101424872.063          50.000  
E12  22846977.140   120061676.395          50.000    22846979.600    89656435.281          50.000  
E24  23206975.120   121953281.250          50.000    23206992.280    91068970.277          50.000  
E26  26457964.560   139037473.520          50.000    26457972.040   103826661.840          50.000  
E33  24260204.740   127488225.168          50.000    24260208.340    95202235.434          50.000  
> 2020  6  5 17 41 39.0000000  0 14       0.000000000000
G 6  22325853.320   117323072.000          50.000    22325857.960    87611376.695          50.000  
G13  23249319.640   122176013.359          50.000                                                  
G15  23803601.780   125088542.355          50.000                                                  
G17  21060725.000   110674801.992          50.000                                                  
G19  20065111.040   105442855.965          50.000                                                  
G24  22204414.820   116684909.918          50.000    22204418.520    87134826.613          50.000  
G28  22319013.860   117287323.941          50.000                                                  
G30  23946627.120   125840284.254          50.000    23946631.980    93971629.590          50.000  
E 5  27479536.060   144405858.867          50.000    27479543.980   107835517.672          50.000  
E 9  25846392.580   135823637.719          50.000    25846400.520   101426716.707          50.000  
E12  22846532.720   120059340.910          50.000    22846535.180    89654691.254          50.000  
E24  23206661.220   121951631.633          50.000    23206678.360    91067738.422          50.000  
E26  26458438.700   139039965.219          50.000    26458446.200   103828522.523          50.000  
E33  24260271.680   127488576.930          50.000    24260275.280    95202498.117          50.000  
> 2020  6  5 17 41 40.0000000  0 14       0.000000000000
G 6  22325296.300   117320144.828          50.000    22325300.920    87609190.824          50.000  
G13  23249906.340   122179096.434          50.000                                                  
G15  23804027.940   125090781.813          50.000                                                  
G17  21061055.320   110676537.797          50.000                                                  
G19  20065127.800   105442944.031          50.000                                                  
G24  22203940.520   116682417.465          50.000    22203944.220    87132965.367          50.000  
G28  22319306.420   117288861.383          50.000                                                  
G30  23947301.800   125843829.691          50.000    23947306.660    93974277.152          50.000  
E 5  27479781.700   144407149.691          50.000    27479789.600   107836481.598          50.000  
E 9  25846862.660   135826107.922          50.000    25846870.580   101428561.340          50.000  
E12  22846088.340   120057005.750          50.000    22846090.800    89652947.469          50.000  
E24  23206347.300   121949982.070          50.000    23206364.460    91066506.605          50.000  
E26  26458912.900   139042457.148          50.000    26458920.380   103830383.375          50.000  
E33  24260338.720   127488929.184          50.000    24260342.320    95202761.164          50.000  
> 2020  6  5 17 41 41.0000000  0 14       0.000000000000
G 6  22324739.340   117317218.004          50.000    22324743.980    87607005.207          50.000  
G13  23250493.060   122182179.703          50.000                                                  
G15  23804454.140   125093021.551          50.000                                                  
G17  21061385.700   110678273.922          50.000                                                  
G19  20065144.660   105443032.688          50.000                                                  
G24  22203466.300   116679925.445          50.000    22203470.020    87131104.445          50.000  
G28  22319599.020   117290398.934          50.000                                                  
G30  23947976.520   125847375.328          50.000    23947981.360    93976924.867          50.000  
E 5  27480027.400   144408440.859          50.000    27480035.320   107837445.781          50.000  
E 9  25847332.720   135828578.145          50.000    25847340.640   101430405.984          50.000  
E12  22845644.040   120054670.922          50.000    22845646.500    89651203.930          50.000  
E24  23206033.420   121948332.570          50.000    23206050.580    91065274.840          50.000  
E26  26459387.160   139044949.313          50.000    26459394.640   103832244.406          50.000  
E33  24260405.840   127489281.914          50.000    24260409.440    95203024.566          50.000  
> 2020  6  5 17 41 42.0000000  0 14       0.000000000000
G 6  22324182.460   117314291.527          50.000    22324187.080    87604819.855          50.000  
G13  23251079.820   122185263.156          50.000                                                  
G15  23804880.400   125095261.566          50.000                                                  
G17  21061716.120   110680010.375          50.000                                                  
G19  20065161.640   105443121.898          50.000                                                  
G24  22202992.160   116677433.793          50.000    22202995.860    87129243.797          50.000  
G28  22319891.620   117291936.578          50.000                                                  
G30  23948651.260   125850921.160          50.000    23948656.120    93979572.723          50.000  
E 5  27480273.160   144409732.355          50.000    27480281.080   107838410.211          50.000  
E 9  25847802.780   135831048.348          50.000    25847810.720   101432250.617          50.000  
E12  22845199.800   120052336.410          50.000    22845202.260    89649460.625          50.000  
E24  23205719.540   121946683.125          50.000    23205736.700    91064043.109          50.000  
E26  26459861.440   139047441.703          50.000    26459868.920   103834105.609          50.000  
E33  24260473.040   127489635.125          50.000    24260476.660    95203288.328          50.000  
> 2020  6  5 17 41 43.0000000  0 14       0.000000000000
G 6  22323625.640   117311365.398          50.000    22323630.260    87602634.762          50.000  
G13  23251666.620   122188346.797          50.000                                                  
G15  23805306.720   125097501.863          50.000                                                  
G17  21062046.620   110681747.164          50.000                                                  
G19  20065178.720   105443211.688          50.000                                                  
G24  22202518.080   116674942.527          50.000    22202521.800    87127383.438          50.000  
G28  22320184.240   117293474.348          50.000                                                  
G30  23949326.040   125854467.168          50.000    23949330.900    93982220.719          50.000  
E 5  27480518.980   144411024.188          50.000    27480526.900   107839374.887          50.000  
E 9  25848272.860   135833518.563          50.000    25848280.780   101434095.258          50.000  
E12  22844755.620   120050002.223          50.000    22844758.080    89647717.566          50.000  
E24  23205405.680   121945033.734          50.000    23205422.820    91062811.422          50.000  
E26  26460335.780   139049934.352          50.000    26460343.260   103835967.000          50.000  
E33  24260540.360   127489988.813          50.000    24260543.960    95203552.445          50.000  
> 2020  6  5 17 41 44.0000000  0 14       0.000000000000
G 6  22323068.880   117308439.625          50.000    22323073.500    87600449.934          50.000  
G13  23252253.460   122191430.617          50.000                                                  
G15  23805733.080   125099742.445          50.000                                                  
G17  21062377.180   110683484.273          50.000                                                  
G19  20065195.920   105443302.055          50.000                                                  
G24  22202044.100   116672451.676          50.000    22202047.800    87125523.387          50.000  
G28  22320476.900   117295012.227          50.000                                                  
G30  23950000.860   125858013.363          50.000    23950005.720    93984868.848          50.000  
E 5  27480764.880   144412316.363          50.000    27480772.800   107840339.824          50.000  
E 9  25848742.920   135835988.789          50.000    25848750.840   101435939.906          50.000  
E12  22844311.500   120047668.367          50.000    22844313.960    89645974.750          50.000  
E24  23205091.800   121943384.387          50.000    23205108.960    91061579.770          50.000  
E26  26460810.160   139052427.223          50.000    26460817.640   103837828.559          50.000  
E33  24260607.740   127490342.988          50.000    24260611.360    95203816.926          50.000  
> 2020  6  5 17 41 45.0000000  0 14       0.000000000000
G 6  22322512.180   117305514.195          50.000    22322516.800    87598265.359          50.000  
G13  23252840.320   122194514.621          50.000                                                  
G15  23806159.500   125101983.297          50.000                                                  
G17  21062707.820   110685221.719          50.000                                                  
G19  20065213.220   105443392.977          50.000                                                  
G24  22201570.180   116669961.223          50.000    22201573.880    87123663.637          50.000  
G28  22320769.560   117296550.207          50.000                                                  
G30  23950675.720   125861559.742          50.000    23950680.580    93987517.117          50.000  
E 5  27481010.840   144413608.852          50.000    27481018.740   107841304.992          50.000  
E 9  25849212.980   135838459.000          50.000    25849220.920   101437784.543          50.000  
E12  22843867.440   120045334.813          50.000    22843869.900    89644232.164          50.000  
E24  23204777.960   121941735.113          50.000    23204795.120    91060348.168          50.000  
E26  26461284.580   139054920.324          50.000    26461292.060   103839690.289          50.000  
E33  24260675.240   127490697.645          50.000    24260678.840    95204081.766          50.000  
> 2020  6  5 17 41 46.0000000  0 14       0.000000000000
G 6  22321955.560   117302589.129          50.000    22321960.180    87596081.059          50.000  
G13  23253427.220   122197598.805          50.000                                                  
G15  23806585.980   125104224.422          50.000                                                  
G17  21063038.500   110686959.492          50.000                                                  
G19  20065230.640   105443484.469          50.000                                                  
G24  22201096.340   116667471.156          50.000    22201100.040    87121804.172          50.000  
G28  22321062.260   117298088.285          50.000                                                  
G30  23951350.620   125865106.313          50.000    23951355.460    93990165.527          50.000  
E 5  27481256.860   144414901.684          50.000    27481264.760   107842270.422          50.000  
E 9  25849683.060   135840929.219          50.000    25849690.980   101439629.191          50.000  
E12  22843423.440   120043001.613          50.000    22843425.900    89642489.840          50.000  
E24  23204464.120   121940085.879          50.000    23204481.280    91059116.602          50.000  
E26  26461759.040   139057413.668          50.000    26461766.520   103841552.203          50.000  
E33  24260742.820   127491052.781          50.000    24260746.420    95204346.969          50.000  
> 2020  6  5 17 41 47.0000000  0 14       0.000000000000
G 6  22321399.000   117299664.410          50.000    22321403.620    87593897.020          50.000  
G13  23254014.160   122200683.176          50.000                                                  
G15  23807012.500   125106465.824          50.000                                                  
G17  21063369.240   110688697.582          50.000                                                  
G19  20065248.160   105443576.539          50.000                                                  
G24  22200622.560   116664981.488          50.000    22200626.260    87119945.008          50.000  
G28  22321354.960   117299626.477          50.000                                                  
G30  23952025.540   125868653.066          50.000    23952030.400    93992814.074          50.000  
E 5  27481502.940   144416194.836          50.000    27481510.840   107843236.086          50.000  
E 9  25850153.120   135843399.438          50.000    25850161.040   101441473.832          50.000  
E12  22842979.500   120040668.727          50.000    22842981.960    89640747.750          50.000  
E24  23204150.300   121938436.715          50.000    23204167.460    91057885.082          50.000  
E26  26462233.560   139059907.246          50.000    26462241.040   103843414.289          50.000  
E33  24260810.480   127491408.391          50.000    24260814.100    95204612.520          50.000  
> 2020  6  5 17 41 48.0000000  0 14       0.000000000000
G 6  22320842.520   117296740.035          50.000    22320847.140    87591713.230          50.000  
G13  23254601.140   122203767.730          50.000                                                  
G15  23807439.080   125108707.516          50.000                                                  
G17  21063700.060   110690436.008          50.000                                                  
G19  20065265.780   105443669.184          50.000                                                  
G24  22200148.880   116662492.242          50.000    22200152.580    87118086.152          50.000  
G28  22321647.680   117301164.777          50.000                                                  
G30  23952700.500   125872200.016          50.000    23952705.360    93995462.766          50.000  
E 5  27481749.080   144417488.332          50.000    27481757.000   107844202.008          50.000  
E 9  25850623.180   135845869.652          50.000    25850631.120   101443318.473          50.000  
E12  22842535.640   120038336.160          50.000    22842538.080    89639005.902          50.000  
E24  23203836.480   121936787.594          50.000    23203853.640    91056653.598          50.000  
E26  26462708.120   139062401.070          50.000    26462715.600   103845276.555          50.000  
E33  24260878.260   127491764.488          50.000    24260881.860    95204878.434          50.000  
> 2020  6  5 17 41 49.0000000  0 14       0.000000000000
G 6  22320286.080   117293816.016          50.000    22320290.700    87589529.711          50.000  
G13  23255188.140   122206852.461          50.000                                                  
G15  23807865.720   125110949.457          50.000                                                  
G17  21064030.940   110692174.762          50.000                                                  
G19  20065283.520   105443762.391          50.000                                                  
G24  22199675.260   116660003.379          50.000    22199678.960    87116227.590          50.000  
G28  22321940.440   117302703.180          50.000                                                  
G30  23953375.500   125875747.141          50.000    23953380.360    93998111.594          50.000  
E 5  27481995.280   144418782.156          50.000    27482003.200   107845168.172          50.000  
E 9  25851093.260   135848339.871          50.000    25851101.180   101445163.117          50.000  
E12  22842091.820   120036003.918          50.000    22842094.280    89637264.293          50.000  
E24  23203522.680   121935138.531          50.000    23203539.820    91055422.156          50.000  
E26  26463182.720   139064895.105          50.000    26463190.200   103847138.984          50.000  
E33  24260946.100   127492121.063          50.000    24260949.720    95205144.711          50.000  
> 2020  6  5 17 41 50.0000000  0 14       0.000000000000
G 6  22319729.740   117290892.355          50.000    22319734.360    87587346.465          50.000  
G13  23255775.180   122209937.383          50.000                                                  
G15  23808292.400   125113191.672          50.000                                                  
G17  21064361.880   110693913.844          50.000                                                  
G19  20065301.360   105443856.180          50.000                                                  
G24  22199201.720   116657514.918          50.000    22199205.420    87114369.324          50.000  
G28  22322233.200   117304241.691          50.000                                                  
G30  23954050.540   125879294.461          50.000    23954055.400    94000760.563          50.000  
E 5  27482241.560   144420076.316          50.000    27482249.460   107846134.590          50.000  
E 9  25851563.320   135850810.086          50.000    25851571.240   101447007.758          50.000  
E12  22841648.080   120033672.008          50.000    22841650.520    89635522.934          50.000  
E24  23203208.880   121933489.527          50.000    23203226.040    91054190.758          50.000  
E26  26463657.360   139067389.387          50.000    26463664.840   103849001.598          50.000  
E33  24261014.060   127492478.117          50.000    24261017.660    95205411.340          50.000  
> 2020  6  5 17 41 51.0000000  0 14       0.000000000000
G 6  22319173.440   117287969.031          50.000    22319178.060    87585163.461          50.000  
G13  23256362.260   122213022.488          50.000                                                  
G15  23808719.120   125115434.168          50.000                                                  
G17  21064692.880   110695653.258          50.000                                                  
G19  20065319.320   105443950.535          50.000                                                  
G24  22198728.260   116655026.852          50.000    22198731.960    87112511.355          50.000  
G28  22322526.000   117305780.305          50.000                                                  
G30  23954725.600   125882841.973          50.000    23954730.460    94003409.676          50.000  
E 5  27482487.880   144421370.809          50.000    27482495.800   107847101.258          50.000  
E 9  25852033.380   135853280.309          50.000    25852041.320   101448852.402          50.000  
E12  22841204.380   120031340.414          50.000    22841206.840    89633781.809          50.000  
E24  23202895.100   121931840.582          50.000    23202912.240    91052959.402          50.000  
E26  26464132.060   139069883.906          50.000    26464139.540   103850864.387          50.000  
E33  24261082.080   127492835.664          50.000    24261085.700    95205678.340          50.000  
> 2020  6  5 17 41 52.0000000  0 14       0.000000000000
G 6  22318617.220   117285046.070          50.000    22318621.840    87582980.734          50.000  
G13  23256949.360   122216107.762          50.000                                                  
G15  23809145.920   125117676.949          50.000                                                  
G17  21065023.940   110697392.988          50.000                                                  
G19  20065337.380   105444045.453          50.000                                                  
G24  22198254.860   116652539.148          50.000    22198258.560    87110653.656          50.000  
G28  22322818.800   117307319.027          50.000                                                  
G30  23955400.700   125886389.645          50.000    23955405.560    94006058.910          50.000  
E 5  27482734.280   144422665.629          50.000    27482742.200   107848068.168          50.000  
E 9  25852503.460   135855750.520          50.000    25852511.380   101450697.039          50.000  
E12  22840760.760   120029009.148          50.000    22840763.220    89632040.930          50.000  
E24  23202581.320   121930191.691          50.000    23202598.480    91051728.090          50.000  
E26  26464606.800   139072378.668          50.000    26464614.280   103852727.359          50.000  
E33  24261150.220   127493193.684          50.000    24261153.820    95205945.691          50.000  
> 2020  6  5 17 41 53.0000000  0 14       0.000000000000
G 6  22318061.060   117282123.465          50.000    22318065.680    87580798.270          50.000  
G13  23257536.520   122219193.234          50.000                                                  
G15  23809572.760   125119920.008          50.000                                                  
G17  21065355.060   110699133.051          50.000                                                  
G19  20065355.560   105444140.941          50.000                                                  
G24  22197781.540   116650051.863          50.000    22197785.240    87108796.270          50.000  
G28  22323111.640   117308857.859          50.000                                                  
G30  23956075.840   125889937.523          50.000    23956080.700    94008708.297          50.000  
E 5  27482980.740   144423960.789          50.000    27482988.660   107849035.332          50.000  
E 9  25852973.520   135858220.738          50.000    25852981.460   101452541.684          50.000  
E12  22840317.200   120026678.215          50.000    22840319.660    89630300.301          50.000  
E24  23202267.560   121928542.844          50.000    23202284.700    91050496.809          50.000  
E26  26465081.580   139074873.660          50.000    26465089.060   103854590.500          50.000  
E33  24261218.440   127493552.188          50.000    24261222.040    95206213.406          50.000  
> 2020  6  5 17 41 54.0000000  0 14       0.000000000000
G 6  22317504.980   117279201.203          50.000    22317509.600    87578616.066          50.000  
G13  23258123.700   122222278.891          50.000                                                  
G15  23809999.660   125122163.344          50.000                                                  
G17  21065686.240   110700873.449          50.000                                                  
G19  20065373.840   105444237.012          50.000                                                  
G24  22197308.300   116647565.012          50.000    22197312.000    87106939.207          50.000  
G28  22323404.480   117310396.801          50.000                                                  
G30  23956751.020   125893485.586          50.000    23956755.880    94011357.820          50.000  
E 5  27483227.260   144425256.277          50.000    27483235.180   107850002.742          50.000  
E 9  25853443.580   135860690.961          50.000    25853451.520   101454386.332          50.000  
E12  22839873.700   120024347.602          50.000    22839876.140    89628559.910          50.000  
E24  23201953.800   121926894.070          50.000    23201970.960    91049265.582          50.000  
E26  26465556.400   139077368.891          50.000    26465563.880   103856453.820          50.000  
E33  24261286.740   127493911.168          50.000    24261290.360    95206481.477          50.000  
> 2020  6  5 17 41 55.0000000  0 14       0.000000000000
G 6  22316948.960   117276279.289          50.000    22316953.560    87576434.117          50.000  
G13  23258710.920   122225364.719          50.000                                                  
G15  23810426.600   125124406.949          50.000                                                  
G17  21066017.480   110702614.168          50.000                                                  
G19  20065392.220   105444333.641          50.000                                                  
G24  22196835.160   116645078.559          50.000    22196838.860    87105082.441          50.000  
G28  22323697.360   117311935.848          50.000                                                  
G30  23957426.240   125897033.828          50.000    23957431.100    94014007.480          50.000  
E 5  27483473.860   144426552.090          50.000    27483481.760   107850970.395          50.000  
E 9  25853913.660   135863161.184          50.000    25853921.580   101456230.977          50.000  
E12  22839430.260   120022017.316          50.000    22839432.700    89626819.762          50.000  
E24  23201640.060   121925245.344          50.000    23201657.220    91048034.391          50.000  
E26  26466031.280   139079864.348          50.000    26466038.760   103858317.309          50.000  
E33  24261355.160   127494270.629          50.000    24261358.760    95206749.906          50.000  
> 2020  6  5 17 41 56.0000000  0 14       0.000000000000
G 6  22316393.000   117273357.742          50.000    22316397.620    87574252.445          50.000  
G13  23259298.160   122228450.742          50.000                                                  
G15  23810853.600   125126650.848          50.000                                                  
G17  21066348.800   110704355.215          50.000                                                  
G19  20065410.720   105444430.840          50.000                                                  
G24  22196362.080   116642592.508          50.000    22196365.760    87103225.977          50.000  
G28  22323990.260   117313475.008          50.000                                                  
G30  23958101.480   125900582.266          50.000    23958106.340    94016657.289          50.000  
E 5  27483720.500   144427848.242          50.000    27483728.420   107851938.301          50.000  
E 9  25854383.720   135865631.398          50.000    25854391.660   101458075.617          50.000  
E12  22838986.880   120019687.352          50.000    22838989.320    89625079.855          50.000  
E24  23201326.320   121923596.680          50.000    23201343.480    91046803.246          50.000  
E26  26466506.180   139082360.051          50.000    26466513.680   103860180.980          50.000  
E33  24261423.640   127494630.566          50.000    24261427.260    95207018.691          50.000  
> 2020  6  5 17 41 57.0000000  0 14       0.000000000000
G 6  22315837.100   117270436.535          50.000    22315841.720    87572071.027          50.000  
G13  23259885.440   122231536.934          50.000                                                  
G15  23811280.640   125128895.023          50.000                                                  
G17  21066680.180   110706096.590          50.000                                                  
G19  20065429.320   105444528.609          50.000                                                  
G24  22195889.060   116640106.840          50.000    22195892.760    87101369.797          50.000  
G28  22324283.160   117315014.273          50.000                                                  
G30  23958776.760   125904130.879          50.000    23958781.620    94019307.227          50.000  
E 5  27483967.220   144429144.727          50.000    27483975.140   107852906.453          50.000  
E 9  25854853.800   135868101.621          50.000    25854861.720   101459920.262          50.000  
E12  22838543.560   120017357.707          50.000    22838546.020    89623340.188          50.000  
E24  23201012.600   121921948.066          50.000    23201029.760    91045572.141          50.000  
E26  26466981.140   139084855.984          50.000    26466988.640   103862044.828          50.000  
E33  24261492.240   127494990.992          50.000    24261495.840    95207287.840          50.000  
> 2020  6  5 17 41 58.0000000  0 14       0.000000000000
G 6  22315281.300   117267515.695          50.000    22315285.900    87569889.883          50.000  
G13  23260472.760   122234623.316          50.000                                                  
G15  23811707.760   125131139.469          50.000                                                  
G17  21067011.600   110707838.285          50.000                                                  
G19  20065448.040   105444626.945          50.000                                                  
G24  22195416.140   116637621.578          50.000    22195419.820    87099513.922          50.000  
G28  22324576.100   117316553.656          50.000                                                  
G30  23959452.080   125907679.695          50.000    23959456.940    94021957.313          50.000  
E 5  27484214.000   144430441.543          50.000    27484221.900   107853874.855          50.000  
E 9  25855323.860   135870571.832          50.000    25855331.780   101461764.902          50.000  
E12  22838100.300   120015028.398          50.000    22838102.760    89621600.770          50.000  
E24  23200698.900   121920299.508          50.000    23200716.040    91044341.074          50.000  
E26  26467456.160   139087352.152          50.000    26467463.640   103863908.848          50.000  
E33  24261560.920   127495351.910          50.000    24261564.520    95207557.355          50.000  
> 2020  6  5 17 41 59.0000000  0 14       0.000000000000
G 6  22314725.540   117264595.191          50.000    22314730.160    87567708.988          50.000  
G13  23261060.120   122237709.875          50.000                                                  
G15  23812134.920   125133384.203          50.000                                                  
G17  21067343.100   110709580.316          50.000                                                  
G19  20065466.860   105444725.863          50.000                                                  
G24  22194943.280   116635136.707          50.000    22194946.980    87097658.336          50.000  
G28  22324869.060   117318093.137          50.000                                                  
G30  23960127.420   125911228.680          50.000    23960132.280    94024607.523          50.000  
E 5  27484460.840   144431738.695          50.000    27484468.740   107854843.508          50.000  
E 9  25855793.920   135873042.055          50.000    25855801.860   101463609.547          50.000  
E12  22837657.120   120012699.410          50.000    22837659.560    89619861.594          50.000  
E24  23200385.200   121918651.012          50.000    23200402.340    91043110.055          50.000  
E26  26467931.200   139089848.555          50.000    26467938.700   103865773.043          50.000  
E33  24261629.680   127495713.289          50.000    24261633.280    95207827.219          50.000  
> 2020  6  5 17 42  0.0000000  0 14       0.000000000000
G 6  22314169.840   117261675.031          50.000    22314174.460    87565528.352          50.000  
G13  23261647.520   122240796.629          50.000                                                  
G15  23812562.120   125135629.207          50.000                                                  
G17  21067674.660   110711322.672          50.000                                                  
G19  20065485.800   105444825.340          50.000                                                  
G24  22194470.500   116632652.246          50.000    22194474.200    87095803.063          50.000  
G28  22325162.020   117319632.727          50.000                                                  
G30  23960802.820   125914777.855          50.000    23960807.680    94027257.883          50.000  
E 5  27484707.740   144433036.168          50.000    27484715.660   107855812.398          50.000  
E 9  25856264.000   135875512.270          50.000    25856271.920   101465454.188          50.000  
E12  22837213.980   120010370.750          50.000    22837216.440    89618122.656          50.000  
E24  23200071.500   121917002.559          50.000    23200088.660    91041879.070          50.000  
E26  26468406.300   139092345.195          50.000    26468413.780   103867637.418          50.000  
E33  24261698.540   127496075.156          50.000    24261702.140    95208097.441          50.000  
> 2020  6  5 17 42  1.0000000  0 14       0.000000000000
G 6  22313614.240   117258755.258          50.000    22313618.840    87563348.004          50.000  
G13  23262234.940   122243883.563          50.000                                                  
G15  23812989.380   125137874.492          50.000                                                  
G17  21068006.280   110713065.359          50.000                                                  
G19  20065504.840   105444925.402          50.000                                                  
G24  22193997.800   116630168.195          50.000    22194001.500    87093948.090          50.000  
G28  22325455.020   117321172.426          50.000                                                  
G30  23961478.240   125918327.207          50.000    23961483.100    94029908.371          50.000  
E 5  27484954.700   144434333.988          50.000    27484962.620   107856781.551          50.000  
E 9  25856734.060   135877982.480          50.000    25856741.980   101467298.828          50.000  
E12  22836770.920   120008042.414          50.000    22836773.360    89616383.965          50.000  
E24  23199757.820   121915354.172          50.000    23199774.980    91040648.133          50.000  
E26  26468881.440   139094842.066          50.000    26468888.920   103869501.965          50.000  
E33  24261767.500   127496437.504          50.000    24261771.100    95208368.031          50.000  
> 2020  6  5 17 42  2.0000000  0 14       0.000000000000
G 6  22313058.680   117255835.809          50.000    22313063.280    87561167.898          50.000  
G13  23262822.400   122246970.668          50.000                                                  
G15  23813416.700   125140120.047          50.000                                                  
G17  21068337.960   110714808.367          50.000                                                  
G19  20065523.980   105445026.031          50.000                                                  
G24  22193525.180   116627684.535          50.000    22193528.860    87092093.410          50.000  
G28  22325748.040   117322712.230          50.000                                                  
G30  23962153.700   125921876.754          50.000    23962158.560    94032559.004          50.000  
E 5  27485201.720   144435632.137          50.000    27485209.640   107857750.945          50.000  
E 9  25857204.120   135880452.703          50.000    25857212.060   101469143.473          50.000  
E12  22836327.900   120005714.398          50.000    22836330.360    89614645.516          50.000  
E24  23199444.160   121913705.840          50.000    23199461.300    91039417.234          50.000  
E26  26469356.620   139097339.176          50.000    26469364.120   103871366.688          50.000  
E33  24261836.540   127496800.332          50.000    24261840.140    95208638.969          50.000  
> 2020  6  5 17 42  3.0000000  0 14       0.000000000000
G 6  22312503.200   117252916.723          50.000    22312507.800    87558988.063          50.000  
G13  23263409.880   122250057.957          50.000                                                  
G15  23813844.080   125142365.887          50.000                                                  
G17  21068669.720   110716551.711          50.000                                                  
G19  20065543.240   105445127.223          50.000                                                  
G24  22193052.620   116625201.285          50.000    22193056.320    87090239.035          50.000  
G28  22326041.080   117324252.148          50.000                                                  
G30  23962829.180   125925426.492          50.000    23962834.040    94035209.777          50.000  
E 5  27485448.820   144436930.609          50.000    27485456.740   107858720.586          50.000  
E 9  25857674.200   135882922.918          50.000    25857682.120   101470988.113          50.000  
E12  22835884.960   120003386.711          50.000    22835887.420    89612907.309          50.000  
E24  23199130.500   121912057.563          50.000    23199147.660    91038186.383          50.000  
E26  26469831.860   139099836.512          50.000    26469839.340   103873231.578          50.000  
E33  24261905.680   127497163.645          50.000    24261909.280    95208910.277          50.000  
> 2020  6  5 17 42  4.0000000  0 14       0.000000000000
G 6  22311947.780   117249997.988          50.000    22311952.380    87556808.488          50.000  
G13  23263997.420   122253145.418          50.000                                                  
G15  23814271.500   125144612.000          50.000                                                  
G17  21069001.520   110718295.383          50.000                                                  
G19  20065562.600   105445228.973          50.000                                                  
G24  22192580.160   116622718.441          50.000    22192583.840    87088384.965          50.000  
G28  22326334.140   117325792.164          50.000                                                  
G30  23963504.720   125928976.398          50.000    23963509.580    94037860.680          50.000  
E 5  27485695.980   144438229.418          50.000    27485703.900   107859690.477          50.000  
E 9  25858144.260   135885393.125          50.000    25858152.180   101472832.746          50.000  
E12  22835442.080   120001059.352          50.000    22835444.520    89611169.344          50.000  
E24  23198816.860   121910409.340          50.000    23198834.000    91036955.566          50.000  
E26  26470307.120   139102334.086          50.000    26470314.620   103875096.652          50.000  
E33  24261974.900   127497527.434          50.000    24261978.500    95209181.938          50.000  
> 2020  6  5 17 42  5.0000000  0 14       0.000000000000
G 6  22311392.420   117247079.605          50.000    22311397.040    87554629.180          50.000  
G13  23264584.980   122256233.078          50.000                                                  
G15  23814698.960   125146858.379          50.000                                                  
G17  21069333.400   110720039.367          50.000                                                  
G19  20065582.080   105445331.305          50.000                                                  
G24  22192107.760   116620235.992          50.000    22192111.460    87086531.191          50.000  
G28  22326627.200   117327332.293          50.000                                                  
G30  23964180.280   125932526.504          50.000    23964185.140    94040511.730          50.000  
E 5  27485943.200   144439528.559          50.000    27485951.120   107860660.613          50.000  
E 9  25858614.320   135887863.340          50.000    25858622.260   101474677.387          50.000  
E12  22834999.260   119998732.309          50.000    22835001.700    89609431.621          50.000  
E24  23198503.220   121908761.176          50.000    23198520.360    91035724.797          50.000  
E26  26470782.440   139104831.895          50.000    26470789.940   103876961.898          50.000  
E33  24262044.220   127497891.703          50.000    24262047.820    95209453.957          50.000  
> 2020  6  5 17 42  6.0000000  0 14       0.000000000000
G 6  22310837.140   117244161.582          50.000    22310841.760    87552450.137          50.000  
G13  23265172.580   122259320.918          50.000                                                  
G15  23815126.500   125149105.035          50.000                                                  
G17  21069665.320   110721783.684          50.000                                                  
G19  20065601.660   105445434.207          50.000                                                  
G24  22191635.440   116617753.906          50.000    22191639.120    87084677.688          50.000  
G28  22326920.300   117328872.516          50.000                                                  
G30  23964855.880   125936076.781          50.000    23964860.740    94043162.914          50.000  
E 5  27486190.480   144440828.027          50.000    27486198.400   107861630.992          50.000  
E 9  25859084.380   135890333.551          50.000    25859092.320   101476522.027          50.000  
E12  22834556.500   119996405.609          50.000    22834558.940    89607694.152          50.000  
E24  23198189.600   121907113.059          50.000    23198206.740    91034494.059          50.000  
E26  26471257.800   139107329.938          50.000    26471265.300   103878827.316          50.000  
E33  24262113.620   127498256.449          50.000    24262117.240    95209726.332          50.000  
> 2020  6  5 17 42  7.0000000  0 14       0.000000000000
G 6  22310281.920   117241243.906          50.000    22310286.540    87550271.359          50.000  
G13  23265760.200   122262408.945          50.000                                                  
G15  23815554.080   125151351.969          50.000                                                  
G17  21069997.320   110723528.336          50.000                                                  
G19  20065621.340   105445537.664          50.000                                                  
G24  22191163.180   116615272.227          50.000    22191166.880    87082824.484          50.000  
G28  22327213.420   117330412.855          50.000                                                  
G30  23965531.500   125939627.254          50.000    23965536.380    94045814.234          50.000  
E 5  27486437.820   144442127.832          50.000    27486445.740   107862601.625          50.000  
E 9  25859554.460   135892803.766          50.000    25859562.380   101478366.668          50.000  
E12  22834113.800   119994079.227          50.000    22834116.260    89605956.918          50.000  
E24  23197875.980   121905465.016          50.000    23197893.120    91033263.383          50.000  
E26  26471733.220   139109828.223          50.000    26471740.700   103880692.918          50.000  
E33  24262183.140   127498621.688          50.000    24262186.740    95209999.074          50.000  
> 2020  6  5 17 42  8.0000000  0 14       0.000000000000
G 6  22309726.780   117238326.594          50.000    22309731.380    87548092.844          50.000  
G13  23266347.880   122265497.148          50.000                                                  
G15  23815981.700   125153599.184          50.000                                                  
G17  21070329.380   110725273.305          50.000                                                  
G19  20065641.140   105445641.684          50.000                                                  
G24  22190691.000   116612790.941          50.000    22190694.700    87080971.582          50.000  
G28  22327506.560   117331953.297          50.000                                                  
G30  23966207.180   125943177.902          50.000    23966212.040    94048465.691          50.000  
E 5  27486685.220   144443427.965          50.000    27486693.140   107863572.504          50.000  
E 9  25860024.520   135895273.977          50.000    25860032.460   101480211.305          50.000  
E12  22833671.160   119991753.160          50.000    22833673.620    89604219.922          50.000  
E24  23197562.380   121903816.996          50.000    23197579.520    91032032.719          50.000  
E26  26472208.660   139112326.730          50.000    26472216.160   103882558.688          50.000  
E33  24262252.720   127498987.395          50.000    24262256.320    95210272.168          50.000  
> 2020  6  5 17 42  9.0000000  0 14       0.000000000000
G 6  22309171.700   117235409.625          50.000    22309176.300    87545914.594          50.000  
G13  23266935.580   122268585.535          50.000                                                  
G15  23816409.380   125155846.672          50.000                                                  
G17  21070661.500   110727018.605          50.000                                                  
G19  20065661.040   105445746.281          50.000                                                  
G24  22190218.920   116610310.063          50.000    22190222.600    87079118.977          50.000  
G28  22327799.720   117333493.844          50.000                                                  
G30  23966882.880   125946728.750          50.000    23966887.740    94051117.297          50.000  
E 5  27486932.700   144444728.434          50.000    27486940.620   107864543.633          50.000  
E 9  25860494.580   135897744.184          50.000    25860502.520   101482055.941          50.000  
E12  22833228.600   119989427.430          50.000    22833231.040    89602483.180          50.000  
E24  23197248.780   121902169.059          50.000    23197265.920    91030802.113          50.000  
E26  26472684.160   139114825.477          50.000    26472691.660   103884424.633          50.000  
E33  24262322.400   127499353.590          50.000    24262326.020    95210545.625          50.000  
> 2020  6  5 17 42 10.0000000  0 14       0.000000000000
G 6  22308616.680   117232493.008          50.000    22308621.280    87543736.602          50.000  
G13  23267523.300   122271674.086          50.000                                                  
G15  23816837.120   125158094.434          50.000                                                  
G17  21070993.680   110728764.234          50.000                                                  
G19  20065681.060   105445851.441          50.000                                                  
G24  22189746.900   116607829.574          50.000    22189750.580    87077266.664          50.000  
G28  22328092.900   117335034.500          50.000                                                  
G30  23967558.620   125950279.777          50.000    23967563.480    94053769.035          50.000  
E 5  27487180.240   144446029.234          50.000    27487188.160   107865515.012          50.000  
E 9  25860964.660   135900214.395          50.000    25860972.580   101483900.578          50.000  
E12  22832786.080   119987102.031          50.000    22832788.540    89600746.680          50.000  
E24  23196935.200   121900521.191          50.000    23196952.340    91029571.566          50.000  
E26  26473159.700   139117324.465          50.000    26473167.200   103886290.758          50.000  
E33  24262392.180   127499720.270          50.000    24262395.780    95210819.449          50.000  
> 2020  6  5 17 42 11.0000000  0 14       0.000000000000
G 6  22308061.740   117229576.746          50.000    22308066.340    87541558.875          50.000  
G13  23268111.080   122274762.836          50.000                                                  
G15  23817264.900   125160342.465          50.000                                                  
G17  21071325.920   110730510.184          50.000                                                  
G19  20065701.180   105445957.164          50.000                                                  
G24  22189274.940   116605349.500          50.000    22189278.640    87075414.660          50.000  
G28  22328386.080   117336575.262          50.000                                                  
G30  23968234.400   125953830.992          50.000    23968239.260    94056420.914          50.000  
E 5  27487427.820   144447330.359          50.000    27487435.740   107866486.629          50.000  
E 9  25861434.720   135902684.609          50.000    25861442.640   101485745.219          50.000  
E12  22832343.640   119984776.961          50.000    22832346.080    89599010.430          50.000  
E24  23196621.620   121898873.363          50.000    23196638.780    91028341.047          50.000  
E26  26473635.280   139119823.680          50.000    26473642.780   103888157.055          50.000  
E33  24262462.040   127500087.426          50.000    24262465.660    95211093.621          50.000  
> 2020  6  5 17 42 12.0000000  0 14       0.000000000000
G 6  22307506.860   117226660.844          50.000    22307511.460    87539381.418          50.000  
G13  23268698.880   122277851.762          50.000                                                  
G15  23817692.740   125162590.777          50.000                                                  
G17  21071658.240   110732256.465          50.000                                                  
G19  20065721.400   105446063.465          50.000                                                  
G24  22188803.080   116602869.809          50.000    22188806.760    87073562.949          50.000  
G28  22328679.300   117338116.129          50.000                                                  
G30  23968910.200   125957382.379          50.000    23968915.060    94059072.922          50.000  
E 5  27487675.480   144448631.824          50.000    27487683.400   107867458.500          50.000  
E 9  25861904.780   135905154.809          50.000    25861912.720   101487589.848          50.000  
E12  22831901.260   119982452.207          50.000    22831903.700    89597274.410          50.000  
E24  23196308.060   121897225.586          50.000    23196325.220    91027110.566          50.000  
E26  26474110.920   139122323.129          50.000    26474118.420   103890023.523          50.000  
E33  24262532.000   127500455.051          50.000    24262535.620    95211368.148          50.000  
> 2020  6  5 17 42 13.0000000  0 14       0.000000000000
G 6  22306952.040   117223745.293          50.000    22306956.640    87537204.223          50.000  
G13  23269286.720   122280940.871          50.000                                                  
G15  23818120.640   125164839.375          50.000                                                  
G17  21071990.600   110734003.066          50.000                                                  
G19  20065741.740   105446170.340          50.000                                                  
G24  22188331.280   116600390.527          50.000    22188334.980    87071711.535          50.000  
G28  22328972.540   117339657.098          50.000                                                  
G30  23969586.040   125960933.957          50.000    23969590.920    94061725.074          50.000  
E 5  27487923.220   144449933.605          50.000    27487931.140   107868430.613          50.000  
E 9  25862374.840   135907625.016          50.000    25862382.780   101489434.480          50.000  
E12  22831458.920   119980127.770          50.000    22831461.360    89595538.633          50.000  
E24  23195994.520   121895577.867          50.000    23196011.660    91025880.129          50.000  
E26  26474586.600   139124822.809          50.000    26474594.080   103891890.168          50.000  
E33  24262602.060   127500823.168          50.000    24262605.660    95211643.039          50.000  
> 2020  6  5 17 42 14.0000000  0 14       0.000000000000
G 6  22306397.300   117220830.098          50.000    22306401.900    87535027.293          50.000  
G13  23269874.600   122284030.152          50.000                                                  
G15  23818548.580   125167088.238          50.000                                                  
G17  21072323.040   110735750.004          50.000                                                  
G19  20065762.180   105446277.781          50.000                                                  
G24  22187859.580   116597911.672          50.000    22187863.260    87069860.445          50.000  
G28  22329265.800   117341198.180          50.000                                                  
G30  23970261.920   125964485.719          50.000    23970266.800    94064377.359          50.000  
E 5  27488171.000   144451235.730          50.000    27488178.920   107869402.977          50.000  
E 9  25862844.900   135910095.211          50.000    25862852.840   101491279.105          50.000  
E12  22831016.660   119977803.668          50.000    22831019.100    89593803.102          50.000  
E24  23195680.980   121893930.207          50.000    23195698.120    91024649.734          50.000  
E26  26475062.320   139127322.723          50.000    26475069.800   103893756.984          50.000  
E33  24262672.200   127501191.758          50.000    24262675.800    95211918.285          50.000  
> 2020  6  5 17 42 15.0000000  0 14       0.000000000000
G 6  22305842.620   117217915.258          50.000    22305847.220    87532850.629          50.000  
G13  23270462.500   122287119.625          50.000                                                  
G15  23818976.580   125169337.379          50.000                                                  
G17  21072655.520   110737497.258          50.000                                                  
G19  20065782.740   105446385.797          50.000                                                  
G24  22187387.940   116595433.215          50.000    22187391.620    87068009.652          50.000  
G28  22329559.080   117342739.375          50.000                                                  
G30  23970937.840   125968037.656          50.000    23970942.700    94067029.777          50.000  
E 5  27488418.840   144452538.188          50.000    27488426.760   107870375.590          50.000  
E 9  25863314.980   135912565.410          50.000    25863322.900   101493123.738          50.000  
E12  22830574.460   119975479.891          50.000    22830576.900    89592067.816          50.000  
E24  23195367.440   121892282.605          50.000    23195384.600    91023419.383          50.000  
E26  26475538.080   139129822.871          50.000    26475545.560   103895623.977          50.000  
E33  24262742.420   127501560.828          50.000    24262746.040    95212193.891          50.000  
