     3.03           OBSERVATION DATA    M: Mixed            RINEX VERSION / TYPE
sbp2rinex v2.2 (RTKL                    20210504 171528 UTC PGM / RUN BY / DATE 
log: 2020-09-04-US-SF-1.sbp                                 COMMENT             
format: Swift Navigation SBP, option: CONVBASE,EPHALL,OBSALLCOMMENT             
                                                            MARKER NAME         
                                                            MARKER NUMBER       
                                                            MARKER TYPE         
                                                            OBSERVER / AGENCY   
                                                            REC # / TYPE / VERS 
                                                            ANT # / TYPE        
 -2725767.0261 -4348279.3430  3774573.3012                  APPROX POSITION XYZ 
        0.0000        0.0000        0.0000                  ANTENNA: DELTA H/E/N
G    6 C1C L1C S1C C5I L5I S5I                              SYS / # / OBS TYPES 
E    6 C1B L1B S1B C5I L5I S5I                              SYS / # / OBS TYPES 
  2020     9     4    17     9   51.0000000     GPS         TIME OF FIRST OBS   
  2020     9     4    17    40   20.0000000     GPS         TIME OF LAST OBS    
G                                                           SYS / PHASE SHIFT   
E                                                           SYS / PHASE SHIFT   
  0                                                         GLONASS SLOT / FRQ #
 C1C    0.000 C1P    0.000 C2C    0.000 C2P    0.000        GLONASS COD/PHS/BIS 
                                                            END OF HEADER       
> 2020  9  4 17  9 51.0000000  0 15       0.000000000000
G 2  24841957.880   130545370.457          50.000                                                  
G 5  21884463.180   115003547.164          50.000                                                  
G12  23725595.260   124678834.738          50.000                                                  
G15  24182114.380   127077665.184          50.000                                                  
G20  23673003.020   124402458.051          50.000                                                  
G25  21671218.140   113882954.348          50.000    21671220.360    85042455.746          50.000  
G26  23477372.480   123374338.809          50.000    23477373.660    92130172.215          50.000  
G29  20472936.940   107586008.172          50.000                                                  
E 1  26725124.340   140441428.246          50.000    26725130.480   104875079.156          50.000  
E 7  26918787.180   141459143.633          50.000    26918794.600   105635065.605          50.000  
E19  27585686.940   144963701.742          50.000    27585693.020   108252095.281          50.000  
E24  24683363.180   129711756.527          50.000    24683381.020    96862643.348          50.000  
E26  24943858.460   131080820.027          50.000    24943865.660    97885019.129          50.000  
E31  24716657.280   129886864.309          50.000    24716663.780    96993426.313          50.000  
E33  23852804.740   125347333.602          50.000    23852808.760    93603525.898          50.000  
> 2020  9  4 17  9 52.0000000  0 15       0.000000000000
G 2  24842409.900   130547745.840          50.000                                                  
G 5  21884907.820   115005883.707          50.000                                                  
G12  23726313.260   124682607.875          50.000                                                  
G15  24181538.940   127074641.227          50.000                                                  
G20  23672335.880   124398952.203          50.000                                                  
G25  21671744.580   113885720.770          50.000    21671746.800    85044521.578          50.000  
G26  23476908.960   123371902.984          50.000    23476910.140    92128353.258          50.000  
G29  20472832.640   107585460.090          50.000                                                  
E 1  26725703.040   140444469.277          50.000    26725709.160   104877350.055          50.000  
E 7  26918800.580   141459214.039          50.000    26918808.000   105635118.180          50.000  
E19  27585147.640   144960867.738          50.000    27585153.720   108249978.980          50.000  
E24  24683112.860   129710441.055          50.000    24683130.700    96861661.016          50.000  
E26  24944175.880   131082488.094          50.000    24944183.080    97886264.762          50.000  
E31  24716896.700   129888122.441          50.000    24716903.200    96994365.828          50.000  
E33  23852835.140   125347493.410          50.000    23852839.180    93603645.238          50.000  
> 2020  9  4 17  9 53.0000000  0 15       0.000000000000
G 2  24842861.920   130550121.184          50.000                                                  
G 5  21885352.540   115008220.750          50.000                                                  
G12  23727031.300   124686381.137          50.000                                                  
G15  24180963.500   127071617.313          50.000                                                  
G20  23671668.760   124395446.496          50.000                                                  
G25  21672271.080   113888487.609          50.000    21672273.300    85046587.723          50.000  
G26  23476445.520   123369467.605          50.000    23476446.700    92126534.629          50.000  
G29  20472728.420   107584912.352          50.000                                                  
E 1  26726281.740   140447510.398          50.000    26726287.880   104879621.023          50.000  
E 7  26918814.060   141459284.910          50.000    26918821.500   105635171.105          50.000  
E19  27584608.340   144958033.695          50.000    27584614.420   108247862.652          50.000  
E24  24682862.620   129709126.020          50.000    24682880.460    96860679.008          50.000  
E26  24944493.300   131084156.188          50.000    24944500.520    97887510.414          50.000  
E31  24717136.200   129889381.023          50.000    24717142.700    96995305.680          50.000  
E33  23852865.580   125347653.328          50.000    23852869.620    93603764.656          50.000  
> 2020  9  4 17  9 54.0000000  0 15       0.000000000000
G 2  24843313.920   130552496.488          50.000                                                  
G 5  21885797.360   115010558.289          50.000                                                  
G12  23727749.340   124690154.516          50.000                                                  
G15  24180388.080   127068593.430          50.000                                                  
G20  23671001.680   124391940.938          50.000                                                  
G25  21672797.680   113891254.871          50.000    21672799.900    85048654.184          50.000  
G26  23475982.180   123367032.672          50.000    23475983.340    92124716.336          50.000  
G29  20472624.240   107584364.961          50.000                                                  
E 1  26726860.460   140450551.594          50.000    26726866.600   104881892.043          50.000  
E 7  26918827.640   141459356.227          50.000    26918835.060   105635224.359          50.000  
E19  27584069.020   144955199.574          50.000    27584075.100   108245746.266          50.000  
E24  24682612.440   129707811.395          50.000    24682630.280    96859697.309          50.000  
E26  24944810.740   131085824.289          50.000    24944817.940    97888756.074          50.000  
E31  24717375.780   129890640.027          50.000    24717382.280    96996245.840          50.000  
E33  23852896.020   125347813.340          50.000    23852900.060    93603884.145          50.000  
> 2020  9  4 17  9 55.0000000  0 15       0.000000000000
G 2  24843765.920   130554871.758          50.000                                                  
G 5  21886242.280   115012896.332          50.000                                                  
G12  23728467.420   124693928.020          50.000                                                  
G15  24179812.660   127065569.602          50.000                                                  
G20  23670334.620   124388435.527          50.000                                                  
G25  21673324.360   113894022.543          50.000    21673326.580    85050720.953          50.000  
G26  23475518.900   123364598.172          50.000    23475520.080    92122898.367          50.000  
G29  20472520.160   107583817.934          50.000                                                  
E 1  26727439.200   140453592.867          50.000    26727445.320   104884163.125          50.000  
E 7  26918841.300   141459428.004          50.000    26918848.720   105635277.961          50.000  
E19  27583529.700   144952365.383          50.000    27583535.780   108243629.824          50.000  
E24  24682362.360   129706497.223          50.000    24682380.200    96858715.949          50.000  
E26  24945128.180   131087492.418          50.000    24945135.380    97890001.758          50.000  
E31  24717615.440   129891899.484          50.000    24717621.960    96997186.344          50.000  
E33  23852926.500   125347973.461          50.000    23852930.520    93604003.715          50.000  
> 2020  9  4 17  9 56.0000000  0 15       0.000000000000
G 2  24844217.920   130557246.984          50.000                                                  
G 5  21886687.280   115015234.863          50.000                                                  
G12  23729185.520   124697701.648          50.000                                                  
G15  24179237.260   127062545.813          50.000                                                  
G20  23669667.600   124384930.289          50.000                                                  
G25  21673851.100   113896790.633          50.000    21673853.320    85052788.031          50.000  
G26  23475055.720   123362164.125          50.000    23475056.880    92121080.734          50.000  
G29  20472416.120   107583271.246          50.000                                                  
E 1  26728017.940   140456634.219          50.000    26728024.080   104886434.262          50.000  
E 7  26918855.040   141459500.223          50.000    26918862.460   105635331.891          50.000  
E19  27582990.340   144949531.102          50.000    27582996.420   108241513.316          50.000  
E24  24682112.360   129705183.465          50.000    24682130.200    96857734.895          50.000  
E26  24945445.600   131089160.563          50.000    24945452.820    97891247.449          50.000  
E31  24717855.180   129893159.371          50.000    24717861.700    96998127.168          50.000  
E33  23852956.980   125348133.672          50.000    23852961.020    93604123.355          50.000  
> 2020  9  4 17  9 57.0000000  0 15       0.000000000000
G 2  24844669.900   130559622.172          50.000                                                  
G 5  21887132.380   115017573.895          50.000                                                  
G12  23729903.640   124701475.375          50.000                                                  
G15  24178661.860   127059522.063          50.000                                                  
G20  23669000.600   124381425.195          50.000                                                  
G25  21674377.920   113899559.043          50.000    21674380.160    85054855.324          50.000  
G26  23474592.620   123359730.520          50.000    23474593.780    92119263.434          50.000  
G29  20472312.160   107582724.938          50.000                                                  
E 1  26728596.720   140459675.676          50.000    26728602.840   104888705.477          50.000  
E 7  26918868.860   141459572.898          50.000    26918876.300   105635386.164          50.000  
E19  27582450.980   144946696.754          50.000    27582457.060   108239396.758          50.000  
E24  24681862.460   129703870.145          50.000    24681880.300    96856754.168          50.000  
E26  24945763.060   131090828.727          50.000    24945770.260    97892493.152          50.000  
E31  24718095.020   129894419.684          50.000    24718101.520    96999068.313          50.000  
E33  23852987.480   125348293.980          50.000    23852991.520    93604243.066          50.000  
> 2020  9  4 17  9 58.0000000  0 15       0.000000000000
G 2  24845121.880   130561997.336          50.000                                                  
G 5  21887577.580   115019913.430          50.000                                                  
G12  23730621.780   124705249.230          50.000                                                  
G15  24178086.460   127056498.352          50.000                                                  
G20  23668333.640   124377920.258          50.000                                                  
G25  21674904.840   113902327.984          50.000    21674907.060    85056923.039          50.000  
G26  23474129.600   123357297.340          50.000    23474130.760    92117446.449          50.000  
G29  20472208.260   107582178.965          50.000                                                  
E 1  26729175.500   140462717.195          50.000    26729181.640   104890976.738          50.000  
E 7  26918882.780   141459646.031          50.000    26918890.220   105635440.773          50.000  
E19  27581911.600   144943862.301          50.000    27581917.680   108237280.125          50.000  
E24  24681612.620   129702557.238          50.000    24681630.460    96855773.750          50.000  
E26  24946080.500   131092496.910          50.000    24946087.700    97893738.875          50.000  
E31  24718334.940   129895680.445          50.000    24718341.440    97000009.789          50.000  
E33  23853018.020   125348454.398          50.000    23853022.040    93604362.859          50.000  
> 2020  9  4 17  9 59.0000000  0 15       0.000000000000
G 2  24845573.860   130564372.473          50.000                                                  
G 5  21888022.880   115022253.457          50.000                                                  
G12  23731339.940   124709023.215          50.000                                                  
G15  24177511.080   127053474.688          50.000                                                  
G20  23667666.700   124374415.473          50.000                                                  
G25  21675431.840   113905097.324          50.000    21675434.060    85058991.055          50.000  
G26  23473666.660   123354864.617          50.000    23473667.840    92115629.805          50.000  
G29  20472104.440   107581633.336          50.000                                                  
E 1  26729754.300   140465758.809          50.000    26729760.440   104893248.074          50.000  
E 7  26918896.780   141459719.613          50.000    26918904.220   105635495.723          50.000  
E19  27581372.220   144941027.797          50.000    27581378.300   108235163.449          50.000  
E24  24681362.860   129701244.770          50.000    24681380.700    96854793.660          50.000  
E26  24946397.940   131094165.109          50.000    24946405.160    97894984.605          50.000  
E31  24718574.940   129896941.645          50.000    24718581.440    97000951.594          50.000  
E33  23853048.560   125348614.918          50.000    23853052.600    93604482.727          50.000  
> 2020  9  4 17 10  0.0000000  0 15       0.000000000000
G 2  24846025.820   130566747.559          50.000                                                  
G 5  21888468.260   115024593.980          50.000                                                  
G12  23732058.140   124712797.309          50.000                                                  
G15  24176935.700   127050451.074          50.000                                                  
G20  23666999.780   124370910.859          50.000                                                  
G25  21675958.900   113907867.094          50.000    21675961.120    85061059.387          50.000  
G26  23473203.820   123352432.320          50.000    23473204.980    92113813.480          50.000  
G29  20472000.660   107581088.055          50.000                                                  
E 1  26730333.120   140468800.500          50.000    26730339.240   104895519.465          50.000  
E 7  26918910.880   141459793.648          50.000    26918918.300   105635551.008          50.000  
E19  27580832.820   144938193.215          50.000    27580838.900   108233046.719          50.000  
E24  24681113.180   129699932.734          50.000    24681131.020    96853813.895          50.000  
E26  24946715.400   131095833.320          50.000    24946722.600    97896230.348          50.000  
E31  24718815.020   129898203.285          50.000    24718821.520    97001893.727          50.000  
E33  23853079.120   125348775.527          50.000    23853083.160    93604602.664          50.000  
> 2020  9  4 17 10  1.0000000  0 15       0.000000000000
G 2  24846477.780   130569122.613          50.000                                                  
G 5  21888913.740   115026934.992          50.000                                                  
G12  23732776.340   124716571.508          50.000                                                  
G15  24176360.340   127047427.500          50.000                                                  
G20  23666332.900   124367406.391          50.000                                                  
G25  21676486.040   113910637.266          50.000    21676488.260    85063128.020          50.000  
G26  23472741.040   123350000.453          50.000    23472742.220    92111997.477          50.000  
G29  20471896.980   107580543.125          50.000                                                  
E 1  26730911.940   140471842.270          50.000    26730918.080   104897790.914          50.000  
E 7  26918925.040   141459868.125          50.000    26918932.480   105635606.621          50.000  
E19  27580293.400   144935358.563          50.000    27580299.480   108230929.934          50.000  
E24  24680863.600   129698621.121          50.000    24680881.440    96852834.441          50.000  
E26  24947032.840   131097501.547          50.000    24947040.060    97897476.102          50.000  
E31  24719055.180   129899465.348          50.000    24719061.680    97002836.176          50.000  
E33  23853109.700   125348936.234          50.000    23853113.740    93604722.672          50.000  
> 2020  9  4 17 10  2.0000000  0 15       0.000000000000
G 2  24846929.740   130571497.633          50.000                                                  
G 5  21889359.320   115029276.516          50.000                                                  
G12  23733494.580   124720345.848          50.000                                                  
G15  24175784.980   127044403.965          50.000                                                  
G20  23665666.060   124363902.086          50.000                                                  
G25  21677013.280   113913407.871          50.000    21677015.500    85065196.977          50.000  
G26  23472278.360   123347569.051          50.000    23472279.540    92110181.820          50.000  
G29  20471793.340   107579998.547          50.000                                                  
E 1  26731490.800   140474884.129          50.000    26731496.920   104900062.434          50.000  
E 7  26918939.300   141459943.063          50.000    26918946.740   105635662.582          50.000  
E19  27579753.960   144932523.816          50.000    27579760.040   108228813.078          50.000  
E24  24680614.080   129697309.926          50.000    24680631.920    96851855.305          50.000  
E26  24947350.300   131099169.801          50.000    24947357.520    97898721.875          50.000  
E31  24719295.420   129900727.844          50.000    24719301.940    97003778.949          50.000  
E33  23853140.300   125349097.043          50.000    23853144.340    93604842.758          50.000  
> 2020  9  4 17 10  3.0000000  0 15       0.000000000000
G 2  24847381.680   130573872.613          50.000                                                  
G 5  21889804.980   115031618.523          50.000                                                  
G12  23734212.820   124724120.297          50.000                                                  
G15  24175209.620   127041380.473          50.000                                                  
G20  23664999.240   124360397.918          50.000                                                  
G25  21677540.580   113916178.871          50.000    21677542.800    85067266.230          50.000  
G26  23471815.760   123345138.078          50.000    23471816.940    92108366.484          50.000  
G29  20471689.780   107579454.320          50.000                                                  
E 1  26732069.660   140477926.059          50.000    26732075.780   104902334.004          50.000  
E 7  26918953.640   141460018.449          50.000    26918961.080   105635718.875          50.000  
E19  27579214.520   144929688.992          50.000    27579220.580   108226696.168          50.000  
E24  24680364.660   129695999.160          50.000    24680382.500    96850876.488          50.000  
E26  24947667.760   131100838.059          50.000    24947674.980    97899967.652          50.000  
E31  24719535.760   129901990.785          50.000    24719542.260    97004722.055          50.000  
E33  23853170.920   125349257.953          50.000    23853174.960    93604962.918          50.000  
> 2020  9  4 17 10  4.0000000  0 15       0.000000000000
G 2  24847833.620   130576247.559          50.000                                                  
G 5  21890250.760   115033961.031          50.000                                                  
G12  23734931.100   124727894.883          50.000                                                  
G15  24174634.280   127038357.047          50.000                                                  
G20  23664332.440   124356893.930          50.000                                                  
G25  21678067.980   113918950.320          50.000    21678070.200    85069335.816          50.000  
G26  23471353.240   123342707.551          50.000    23471354.420    92106551.480          50.000  
G29  20471586.280   107578910.445          50.000                                                  
E 1  26732648.540   140480968.070          50.000    26732654.660   104904605.633          50.000  
E 7  26918968.080   141460094.289          50.000    26918975.520   105635775.512          50.000  
E19  27578675.060   144926854.117          50.000    27578681.120   108224579.215          50.000  
E24  24680115.300   129694688.840          50.000    24680133.140    96849898.000          50.000  
E26  24947985.240   131102506.355          50.000    24947992.440    97901213.457          50.000  
E31  24719776.160   129903254.160          50.000    24719782.680    97005665.484          50.000  
E33  23853201.560   125349418.973          50.000    23853205.600    93605083.156          50.000  
> 2020  9  4 17 10  5.0000000  0 15       0.000000000000
G 2  24848285.540   130578622.465          50.000                                                  
G 5  21890696.620   115036304.031          50.000                                                  
G12  23735649.400   124731669.570          50.000                                                  
G15  24174058.940   127035333.652          50.000                                                  
G20  23663665.680   124353390.074          50.000                                                  
G25  21678595.440   113921722.172          50.000    21678597.660    85071405.707          50.000  
G26  23470890.820   123340277.461          50.000    23470891.980    92104736.805          50.000  
G29  20471482.860   107578366.922          50.000                                                  
E 1  26733227.420   140484010.172          50.000    26733233.560   104906877.332          50.000  
E 7  26918982.600   141460170.586          50.000    26918990.040   105635832.488          50.000  
E19  27578135.580   144924019.141          50.000    27578141.640   108222462.188          50.000  
E24  24679866.040   129693378.934          50.000    24679883.880    96848919.824          50.000  
E26  24948302.700   131104174.664          50.000    24948309.920    97902459.270          50.000  
E31  24720016.660   129904517.965          50.000    24720023.180    97006609.234          50.000  
E33  23853232.220   125349580.078          50.000    23853236.260    93605203.461          50.000  
> 2020  9  4 17 10  6.0000000  0 15       0.000000000000
G 2  24848737.480   130580997.336          50.000                                                  
G 5  21891142.560   115038647.523          50.000                                                  
G12  23736367.740   124735444.371          50.000                                                  
G15  24173483.620   127032310.301          50.000                                                  
G20  23662998.960   124349886.414          50.000                                                  
G25  21679122.980   113924494.441          50.000    21679125.200    85073475.910          50.000  
G26  23470428.480   123337847.809          50.000    23470429.640    92102922.453          50.000  
G29  20471379.500   107577823.754          50.000                                                  
E 1  26733806.340   140487052.363          50.000    26733812.460   104909149.098          50.000  
E 7  26918997.200   141460247.332          50.000    26919004.640   105635889.797          50.000  
E19  27577596.080   144921184.105          50.000    27577602.160   108220345.117          50.000  
E24  24679616.860   129692069.465          50.000    24679634.700    96847941.973          50.000  
E26  24948620.180   131105842.996          50.000    24948627.380    97903705.102          50.000  
E31  24720257.240   129905782.207          50.000    24720263.740    97007553.309          50.000  
E33  23853262.900   125349741.293          50.000    23853266.940    93605323.852          50.000  
> 2020  9  4 17 10  7.0000000  0 15       0.000000000000
G 2  24849189.380   130583372.168          50.000                                                  
G 5  21891588.620   115040991.523          50.000                                                  
G12  23737086.080   124739219.305          50.000                                                  
G15  24172908.300   127029287.004          50.000                                                  
G20  23662332.260   124346382.887          50.000                                                  
G25  21679650.600   113927267.125          50.000    21679652.820    85075546.418          50.000  
G26  23469966.200   123335418.598          50.000    23469967.380    92101108.434          50.000  
G29  20471276.200   107577280.941          50.000                                                  
E 1  26734385.260   140490094.633          50.000    26734391.400   104911420.922          50.000  
E 7  26919011.900   141460324.543          50.000    26919019.320   105635947.453          50.000  
E19  27577056.580   144918348.984          50.000    27577062.660   108218227.984          50.000  
E24  24679367.760   129690760.422          50.000    24679385.600    96846964.441          50.000  
E26  24948937.660   131107511.340          50.000    24948944.860    97904950.941          50.000  
E31  24720497.900   129907046.902          50.000    24720504.420    97008497.727          50.000  
E33  23853293.600   125349902.605          50.000    23853297.640    93605444.313          50.000  
> 2020  9  4 17 10  8.0000000  0 15       0.000000000000
G 2  24849641.300   130585746.957          50.000                                                  
G 5  21892034.760   115043336.016          50.000                                                  
G12  23737804.440   124742994.344          50.000                                                  
G15  24172333.000   127026263.734          50.000                                                  
G20  23661665.600   124342879.512          50.000                                                  
G25  21680178.300   113930040.219          50.000    21680180.540    85077617.234          50.000  
G26  23469504.020   123332989.828          50.000    23469505.200    92099294.742          50.000  
G29  20471172.960   107576738.473          50.000                                                  
E 1  26734964.200   140493136.969          50.000    26734970.340   104913692.793          50.000  
E 7  26919026.680   141460402.195          50.000    26919034.100   105636005.441          50.000  
E19  27576517.060   144915513.789          50.000    27576523.140   108216110.789          50.000  
E24  24679118.740   129689451.809          50.000    24679136.580    96845987.230          50.000  
E26  24949255.140   131109179.703          50.000    24949262.340    97906196.801          50.000  
E31  24720738.640   129908312.027          50.000    24720745.160    97009442.461          50.000  
E33  23853324.320   125350064.023          50.000    23853328.340    93605564.852          50.000  
> 2020  9  4 17 10  9.0000000  0 15       0.000000000000
G 2  24850093.200   130588121.711          50.000                                                  
G 5  21892481.000   115045681.012          50.000                                                  
G12  23738522.840   124746769.508          50.000                                                  
G15  24171757.700   127023240.527          50.000                                                  
G20  23660998.960   124339376.305          50.000                                                  
G25  21680706.100   113932813.746          50.000    21680708.320    85079688.375          50.000  
G26  23469041.940   123330561.512          50.000    23469043.100    92097481.387          50.000  
G29  20471069.800   107576196.359          50.000                                                  
E 1  26735543.160   140496179.406          50.000    26735549.300   104915964.742          50.000  
E 7  26919041.540   141460480.297          50.000    26919048.960   105636063.766          50.000  
E19  27575977.520   144912678.523          50.000    27575983.600   108213993.547          50.000  
E24  24678869.800   129688143.621          50.000    24678887.620    96845010.340          50.000  
E26  24949572.620   131110848.086          50.000    24949579.820    97907442.668          50.000  
E31  24720979.480   129909577.566          50.000    24720985.980    97010387.508          50.000  
E33  23853355.040   125350225.531          50.000    23853359.080    93605685.457          50.000  
> 2020  9  4 17 10 10.0000000  0 15       0.000000000000
G 2  24850545.100   130590496.430          50.000                                                  
G 5  21892927.320   115048026.492          50.000                                                  
G12  23739241.240   124750544.785          50.000                                                  
G15  24171182.400   127020217.352          50.000                                                  
G20  23660332.340   124335873.234          50.000                                                  
G25  21681233.960   113935587.676          50.000    21681236.180    85081759.813          50.000  
G26  23468579.920   123328133.629          50.000    23468581.100    92095668.359          50.000  
G29  20470966.720   107575654.602          50.000                                                  
E 1  26736122.120   140499221.918          50.000    26736128.260   104918236.746          50.000  
E 7  26919056.480   141460558.859          50.000    26919063.920   105636122.430          50.000  
E19  27575437.980   144909843.160          50.000    27575444.040   108211876.234          50.000  
E24  24678620.940   129686835.863          50.000    24678638.780    96844033.766          50.000  
E26  24949890.100   131112516.488          50.000    24949897.320    97908688.551          50.000  
E31  24721220.380   129910843.555          50.000    24721226.900    97011332.883          50.000  
E33  23853385.800   125350387.148          50.000    23853389.840    93605806.145          50.000  
> 2020  9  4 17 10 11.0000000  0 15       0.000000000000
G 2  24850996.980   130592871.102          50.000                                                  
G 5  21893373.740   115050372.469          50.000                                                  
G12  23739959.680   124754320.172          50.000                                                  
G15  24170607.120   127017194.227          50.000                                                  
G20  23659665.760   124332370.316          50.000                                                  
G25  21681761.900   113938362.027          50.000    21681764.120    85083831.570          50.000  
G26  23468118.000   123325706.188          50.000    23468119.160    92093855.660          50.000  
G29  20470863.680   107575113.195          50.000                                                  
E 1  26736701.120   140502264.508          50.000    26736707.260   104920508.813          50.000  
E 7  26919071.520   141460637.879          50.000    26919078.960   105636181.441          50.000  
E19  27574898.420   144907007.746          50.000    27574904.480   108209758.879          50.000  
E24  24678372.160   129685528.539          50.000    24678390.000    96843057.516          50.000  
E26  24950207.580   131114184.906          50.000    24950214.800    97909934.445          50.000  
E31  24721461.380   129912109.980          50.000    24721467.880    97012278.594          50.000  
E33  23853416.580   125350548.848          50.000    23853420.600    93605926.895          50.000  
> 2020  9  4 17 10 12.0000000  0 15       0.000000000000
G 2  24851448.860   130595245.742          50.000                                                  
G 5  21893820.260   115052718.941          50.000                                                  
G12  23740678.140   124758095.684          50.000                                                  
G15  24170031.840   127014171.148          50.000                                                  
G20  23658999.200   124328867.582          50.000                                                  
G25  21682289.920   113941136.797          50.000    21682292.140    85085903.637          50.000  
G26  23467656.160   123323279.191          50.000    23467657.320    92092043.293          50.000  
G29  20470760.720   107574572.137          50.000                                                  
E 1  26737280.120   140505307.180          50.000    26737286.260   104922780.934          50.000  
E 7  26919086.640   141460717.344          50.000    26919094.080   105636240.777          50.000  
E19  27574358.840   144904172.254          50.000    27574364.900   108207641.469          50.000  
E24  24678123.460   129684221.641          50.000    24678141.300    96842081.590          50.000  
E26  24950525.080   131115853.344          50.000    24950532.300    97911180.355          50.000  
E31  24721702.460   129913376.859          50.000    24721708.960    97013224.637          50.000  
E33  23853447.360   125350710.656          50.000    23853451.400    93606047.727          50.000  
> 2020  9  4 17 10 13.0000000  0 15       0.000000000000
G 2  24851900.740   130597620.352          50.000                                                  
G 5  21894266.880   115055065.910          50.000                                                  
G12  23741396.620   124761871.313          50.000                                                  
G15  24169456.580   127011148.117          50.000                                                  
G20  23658332.680   124325365.004          50.000                                                  
G25  21682818.020   113943911.992          50.000    21682820.240    85087976.023          50.000  
G26  23467194.400   123320852.621          50.000    23467195.560    92090231.246          50.000  
G29  20470657.840   107574031.438          50.000                                                  
E 1  26737859.140   140508349.930          50.000    26737865.260   104925053.117          50.000  
E 7  26919101.860   141460797.262          50.000    26919109.280   105636300.461          50.000  
E19  27573819.240   144901336.688          50.000    27573825.320   108205524.000          50.000  
E24  24677874.840   129682915.168          50.000    24677892.680    96841105.977          50.000  
E26  24950842.580   131117521.801          50.000    24950849.800    97912426.285          50.000  
E31  24721943.600   129914644.133          50.000    24721950.120    97014170.980          50.000  
E33  23853478.180   125350872.574          50.000    23853482.220    93606168.641          50.000  
> 2020  9  4 17 10 14.0000000  0 15       0.000000000000
G 2  24852352.600   130599994.922          50.000                                                  
G 5  21894713.580   115057413.375          50.000                                                  
G12  23742115.120   124765647.051          50.000                                                  
G15  24168881.320   127008125.129          50.000                                                  
G20  23657666.200   124321862.574          50.000                                                  
G25  21683346.200   113946687.574          50.000    21683348.420    85090048.695          50.000  
G26  23466732.720   123318426.504          50.000    23466733.880    92088419.535          50.000  
G29  20470555.000   107573491.070          50.000                                                  
E 1  26738438.160   140511392.770          50.000    26738444.300   104927325.367          50.000  
E 7  26919117.140   141460877.633          50.000    26919124.580   105636360.477          50.000  
E19  27573279.640   144898501.047          50.000    27573285.700   108203406.480          50.000  
E24  24677626.320   129681609.129          50.000    24677644.160    96840130.688          50.000  
E26  24951160.080   131119190.273          50.000    24951167.300    97913672.223          50.000  
E31  24722184.860   129915911.875          50.000    24722191.360    97015117.668          50.000  
E33  23853509.000   125351034.586          50.000    23853513.040    93606289.621          50.000  
> 2020  9  4 17 10 15.0000000  0 15       0.000000000000
G 2  24852804.460   130602369.445          50.000                                                  
G 5  21895160.380   115059761.324          50.000                                                  
G12  23742833.640   124769422.898          50.000                                                  
G15  24168306.080   127005102.188          50.000                                                  
G20  23656999.740   124318360.309          50.000                                                  
G25  21683874.460   113949463.586          50.000    21683876.680    85092121.691          50.000  
G26  23466271.120   123316000.832          50.000    23466272.300    92086608.156          50.000  
G29  20470452.240   107572951.066          50.000                                                  
E 1  26739017.220   140514435.676          50.000    26739023.360   104929597.664          50.000  
E 7  26919132.520   141460958.453          50.000    26919139.960   105636420.828          50.000  
E19  27572740.020   144895665.316          50.000    27572746.080   108201288.891          50.000  
E24  24677377.860   129680303.516          50.000    24677395.700    96839155.715          50.000  
E26  24951477.580   131120858.766          50.000    24951484.800    97914918.172          50.000  
E31  24722426.180   129917180.039          50.000    24722432.680    97016064.672          50.000  
E33  23853539.860   125351196.691          50.000    23853543.880    93606410.676          50.000  
> 2020  9  4 17 10 16.0000000  0 15       0.000000000000
G 2  24853256.320   130604743.945          50.000                                                  
G 5  21895607.280   115062109.785          50.000                                                  
G12  23743552.180   124773198.887          50.000                                                  
G15  24167730.840   127002079.293          50.000                                                  
G20  23656333.300   124314858.203          50.000                                                  
G25  21684402.800   113952240.016          50.000    21684405.020    85094195.000          50.000  
G26  23465809.620   123313575.605          50.000    23465810.780    92084797.113          50.000  
G29  20470349.560   107572411.422          50.000                                                  
E 1  26739596.280   140517478.691          50.000    26739602.420   104931870.047          50.000  
E 7  26919148.000   141461039.734          50.000    26919155.420   105636481.527          50.000  
E19  27572200.380   144892829.527          50.000    27572206.460   108199171.258          50.000  
E24  24677129.500   129678998.336          50.000    24677147.340    96838181.070          50.000  
E26  24951795.100   131122527.281          50.000    24951802.300    97916164.137          50.000  
E31  24722667.580   129918448.645          50.000    24722674.100    97017012.012          50.000  
E33  23853570.720   125351358.898          50.000    23853574.760    93606531.805          50.000  
> 2020  9  4 17 10 17.0000000  0 15       0.000000000000
G 2  24853708.160   130607118.395          50.000                                                  
G 5  21896054.280   115064458.734          50.000                                                  
G12  23744270.760   124776974.988          50.000                                                  
G15  24167155.620   126999056.441          50.000                                                  
G20  23655666.900   124311356.230          50.000                                                  
G25  21684931.220   113955016.863          50.000    21684933.440    85096268.617          50.000  
G26  23465348.200   123311150.801          50.000    23465349.360    92082986.383          50.000  
G29  20470246.940   107571872.121          50.000                                                  
E 1  26740175.360   140520521.773          50.000    26740181.500   104934142.477          50.000  
E 7  26919163.540   141461121.461          50.000    26919170.980   105636542.555          50.000  
E19  27571660.740   144889993.645          50.000    27571666.800   108197053.555          50.000  
E24  24676881.220   129677693.590          50.000    24676899.060    96837206.746          50.000  
E26  24952112.600   131124195.813          50.000    24952119.820    97917410.121          50.000  
E31  24722909.080   129919717.680          50.000    24722915.580    97017959.664          50.000  
E33  23853601.620   125351521.219          50.000    23853605.640    93606653.016          50.000  
> 2020  9  4 17 10 18.0000000  0 15       0.000000000000
G 2  24854160.000   130609492.805          50.000                                                  
G 5  21896501.360   115066808.164          50.000                                                  
G12  23744989.340   124780751.191          50.000                                                  
G15  24166580.380   126996033.629          50.000                                                  
G20  23655000.540   124307854.430          50.000                                                  
G25  21685459.700   113957794.129          50.000    21685461.940    85098342.551          50.000  
G26  23464886.860   123308726.453          50.000    23464888.020    92081175.992          50.000  
G29  20470144.380   107571333.168          50.000                                                  
E 1  26740754.460   140523564.926          50.000    26740760.600   104936414.957          50.000  
E 7  26919179.180   141461203.641          50.000    26919186.620   105636603.922          50.000  
E19  27571121.080   144887157.711          50.000    27571127.140   108194935.809          50.000  
E24  24676633.000   129676389.266          50.000    24676650.840    96836232.738          50.000  
E26  24952430.120   131125864.355          50.000    24952437.320    97918656.109          50.000  
E31  24723150.640   129920987.152          50.000    24723157.160    97018907.645          50.000  
E33  23853632.520   125351683.621          50.000    23853636.540    93606774.293          50.000  
> 2020  9  4 17 10 19.0000000  0 15       0.000000000000
G 2  24854611.820   130611867.184          50.000                                                  
G 5  21896948.540   115069158.098          50.000                                                  
G12  23745707.960   124784527.520          50.000                                                  
G15  24166005.180   126993010.875          50.000                                                  
G20  23654334.180   124304352.777          50.000                                                  
G25  21685988.280   113960571.809          50.000    21685990.500    85100416.789          50.000  
G26  23464425.600   123306302.547          50.000    23464426.760    92079365.934          50.000  
G29  20470041.880   107570794.570          50.000                                                  
E 1  26741333.560   140526608.168          50.000    26741339.700   104938687.508          50.000  
E 7  26919194.900   141461286.273          50.000    26919202.340   105636665.629          50.000  
E19  27570581.400   144884321.688          50.000    27570587.460   108192818.004          50.000  
E24  24676384.880   129675085.371          50.000    24676402.720    96835259.051          50.000  
E26  24952747.640   131127532.922          50.000    24952754.840    97919902.117          50.000  
E31  24723392.300   129922257.063          50.000    24723398.820    97019855.957          50.000  
E33  23853663.440   125351846.129          50.000    23853667.480    93606895.645          50.000  
> 2020  9  4 17 10 20.0000000  0 15       0.000000000000
G 2  24855063.640   130614241.516          50.000                                                  
G 5  21897395.800   115071508.520          50.000                                                  
G12  23746426.600   124788303.965          50.000                                                  
G15  24165429.980   126989988.156          50.000                                                  
G20  23653667.880   124300851.309          50.000                                                  
G25  21686516.940   113963349.910          50.000    21686519.160    85102491.348          50.000  
G26  23463964.440   123303879.086          50.000    23463965.600    92077556.207          50.000  
G29  20469939.460   107570256.332          50.000                                                  
E 1  26741912.700   140529651.488          50.000    26741918.820   104940960.113          50.000  
E 7  26919210.720   141461369.367          50.000    26919218.160   105636727.680          50.000  
E19  27570041.700   144881485.582          50.000    27570047.760   108190700.133          50.000  
E24  24676136.840   129673781.898          50.000    24676154.680    96834285.680          50.000  
E26  24953065.160   131129201.512          50.000    24953072.380    97921148.141          50.000  
E31  24723634.040   129923527.398          50.000    24723640.560    97020804.582          50.000  
E33  23853694.380   125352008.738          50.000    23853698.420    93607017.074          50.000  
> 2020  9  4 17 10 21.0000000  0 15       0.000000000000
G 2  24855515.460   130616615.813          50.000                                                  
G 5  21897843.180   115073859.441          50.000                                                  
G12  23747145.260   124792080.535          50.000                                                  
G15  24164854.780   126986965.496          50.000                                                  
G20  23653001.600   124297349.988          50.000                                                  
G25  21687045.680   113966128.434          50.000    21687047.900    85104566.219          50.000  
G26  23463503.340   123301456.066          50.000    23463504.520    92075746.809          50.000  
G29  20469837.100   107569718.441          50.000                                                  
E 1  26742491.840   140532694.891          50.000    26742497.980   104943232.785          50.000  
E 7  26919226.620   141461452.902          50.000    26919234.040   105636790.063          50.000  
E19  27569502.000   144878649.414          50.000    27569508.060   108188582.219          50.000  
E24  24675888.880   129672478.859          50.000    24675906.720    96833312.629          50.000  
E26  24953382.680   131130870.113          50.000    24953389.900    97922394.172          50.000  
E31  24723875.860   129924798.188          50.000    24723882.380    97021753.547          50.000  
E33  23853725.340   125352171.449          50.000    23853729.380    93607138.578          50.000  
> 2020  9  4 17 10 22.0000000  0 15       0.000000000000
G 2  24855967.260   130618990.070          50.000                                                  
G 5  21898290.640   115076210.859          50.000                                                  
G12  23747863.920   124795857.211          50.000                                                  
G15  24164279.600   126983942.875          50.000                                                  
G20  23652335.340   124293848.813          50.000                                                  
G25  21687574.480   113968907.355          50.000    21687576.720    85106641.387          50.000  
G26  23463042.340   123299033.480          50.000    23463043.520    92073937.738          50.000  
G29  20469734.820   107569180.902          50.000                                                  
E 1  26743070.980   140535738.379          50.000    26743077.120   104945505.520          50.000  
E 7  26919242.600   141461536.898          50.000    26919250.040   105636852.785          50.000  
E19  27568962.280   144875813.176          50.000    27568968.340   108186464.246          50.000  
E24  24675641.000   129671176.250          50.000    24675658.840    96832339.902          50.000  
E26  24953700.220   131132538.734          50.000    24953707.420    97923640.223          50.000  
E31  24724117.760   129926069.406          50.000    24724124.280    97022702.836          50.000  
E33  23853756.320   125352334.258          50.000    23853760.360    93607260.156          50.000  
> 2020  9  4 17 10 23.0000000  0 15       0.000000000000
G 2  24856419.060   130621364.289          50.000                                                  
G 5  21898738.180   115078562.754          50.000                                                  
G12  23748582.620   124799633.996          50.000                                                  
G15  24163704.420   126980920.297          50.000                                                  
G20  23651669.120   124290347.801          50.000                                                  
G25  21688103.380   113971686.695          50.000    21688105.600    85108716.867          50.000  
G26  23462581.420   123296611.340          50.000    23462582.600    92072129.000          50.000  
G29  20469632.580   107568643.715          50.000                                                  
E 1  26743650.160   140538781.945          50.000    26743656.300   104947778.313          50.000  
E 7  26919258.660   141461621.340          50.000    26919266.100   105636915.840          50.000  
E19  27568422.540   144872976.840          50.000    27568428.600   108184346.207          50.000  
E24  24675393.200   129669874.074          50.000    24675411.040    96831367.500          50.000  
E26  24954017.740   131134207.375          50.000    24954024.960    97924886.281          50.000  
E31  24724359.760   129927341.059          50.000    24724366.260    97023652.445          50.000  
E33  23853787.320   125352497.164          50.000    23853791.360    93607381.809          50.000  
> 2020  9  4 17 10 24.0000000  0 15       0.000000000000
G 2  24856870.860   130623738.469          50.000                                                  
G 5  21899185.840   115080915.152          50.000                                                  
G12  23749301.360   124803410.926          50.000                                                  
G15  24163129.240   126977897.773          50.000                                                  
G20  23651002.940   124286846.949          50.000                                                  
G25  21688632.340   113974466.453          50.000    21688634.580    85110792.656          50.000  
G26  23462120.600   123294189.645          50.000    23462121.760    92070320.590          50.000  
G29  20469530.440   107568106.879          50.000                                                  
E 1  26744229.340   140541825.582          50.000    26744235.480   104950051.152          50.000  
E 7  26919274.820   141461706.230          50.000    26919282.260   105636979.234          50.000  
E19  27567882.800   144870140.461          50.000    27567888.860   108182228.129          50.000  
E24  24675145.500   129668572.320          50.000    24675163.340    96830395.410          50.000  
E26  24954335.280   131135876.027          50.000    24954342.500    97926132.352          50.000  
E31  24724601.820   129928613.145          50.000    24724608.340    97024602.379          50.000  
E33  23853818.340   125352660.172          50.000    23853822.380    93607503.531          50.000  
> 2020  9  4 17 10 25.0000000  0 15       0.000000000000
G 2  24857322.640   130626112.613          50.000                                                  
G 5  21899633.580   115083268.051          50.000                                                  
G12  23750020.100   124807187.949          50.000                                                  
G15  24162554.080   126974875.301          50.000                                                  
G20  23650336.780   124283346.254          50.000                                                  
G25  21689161.400   113977246.621          50.000    21689163.620    85112868.758          50.000  
G26  23461659.840   123291768.391          50.000    23461661.000    92068512.508          50.000  
G29  20469428.340   107567570.402          50.000                                                  
E 1  26744808.540   140544869.313          50.000    26744814.680   104952324.066          50.000  
E 7  26919291.060   141461791.586          50.000    26919298.500   105637042.973          50.000  
E19  27567343.020   144867303.977          50.000    27567349.100   108180109.977          50.000  
E24  24674897.860   129667270.996          50.000    24674915.700    96829423.645          50.000  
E26  24954652.820   131137544.711          50.000    24954660.040    97927378.449          50.000  
E31  24724843.980   129929885.672          50.000    24724850.500    97025552.645          50.000  
E33  23853849.380   125352823.281          50.000    23853853.420    93607625.336          50.000  
> 2020  9  4 17 10 26.0000000  0 15       0.000000000000
G 2  24857774.420   130628486.723          50.000                                                  
G 5  21900081.400   115085621.434          50.000                                                  
G12  23750738.860   124810965.098          50.000                                                  
G15  24161978.940   126971852.871          50.000                                                  
G20  23649670.640   124279845.719          50.000                                                  
G25  21689690.520   113980027.211          50.000    21689692.760    85114945.172          50.000  
G26  23461199.180   123289347.582          50.000    23461200.340    92066704.766          50.000  
G29  20469326.320   107567034.270          50.000                                                  
E 1  26745387.760   140547913.109          50.000    26745393.900   104954597.031          50.000  
E 7  26919307.400   141461877.391          50.000    26919314.820   105637107.051          50.000  
E19  27566803.240   144864467.434          50.000    27566809.320   108177991.781          50.000  
E24  24674650.300   129665970.098          50.000    24674668.140    96828452.191          50.000  
E26  24954970.360   131139213.398          50.000    24954977.580    97928624.543          50.000  
E31  24725086.220   129931158.625          50.000    24725092.720    97026503.223          50.000  
E33  23853880.440   125352986.484          50.000    23853884.480    93607747.207          50.000  
> 2020  9  4 17 10 27.0000000  0 15       0.000000000000
G 2  24858226.200   130630860.793          50.000                                                  
G 5  21900529.340   115087975.309          50.000                                                  
G12  23751457.660   124814742.363          50.000                                                  
G15  24161403.800   126968830.496          50.000                                                  
G20  23649004.540   124276345.348          50.000                                                  
G25  21690219.740   113982808.215          50.000    21690221.960    85117021.895          50.000  
G26  23460738.600   123286927.207          50.000    23460739.760    92064897.340          50.000  
G29  20469224.360   107566498.492          50.000                                                  
E 1  26745967.000   140550957.004          50.000    26745973.140   104956870.070          50.000  
E 7  26919323.800   141461963.645          50.000    26919331.240   105637171.461          50.000  
E19  27566263.460   144861630.809          50.000    27566269.520   108175873.523          50.000  
E24  24674402.840   129664669.648          50.000    24674420.680    96827481.078          50.000  
E26  24955287.900   131140882.113          50.000    24955295.120    97929870.660          50.000  
E31  24725328.540   129932432.027          50.000    24725335.040    97027454.145          50.000  
E33  23853911.520   125353149.781          50.000    23853915.560    93607869.152          50.000  
> 2020  9  4 17 10 28.0000000  0 15       0.000000000000
G 2  24858677.960   130633234.824          50.000                                                  
G 5  21900977.360   115090329.688          50.000                                                  
G12  23752176.480   124818519.750          50.000                                                  
G15  24160828.660   126965808.156          50.000                                                  
G20  23648338.480   124272845.133          50.000                                                  
G25  21690749.020   113985589.621          50.000    21690751.240    85119098.918          50.000  
