     3.03           OBSERVATION DATA    M: Mixed            RINEX VERSION / TYPE
sbp2rinex v2.2 (RTKL                    20210504 171526 UTC PGM / RUN BY / DATE 
log: 2020-06-10-US-MTV-1.sbp                                COMMENT             
format: Swift Navigation SBP, option: CONVBASE,EPHALL,OBSALLCOMMENT             
                                                            MARKER NAME         
                                                            MARKER NUMBER       
                                                            MARKER TYPE         
                                                            OBSERVER / AGENCY   
                                                            REC # / TYPE / VERS 
                                                            ANT # / TYPE        
 -2725684.2823 -4348425.7643  3774468.1774                  APPROX POSITION XYZ 
        0.0000        0.0000        0.0000                  ANTENNA: DELTA H/E/N
G    6 C1C L1C S1C C5I L5I S5I                              SYS / # / OBS TYPES 
E    6 C1B L1B S1B C5I L5I S5I                              SYS / # / OBS TYPES 
  2020     6    10    17    47   53.0000000     GPS         TIME OF FIRST OBS   
  2020     6    10    18    16   59.0000000     GPS         TIME OF LAST OBS    
G                                                           SYS / PHASE SHIFT   
E                                                           SYS / PHASE SHIFT   
  0                                                         GLONASS SLOT / FRQ #
 C1C    0.000 C1P    0.000 C2C    0.000 C2P    0.000        GLONASS COD/PHS/BIS 
                                                            END OF HEADER       
> 2020  6 10 17 47 53.0000000  0 13       0.000000000000
G 2  22936242.120   120530760.219          50.000                                                  
G 6  21527076.540   113125492.078          50.000    21527079.420    84476826.430          50.000  
G12  23698894.820   124538519.992          50.000                                                  
G13  24220923.240   127281826.813          50.000                                                  
G15  24539927.200   128957970.820          50.000                                                  
G17  21653721.120   113791030.496          50.000                                                  
G19  20224060.880   106278156.520          50.000                                                  
G24  21548316.700   113237113.633          50.000    21548318.680    84560180.258          50.000  
G28  22815443.140   119896090.594          50.000                                                  
E 2  27192303.760   142896490.660          50.000    27192309.000   106708402.578          50.000  
E15  23720835.340   124653791.207          50.000    23720840.940    93085608.883          50.000  
E27  24354662.180   127984588.473          50.000    24354666.400    95572895.035          50.000  
E30  22652812.800   119041304.180          50.000    22652816.780    88894466.781          50.000  
> 2020  6 10 17 47 54.0000000  0 13       0.000000000000
G 2  22935648.220   120527639.180          50.000                                                  
G 6  21526655.280   113123278.387          50.000    21526658.160    84475173.352          50.000  
G12  23698376.700   124535797.277          50.000                                                  
G13  24221538.100   127285057.852          50.000                                                  
G15  24540411.740   128960517.051          50.000                                                  
G17  21654132.620   113793192.879          50.000                                                  
G19  20224238.820   106279091.578          50.000                                                  
G24  21547985.060   113235370.848          50.000    21547987.040    84558878.828          50.000  
G28  22815771.520   119897816.145          50.000                                                  
E 2  27192696.900   142898556.602          50.000    27192702.140   106709945.324          50.000  
E15  23720495.900   124652007.477          50.000    23720501.500    93084276.875          50.000  
E27  24354364.380   127983023.531          50.000    24354368.600    95571726.414          50.000  
E30  22652925.280   119041895.219          50.000    22652929.240    88894908.141          50.000  
> 2020  6 10 17 47 55.0000000  0 13       0.000000000000
G 2  22935054.340   120524518.387          50.000                                                  
G 6  21526234.140   113121065.219          50.000    21526237.000    84473520.660          50.000  
G12  23697858.600   124533074.594          50.000                                                  
G13  24222152.940   127288288.895          50.000                                                  
G15  24540896.300   128963063.387          50.000                                                  
G17  21654544.140   113795355.473          50.000                                                  
G19  20224416.840   106280027.117          50.000                                                  
G24  21547653.520   113233628.594          50.000    21547655.500    84557577.797          50.000  
G28  22816099.900   119899541.828          50.000                                                  
E 2  27193090.060   142900622.684          50.000    27193095.300   106711488.176          50.000  
E15  23720156.540   124650224.129          50.000    23720162.140    93082945.156          50.000  
E27  24354066.620   127981458.695          50.000    24354070.820    95570557.867          50.000  
E30  22653037.800   119042486.469          50.000    22653041.760    88895349.656          50.000  
> 2020  6 10 17 47 56.0000000  0 13       0.000000000000
G 2  22934460.520   120521397.840          50.000                                                  
G 6  21525813.080   113118852.566          50.000    21525815.960    84471868.355          50.000  
G12  23697340.500   124530351.945          50.000                                                  
G13  24222767.780   127291519.910          50.000                                                  
G15  24541380.860   128965609.828          50.000                                                  
G17  21654955.700   113797518.277          50.000                                                  
G19  20224594.960   106280963.156          50.000                                                  
G24  21547322.080   113231886.871          50.000    21547324.060    84556277.160          50.000  
G28  22816428.300   119901267.637          50.000                                                  
E 2  27193483.240   142902688.910          50.000    27193488.480   106713031.137          50.000  
E15  23719817.260   124648441.188          50.000    23719822.860    93081613.738          50.000  
E27  24353768.840   127979893.949          50.000    24353773.060    95569389.387          50.000  
E30  22653150.340   119043077.934          50.000    22653154.320    88895791.336          50.000  
> 2020  6 10 17 47 57.0000000  0 13       0.000000000000
G 2  22933866.760   120518277.555          50.000                                                  
G 6  21525392.120   113116640.438          50.000    21525395.000    84470216.441          50.000  
G12  23696822.400   124527629.332          50.000                                                  
G13  24223382.640   127294750.945          50.000                                                  
G15  24541865.460   128968156.371          50.000                                                  
G17  21655367.320   113799681.297          50.000                                                  
G19  20224773.180   106281899.672          50.000                                                  
G24  21546990.740   113230145.676          50.000    21546992.720    84554976.918          50.000  
G28  22816756.740   119902993.582          50.000                                                  
E 2  27193876.460   142904755.277          50.000    27193881.700   106714574.203          50.000  
E15  23719478.060   124646658.641          50.000    23719483.660    93080282.617          50.000  
E27  24353471.100   127978329.289          50.000    24353475.320    95568220.973          50.000  
E30  22653262.940   119043669.629          50.000    22653266.900    88896233.188          50.000  
> 2020  6 10 17 47 58.0000000  0 13       0.000000000000
G 2  22933273.020   120515157.512          50.000                                                  
G 6  21524971.280   113114428.824          50.000    21524974.140    84468564.914          50.000  
G12  23696304.300   124524906.758          50.000                                                  
G13  24223997.480   127297982.000          50.000                                                  
G15  24542350.080   128970703.023          50.000                                                  
G17  21655778.960   113801844.527          50.000                                                  
G19  20224951.480   106282836.676          50.000                                                  
G24  21546659.500   113228404.996          50.000    21546661.480    84553677.059          50.000  
G28  22817085.200   119904719.652          50.000                                                  
E 2  27194269.700   142906821.773          50.000    27194274.940   106716117.363          50.000  
E15  23719138.920   124644876.488          50.000    23719144.520    93078951.793          50.000  
E27  24353173.380   127976764.746          50.000    24353177.580    95567052.645          50.000  
E30  22653375.580   119044261.551          50.000    22653379.540    88896675.207          50.000  
> 2020  6 10 17 47 59.0000000  0 13       0.000000000000
G 2  22932679.340   120512037.723          50.000                                                  
G 6  21524550.520   113112217.730          50.000    21524553.380    84466913.773          50.000  
G12  23695786.220   124522184.219          50.000                                                  
G13  24224612.320   127301213.027          50.000                                                  
G15  24542834.700   128973249.773          50.000                                                  
G17  21656190.660   113804007.965          50.000                                                  
G19  20225129.880   106283774.160          50.000                                                  
G24  21546328.360   113226664.859          50.000    21546330.340    84552377.605          50.000  
G28  22817413.700   119906445.852          50.000                                                  
E 2  27194662.980   142908888.438          50.000    27194668.220   106717660.648          50.000  
E15  23718799.860   124643094.734          50.000    23718805.460    93077621.262          50.000  
E27  24352875.680   127975200.293          50.000    24352879.880    95565884.387          50.000  
E30  22653488.260   119044853.688          50.000    22653492.220    88897117.383          50.000  
> 2020  6 10 17 48  0.0000000  0 13       0.000000000000
G 2  22932085.720   120508918.176          50.000                                                  
G 6  21524129.860   113110007.148          50.000    21524132.720    84465263.016          50.000  
G12  23695268.140   124519461.707          50.000                                                  
G13  24225227.180   127304444.059          50.000                                                  
G15  24543319.360   128975796.617          50.000                                                  
G17  21656602.380   113806171.613          50.000                                                  
G19  20225308.380   106284712.141          50.000                                                  
G24  21545997.320   113224925.250          50.000    21545999.300    84551078.551          50.000  
G28  22817742.200   119908172.180          50.000                                                  
E 2  27195056.280   142910955.211          50.000    27195061.520   106719204.020          50.000  
E15  23718460.880   124641313.383          50.000    23718466.480    93076291.031          50.000  
E27  24352577.980   127973635.922          50.000    24352582.200    95564716.188          50.000  
E30  22653600.980   119045446.039          50.000    22653604.940    88897559.727          50.000  
> 2020  6 10 17 48  1.0000000  0 13       0.000000000000
G 2  22931492.140   120505798.891          50.000                                                  
G 6  21523709.280   113107797.078          50.000    21523712.160    84463612.641          50.000  
G12  23694750.080   124516739.230          50.000                                                  
G13  24225842.020   127307675.121          50.000                                                  
G15  24543804.020   128978343.578          50.000                                                  
G17  21657014.160   113808335.477          50.000                                                  
G19  20225486.960   106285650.602          50.000                                                  
G24  21545666.380   113223186.184          50.000    21545668.360    84549779.895          50.000  
G28  22818070.740   119909898.633          50.000                                                  
E 2  27195449.600   142913022.145          50.000    27195454.840   106720747.508          50.000  
E15  23718121.980   124639532.414          50.000    23718127.580    93074961.090          50.000  
E27  24352280.320   127972071.684          50.000    24352284.520    95563548.086          50.000  
E30  22653713.740   119046038.609          50.000    22653717.720    88898002.230          50.000  
> 2020  6 10 17 48  2.0000000  0 13       0.000000000000
G 2  22930898.600   120502679.855          50.000                                                  
G 6  21523288.820   113105587.543          50.000    21523291.700    84461962.664          50.000  
G12  23694232.020   124514016.789          50.000                                                  
G13  24226456.880   127310906.156          50.000                                                  
G15  24544288.720   128980890.637          50.000                                                  
G17  21657425.960   113810499.555          50.000                                                  
G19  20225665.640   106286589.559          50.000                                                  
G24  21545335.560   113221447.645          50.000    21545337.540    84548481.633          50.000  
G28  22818399.300   119911625.227          50.000                                                  
E 2  27195842.960   142915089.219          50.000    27195848.200   106722291.102          50.000  
E15  23717783.140   124637751.848          50.000    23717788.740    93073631.445          50.000  
E27  24351982.660   127970507.520          50.000    24351986.880    95562380.043          50.000  
E30  22653826.560   119046631.422          50.000    22653830.520    88898444.914          50.000  
> 2020  6 10 17 48  3.0000000  0 13       0.000000000000
G 2  22930305.120   120499561.055          50.000                                                  
G 6  21522868.460   113103378.508          50.000    21522871.340    84460313.063          50.000  
G12  23693713.960   124511294.387          50.000                                                  
G13  24227071.720   127314137.191          50.000                                                  
G15  24544773.420   128983437.793          50.000                                                  
G17  21657837.820   113812663.828          50.000                                                  
G19  20225844.400   106287528.996          50.000                                                  
G24  21545004.820   113219709.617          50.000    21545006.800    84547183.758          50.000  
G28  22818727.880   119913351.949          50.000                                                  
E 2  27196236.320   142917156.430          50.000    27196241.580   106723834.797          50.000  
E15  23717444.400   124635971.676          50.000    23717449.980    93072302.098          50.000  
E27  24351685.040   127968943.441          50.000    24351689.240    95561212.063          50.000  
E30  22653939.400   119047224.430          50.000    22653943.360    88898887.742          50.000  
> 2020  6 10 17 48  4.0000000  0 13       0.000000000000
G 2  22929711.680   120496442.520          50.000                                                  
G 6  21522448.200   113101170.016          50.000    21522451.060    84458663.863          50.000  
G12  23693195.900   124508572.020          50.000                                                  
G13  24227686.560   127317368.238          50.000                                                  
G15  24545258.160   128985985.063          50.000                                                  
G17  21658249.700   113814828.324          50.000                                                  
G19  20226023.260   106288468.926          50.000                                                  
G24  21544674.180   113217972.105          50.000    21544676.160    84545886.270          50.000  
G28  22819056.480   119915078.789          50.000                                                  
E 2  27196629.740   142919223.781          50.000    27196634.980   106725378.598          50.000  
E15  23717105.720   124634191.906          50.000    23717111.300    93070973.051          50.000  
E27  24351387.420   127967379.480          50.000    24351391.620    95560044.168          50.000  
E30  22654052.280   119047817.672          50.000    22654056.260    88899330.750          50.000  
> 2020  6 10 17 48  5.0000000  0 13       0.000000000000
G 2  22929118.280   120493324.238          50.000                                                  
G 6  21522028.040   113098962.035          50.000    21522030.900    84457015.047          50.000  
G12  23692677.860   124505849.691          50.000                                                  
G13  24228301.420   127320599.277          50.000                                                  
G15  24545742.900   128988532.426          50.000                                                  
G17  21658661.640   113816993.023          50.000                                                  
G19  20226202.220   106289409.336          50.000                                                  
G24  21544343.640   113216235.137          50.000    21544345.620    84544589.180          50.000  
G28  22819385.120   119916805.770          50.000                                                  
E 2  27197023.160   142921291.281          50.000    27197028.420   106726922.508          50.000  
E15  23716767.100   124632412.523          50.000    23716772.700    93069644.289          50.000  
E27  24351089.840   127965815.633          50.000    24351094.040    95558876.363          50.000  
E30  22654165.220   119048411.137          50.000    22654169.180    88899773.922          50.000  
> 2020  6 10 17 48  6.0000000  0 13       0.000000000000
G 2  22928524.940   120490206.211          50.000                                                  
G 6  21521607.960   113096754.570          50.000    21521610.840    84455366.617          50.000  
G12  23692159.820   124503127.395          50.000                                                  
G13  24228916.260   127323830.316          50.000                                                  
G15  24546227.680   128991079.898          50.000                                                  
G17  21659073.600   113819157.930          50.000                                                  
G19  20226381.260   106290350.223          50.000                                                  
G24  21544013.220   113214498.688          50.000    21544015.180    84543292.480          50.000  
G28  22819713.780   119918532.883          50.000                                                  
E 2  27197416.620   142923358.906          50.000    27197421.860   106728466.512          50.000  
E15  23716428.580   124630633.543          50.000    23716434.180    93068315.832          50.000  
E27  24350792.260   127964251.863          50.000    24350796.460    95557708.613          50.000  
E30  22654278.200   119049004.820          50.000    22654282.160    88900217.254          50.000  
> 2020  6 10 17 48  7.0000000  0 13       0.000000000000
G 2  22927931.640   120487088.426          50.000                                                  
G 6  21521188.000   113094547.637          50.000    21521190.860    84453718.582          50.000  
G12  23691641.800   124500405.129          50.000                                                  
G13  24229531.100   127327061.359          50.000                                                  
G15  24546712.460   128993627.477          50.000                                                  
G17  21659485.600   113821323.047          50.000                                                  
G19  20226560.400   106291291.605          50.000                                                  
G24  21543682.880   113212762.781          50.000    21543684.860    84541996.188          50.000  
G28  22820042.460   119920260.121          50.000                                                  
E 2  27197810.100   142925426.684          50.000    27197815.360   106730010.629          50.000  
E15  23716090.120   124628854.965          50.000    23716095.720    93066987.672          50.000  
E27  24350494.700   127962688.199          50.000    24350498.900    95556540.941          50.000  
E30  22654391.220   119049598.734          50.000    22654395.180    88900660.762          50.000  
> 2020  6 10 17 48  8.0000000  0 13       0.000000000000
G 2  22927338.400   120483970.895          50.000                                                  
G 6  21520768.140   113092341.219          50.000    21520771.000    84452070.934          50.000  
G12  23691123.760   124497682.895          50.000                                                  
G13  24230145.960   127330292.406          50.000                                                  
G15  24547197.260   128996175.152          50.000                                                  
G17  21659897.660   113823488.375          50.000                                                  
G19  20226739.640   106292233.465          50.000                                                  
G24  21543352.640   113211027.410          50.000    21543354.620    84540700.293          50.000  
G28  22820371.180   119921987.492          50.000                                                  
E 2  27198203.620   142927494.598          50.000    27198208.860   106731554.848          50.000  
E15  23715751.740   124627076.773          50.000    23715757.340    93065659.805          50.000  
E27  24350197.160   127961124.625          50.000    24350201.360    95555373.340          50.000  
E30  22654504.260   119050192.855          50.000    22654508.240    88901104.426          50.000  
> 2020  6 10 17 48  9.0000000  0 13       0.000000000000
G 2  22926745.200   120480853.625          50.000                                                  
G 6  21520348.360   113090135.309          50.000    21520351.220    84450423.664          50.000  
G12  23690605.760   124494960.703          50.000                                                  
G13  24230760.800   127333523.453          50.000                                                  
G15  24547682.100   128998722.938          50.000                                                  
G17  21660309.740   113825653.902          50.000                                                  
G19  20226918.960   106293175.816          50.000                                                  
G24  21543022.520   113209292.570          50.000    21543024.500    84539404.797          50.000  
G28  22820699.900   119923714.984          50.000                                                  
E 2  27198597.160   142929562.645          50.000    27198602.400   106733099.168          50.000  
E15  23715413.440   124625298.973          50.000    23715419.040    93064332.227          50.000  
E27  24349899.640   127959561.152          50.000    24349903.840    95554205.809          50.000  
E30  22654617.360   119050787.199          50.000    22654621.340    88901548.250          50.000  
> 2020  6 10 17 48 10.0000000  0 13       0.000000000000
G 2  22926152.040   120477736.594          50.000                                                  
G 6  21519928.680   113087929.926          50.000    21519931.560    84448776.789          50.000  
G12  23690087.740   124492238.551          50.000                                                  
G13  24231375.660   127336754.496          50.000                                                  
G15  24548166.940   129001270.816          50.000                                                  
G17  21660721.880   113827819.652          50.000                                                  
G19  20227098.380   106294118.652          50.000                                                  
G24  21542692.500   113207558.266          50.000    21542694.460    84538109.699          50.000  
G28  22821028.660   119925442.617          50.000                                                  
E 2  27198990.720   142931630.840          50.000    27198995.960   106734643.598          50.000  
E15  23715075.220   124623521.578          50.000    23715080.800    93063004.953          50.000  
E27  24349602.140   127957997.773          50.000    24349606.340    95553038.352          50.000  
E30  22654730.520   119051381.766          50.000    22654734.480    88901992.246          50.000  
> 2020  6 10 17 48 11.0000000  0 13       0.000000000000
G 2  22925558.940   120474619.824          50.000                                                  
G 6  21519509.120   113085725.063          50.000    21519511.980    84447130.301          50.000  
G12  23689569.740   124489516.438          50.000                                                  
G13  24231990.500   127339985.527          50.000                                                  
G15  24548651.820   129003818.809          50.000                                                  
G17  21661134.040   113829985.613          50.000                                                  
G19  20227277.880   106295061.965          50.000                                                  
G24  21542362.560   113205824.473          50.000    21542364.540    84536814.988          50.000  
G28  22821357.440   119927170.375          50.000                                                  
E 2  27199384.320   142933699.172          50.000    27199389.560   106736188.129          50.000  
E15  23714737.060   124621744.578          50.000    23714742.660    93061677.973          50.000  
E27  24349304.660   127956434.496          50.000    24349308.860    95551870.969          50.000  
E30  22654843.700   119051976.547          50.000    22654847.660    88902436.402          50.000  
> 2020  6 10 17 48 12.0000000  0 13       0.000000000000
G 2  22924965.880   120471503.309          50.000                                                  
G 6  21519089.640   113083520.727          50.000    21519092.520    84445484.207          50.000  
G12  23689051.740   124486794.344          50.000                                                  
G13  24232605.340   127343216.570          50.000                                                  
G15  24549136.700   129006366.891          50.000                                                  
G17  21661546.240   113832151.781          50.000                                                  
G19  20227457.480   106296005.770          50.000                                                  
G24  21542032.740   113204091.203          50.000    21542034.700    84535520.660          50.000  
G28  22821686.260   119928898.266          50.000                                                  
E 2  27199777.940   142935767.648          50.000    27199783.180   106737732.770          50.000  
E15  23714398.980   124619967.977          50.000    23714404.580    93060351.289          50.000  
E27  24349007.200   127954871.320          50.000    24349011.400    95550703.664          50.000  
E30  22654956.920   119052571.566          50.000    22654960.900    88902880.734          50.000  
> 2020  6 10 17 48 13.0000000  0 13       0.000000000000
G 2  22924372.880   120468387.031          50.000                                                  
G 6  21518670.280   113081316.902          50.000    21518673.140    84443838.496          50.000  
G12  23688533.760   124484072.297          50.000                                                  
G13  24233220.200   127346447.613          50.000                                                  
G15  24549621.600   129008915.078          50.000                                                  
G17  21661958.500   113834318.156          50.000                                                  
G19  20227637.180   106296950.059          50.000                                                  
G24  21541703.000   113202358.453          50.000    21541704.980    84534226.727          50.000  
G28  22822015.080   119930626.281          50.000                                                  
E 2  27200171.580   142937836.258          50.000    27200176.820   106739277.512          50.000  
E15  23714060.980   124618191.773          50.000    23714066.580    93059024.906          50.000  
E27  24348709.760   127953308.230          50.000    24348713.960    95549536.422          50.000  
E30  22655070.200   119053166.793          50.000    22655074.160    88903325.223          50.000  
> 2020  6 10 17 48 14.0000000  0 13       0.000000000000
G 2  22923779.920   120465271.008          50.000                                                  
G 6  21518251.000   113079113.602          50.000    21518253.860    84442193.172          50.000  
G12  23688015.760   124481350.277          50.000                                                  
G13  24233835.040   127349678.648          50.000                                                  
G15  24550106.520   129011463.359          50.000                                                  
G17  21662370.780   113836484.754          50.000                                                  
G19  20227816.960   106297894.828          50.000                                                  
G24  21541373.360   113200626.242          50.000    21541375.340    84532933.191          50.000  
G28  22822343.940   119932354.434          50.000                                                  
E 2  27200565.260   142939905.020          50.000    27200570.500   106740822.363          50.000  
E15  23713723.060   124616415.965          50.000    23713728.660    93057698.816          50.000  
E27  24348412.320   127951745.250          50.000    24348416.540    95548369.262          50.000  
E30  22655183.500   119053762.250          50.000    22655187.480    88903769.883          50.000  
> 2020  6 10 17 48 15.0000000  0 13       0.000000000000
G 2  22923187.000   120462155.234          50.000                                                  
G 6  21517831.820   113076910.820          50.000    21517834.680    84440548.238          50.000  
G12  23687497.800   124478628.301          50.000                                                  
G13  24234449.900   127352909.691          50.000                                                  
G15  24550591.460   129014011.750          50.000                                                  
G17  21662783.120   113838651.547          50.000                                                  
G19  20227996.840   106298840.082          50.000                                                  
G24  21541043.840   113198894.563          50.000    21541045.820    84531640.055          50.000  
G28  22822672.820   119934082.699          50.000                                                  
E 2  27200958.960   142941973.914          50.000    27200964.200   106742367.316          50.000  
E15  23713385.200   124614640.547          50.000    23713390.800    93056373.020          50.000  
E27  24348114.920   127950182.363          50.000    24348119.120    95547202.172          50.000  
E30  22655296.860   119054357.914          50.000    22655300.820    88904214.695          50.000  
> 2020  6 10 17 48 16.0000000  0 13       0.000000000000
G 2  22922594.140   120459039.711          50.000                                                  
G 6  21517412.740   113074708.555          50.000    21517415.600    84438903.695          50.000  
G12  23686979.820   124475906.367          50.000                                                  
G13  24235064.740   127356140.727          50.000                                                  
G15  24551076.420   129016560.242          50.000                                                  
G17  21663195.480   113840818.559          50.000                                                  
G19  20228176.800   106299785.832          50.000                                                  
G24  21540714.420   113197163.422          50.000    21540716.400    84530347.320          50.000  
G28  22823001.720   119935811.105          50.000                                                  
E 2  27201352.680   142944042.965          50.000    27201357.920   106743912.383          50.000  
E15  23713047.440   124612865.527          50.000    23713053.020    93055047.516          50.000  
E27  24347817.520   127948619.574          50.000    24347821.740    95546035.152          50.000  
E30  22655410.260   119054953.813          50.000    22655414.220    88904659.684          50.000  
> 2020  6 10 17 48 17.0000000  0 13       0.000000000000
G 2  22922001.320   120455924.453          50.000                                                  
G 6  21516993.760   113072506.809          50.000    21516996.620    84437259.535          50.000  
G12  23686461.860   124473184.441          50.000                                                  
G13  24235679.580   127359371.750          50.000                                                  
G15  24551561.420   129019108.840          50.000                                                  
G17  21663607.900   113842985.773          50.000                                                  
G19  20228356.860   106300732.059          50.000                                                  
G24  21540385.100   113195432.816          50.000    21540387.080    84529054.984          50.000  
G28  22823330.660   119937539.637          50.000                                                  
E 2  27201746.440   142946112.148          50.000    27201751.680   106745457.551          50.000  
E15  23712709.740   124611090.914          50.000    23712715.320    93053722.316          50.000  
E27  24347520.160   127947056.887          50.000    24347524.360    95544868.211          50.000  
E30  22655523.680   119055549.926          50.000    22655527.660    88905104.832          50.000  
> 2020  6 10 17 48 18.0000000  0 13       0.000000000000
G 2  22921408.560   120452809.430          50.000                                                  
G 6  21516574.880   113070305.594          50.000    21516577.760    84435615.770          50.000  
G12  23685943.900   124470462.539          50.000                                                  
G13  24236294.420   127362602.785          50.000                                                  
G15  24552046.420   129021657.523          50.000                                                  
G17  21664020.340   113845153.188          50.000                                                  
G19  20228537.020   106301678.770          50.000                                                  
G24  21540055.880   113193702.742          50.000    21540057.840    84527763.047          50.000  
G28  22823659.600   119939268.305          50.000                                                  
E 2  27202140.200   142948181.461          50.000    27202145.460   106747002.816          50.000  
E15  23712372.120   124609316.691          50.000    23712377.700    93052397.410          50.000  
E27  24347222.800   127945494.297          50.000    24347227.020    95543701.344          50.000  
E30  22655637.160   119056146.266          50.000    22655641.140    88905550.152          50.000  
> 2020  6 10 17 48 19.0000000  0 13       0.000000000000
G 2  22920815.840   120449694.672          50.000                                                  
G 6  21516156.100   113068104.895          50.000    21516158.980    84433972.391          50.000  
G12  23685425.940   124467740.676          50.000                                                  
G13  24236909.280   127365833.816          50.000                                                  
G15  24552531.440   129024206.313          50.000                                                  
G17  21664432.820   113847320.820          50.000                                                  
G19  20228717.260   106302625.961          50.000                                                  
G24  21539726.760   113191973.207          50.000    21539728.720    84526471.512          50.000  
G28  22823988.580   119940997.102          50.000                                                  
E 2  27202534.020   142950250.922          50.000    27202539.260   106748548.195          50.000  
E15  23712034.560   124607542.867          50.000    23712040.160    93051072.801          50.000  
E27  24346925.480   127943931.809          50.000    24346929.680    95542534.551          50.000  
E30  22655750.680   119056742.820          50.000    22655754.660    88905995.629          50.000  
> 2020  6 10 17 48 20.0000000  0 13       0.000000000000
G 2  22920223.160   120446580.160          50.000                                                  
G 6  21515737.420   113065904.719          50.000    21515740.300    84432329.406          50.000  
G12  23684908.000   124465018.863          50.000                                                  
G13  24237524.120   127369064.852          50.000                                                  
G15  24553016.480   129026755.207          50.000                                                  
G17  21664845.360   113849488.656          50.000                                                  
G19  20228897.600   106303573.645          50.000                                                  
G24  21539397.740   113190244.227          50.000    21539399.720    84525180.391          50.000  
G28  22824317.600   119942726.027          50.000                                                  
E 2  27202927.840   142952320.527          50.000    27202933.100   106750093.676          50.000  
E15  23711697.080   124605769.430          50.000    23711702.680    93049748.484          50.000  
E27  24346628.160   127942369.410          50.000    24346632.360    95541367.824          50.000  
E30  22655864.260   119057339.602          50.000    22655868.220    88906441.277          50.000  
> 2020  6 10 17 48 21.0000000  0 13       0.000000000000
G 2  22919630.540   120443465.902          50.000                                                  
G 6  21515318.840   113063705.055          50.000    21515321.700    84430686.797          50.000  
G12  23684390.060   124462297.086          50.000                                                  
G13  24238138.960   127372295.879          50.000                                                  
G15  24553501.520   129029304.199          50.000                                                  
G17  21665257.920   113851656.699          50.000                                                  
G19  20229078.040   106304521.805          50.000                                                  
G24  21539068.820   113188515.766          50.000    21539070.800    84523889.656          50.000  
G28  22824646.620   119944455.082          50.000                                                  
E 2  27203321.700   142954390.262          50.000    27203326.960   106751639.258          50.000  
E15  23711359.700   124603996.398          50.000    23711365.280    93048424.469          50.000  
E27  24346330.860   127940807.121          50.000    24346335.080    95540201.180          50.000  
E30  22655977.860   119057936.598          50.000    22655981.820    88906887.086          50.000  
> 2020  6 10 17 48 22.0000000  0 13       0.000000000000
G 2  22919037.960   120440351.902          50.000                                                  
G 6  21514900.360   113061505.918          50.000    21514903.220    84429044.590          50.000  
G12  23683872.120   124459575.340          50.000                                                  
G13  24238753.800   127375526.895          50.000                                                  
G15  24553986.600   129031853.289          50.000                                                  
G17  21665670.520   113853824.961          50.000                                                  
G19  20229258.560   106305470.453          50.000                                                  
G24  21538740.000   113186787.844          50.000    21538741.980    84522599.328          50.000  
G28  22824975.680   119946184.273          50.000                                                  
E 2  27203715.600   142956460.145          50.000    27203720.840   106753184.945          50.000  
E15  23711022.380   124602223.766          50.000    23711027.960    93047100.750          50.000  
E27  24346033.600   127939244.930          50.000    24346037.800    95539034.609          50.000  
E30  22656091.500   119058533.828          50.000    22656095.480    88907333.070          50.000  
> 2020  6 10 17 48 23.0000000  0 13       0.000000000000
G 2  22918445.420   120437238.148          50.000                                                  
G 6  21514481.980   113059307.305          50.000    21514484.840    84427402.766          50.000  
G12  23683354.200   124456853.621          50.000                                                  
G13  24239368.660   127378757.914          50.000                                                  
G15  24554471.700   129034402.477          50.000                                                  
G17  21666083.160   113855993.422          50.000                                                  
G19  20229439.160   106306419.582          50.000                                                  
G24  21538411.300   113185060.453          50.000    21538413.280    84521309.391          50.000  
G28  22825304.760   119947913.582          50.000                                                  
E 2  27204109.500   142958530.176          50.000    27204114.760   106754730.746          50.000  
E15  23710685.120   124600451.527          50.000    23710690.720    93045777.328          50.000  
E27  24345736.340   127937682.828          50.000    24345740.540    95537868.105          50.000  
E30  22656205.200   119059131.270          50.000    22656209.160    88907779.211          50.000  
> 2020  6 10 17 48 24.0000000  0 13       0.000000000000
G 2  22917852.940   120434124.633          50.000                                                  
G 6  21514063.700   113057109.211          50.000    21514066.560    84425761.332          50.000  
G12  23682836.280   124454131.949          50.000                                                  
G13  24239983.500   127381988.938          50.000                                                  
G15  24554956.820   129036951.773          50.000                                                  
G17  21666495.860   113858162.098          50.000                                                  
G19  20229619.880   106307369.188          50.000                                                  
G24  21538082.680   113183333.578          50.000    21538084.660    84520019.844          50.000  
G28  22825633.860   119949643.027          50.000                                                  
E 2  27204503.440   142960600.332          50.000    27204508.700   106756276.641          50.000  
E15  23710347.960   124598679.688          50.000    23710353.540    93044454.199          50.000  
E27  24345439.100   127936120.832          50.000    24345443.300    95536701.680          50.000  
E30  22656318.920   119059728.941          50.000    22656322.900    88908225.527          50.000  
> 2020  6 10 17 48 25.0000000  0 13       0.000000000000
G 2  22917260.520   120431011.383          50.000                                                  
G 6  21513645.500   113054911.629          50.000    21513648.380    84424120.285          50.000  
G12  23682318.380   124451410.313          50.000                                                  
G13  24240598.340   127385219.957          50.000                                                  
G15  24555441.960   129039501.168          50.000                                                  
G17  21666908.580   113860330.980          50.000                                                  
G19  20229800.660   106308319.289          50.000                                                  
G24  21537754.160   113181607.230          50.000    21537756.140    84518730.688          50.000  
G28  22825962.980   119951372.609          50.000                                                  
E 2  27204897.420   142962670.645          50.000    27204902.660   106757822.652          50.000  
E15  23710010.860   124596908.242          50.000    23710016.440    93043131.367          50.000  
E27  24345141.880   127934558.934          50.000    24345146.080    95535535.328          50.000  
E30  22656432.700   119060326.820          50.000    22656436.680    88908671.992          50.000  
> 2020  6 10 17 48 26.0000000  0 13       0.000000000000
G 2  22916668.120   120427898.379          50.000                                                  
G 6  21513227.420   113052714.586          50.000    21513230.280    84422479.637          50.000  
G12  23681800.460   124448688.715          50.000                                                  
G13  24241213.180   127388450.977          50.000                                                  
G15  24555927.100   129042050.660          50.000                                                  
G17  21667321.340   113862500.070          50.000                                                  
G19  20229981.560   106309269.871          50.000                                                  
G24  21537425.760   113179881.418          50.000    21537427.740    84517441.934          50.000  
G28  22826292.140   119953102.313          50.000                                                  
E 2  27205291.400   142964741.094          50.000    27205296.660   106759368.766          50.000  
E15  23709673.840   124595137.191          50.000    23709679.420    93041808.832          50.000  
E27  24344844.680   127932997.125          50.000    24344848.880    95534369.043          50.000  
E30  22656546.520   119060924.930          50.000    22656550.480    88909118.633          50.000  
> 2020  6 10 17 48 27.0000000  0 13       0.000000000000
G 2  22916075.780   120424785.625          50.000                                                  
G 6  21512809.440   113050518.051          50.000    21512812.300    84420839.367          50.000  
G12  23681282.580   124445967.152          50.000                                                  
G13  24241828.020   127391681.988          50.000                                                  
G15  24556412.280   129044600.254          50.000                                                  
G17  21667734.140   113864669.375          50.000                                                  
G19  20230162.540   106310220.941          50.000                                                  
G24  21537097.440   113178156.137          50.000    21537099.420    84516153.574          50.000  
G28  22826621.320   119954832.160          50.000                                                  
E 2  27205685.440   142966811.688          50.000    27205690.680   106760914.988          50.000  
E15  23709336.900   124593366.547          50.000    23709342.480    93040486.598          50.000  
E27  24344547.500   127931435.422          50.000    24344551.700    95533202.836          50.000  
E30  22656660.380   119061523.262          50.000    22656664.340    88909565.438          50.000  
> 2020  6 10 17 48 28.0000000  0 13       0.000000000000
G 2  22915483.500   120421673.133          50.000                                                  
G 6  21512391.540   113048322.047          50.000    21512394.420    84419199.496          50.000  
G12  23680764.680   124443245.621          50.000                                                  
G13  24242442.860   127394912.984          50.000                                                  
G15  24556897.460   129047149.953          50.000                                                  
G17  21668147.000   113866838.891          50.000                                                  
G19  20230343.620   106311172.496          50.000                                                  
G24  21536769.240   113176431.379          50.000    21536771.220    84514865.605          50.000  
G28  22826950.520   119956562.137          50.000                                                  
E 2  27206079.480   142968882.418          50.000    27206084.740   106762461.309          50.000  
E15  23709000.020   124591596.289          50.000    23709005.620    93039164.652          50.000  
E27  24344250.320   127929873.820          50.000    24344254.540    95532036.707          50.000  
E30  22656774.280   119062121.813          50.000    22656778.240    88910012.410          50.000  
> 2020  6 10 17 48 29.0000000  0 13       0.000000000000
G 2  22914891.260   120418560.895          50.000                                                  
G 6  21511973.760   113046126.563          50.000    21511976.620    84417560.012          50.000  
G12  23680246.800   124440524.129          50.000                                                  
G13  24243057.700   127398143.984          50.000                                                  
G15  24557382.680   129049699.750          50.000                                                  
G17  21668559.880   113869008.609          50.000                                                  
G19  20230524.780   106312124.539          50.000                                                  
G24  21536441.120   113174707.148          50.000    21536443.100    84513578.031          50.000  
G28  22827279.740   119958292.223          50.000                                                  
E 2  27206473.560   142970953.281          50.000    27206478.800   106764007.730          50.000  
E15  23708663.240   124589826.438          50.000    23708668.820    93037843.008          50.000  
E27  24343953.180   127928312.313          50.000    24343957.380    95530870.645          50.000  
E30  22656888.220   119062720.578          50.000    22656892.180    88910459.539          50.000  
> 2020  6 10 17 48 30.0000000  0 13       0.000000000000
G 2  22914299.060   120415448.898          50.000                                                  
G 6  21511556.080   113043931.605          50.000    21511558.940    84415920.922          50.000  
G12  23679728.920   124437802.676          50.000                                                  
G13  24243672.540   127401374.984          50.000                                                  
G15  24557867.920   129052249.645          50.000                                                  
G17  21668972.800   113871178.543          50.000                                                  
G19  20230706.040   106313077.059          50.000                                                  
G24  21536113.120   113172983.441          50.000    21536115.100    84512290.848          50.000  
G28  22827609.000   119960022.453          50.000                                                  
E 2  27206867.660   142973024.301          50.000    27206872.900   106765554.273          50.000  
E15  23708326.520   124588056.984          50.000    23708332.100    93036521.664          50.000  
E27  24343656.060   127926750.918          50.000    24343660.260    95529704.668          50.000  
E30  22657002.200   119063319.582          50.000    22657006.180    88910906.848          50.000  
> 2020  6 10 17 48 31.0000000  0 13       0.000000000000
G 2  22913706.920   120412337.164          50.000                                                  
G 6  21511138.480   113041737.145          50.000    21511141.340    84414282.203          50.000  
G12  23679211.060   124435081.262          50.000                                                  
G13  24244287.380   127404605.980          50.000                                                  
G15  24558353.160   129054799.641          50.000                                                  
G17  21669385.760   113873348.672          50.000                                                  
G19  20230887.400   106314030.070          50.000                                                  
G24  21535785.200   113171260.250          50.000    21535787.180    84511004.051          50.000  
G28  22827938.280   119961752.813          50.000                                                  
E 2  27207261.780   142975095.453          50.000    27207267.040   106767100.910          50.000  
E15  23707989.880   124586287.922          50.000    23707995.460    93035200.613          50.000  
E27  24343358.960   127925189.609          50.000    24343363.160    95528538.758          50.000  
E30  22657116.240   119063918.801          50.000    22657120.200    88911354.313          50.000  
> 2020  6 10 17 48 32.0000000  0 13       0.000000000000
G 2  22913114.820   120409225.676          50.000                                                  
G 6  21510721.000   113039543.230          50.000    21510723.860    84412643.891          50.000  
G12  23678693.180   124432359.883          50.000                                                  
G13  24244902.220   127407836.980          50.000                                                  
G15  24558838.420   129057349.734          50.000                                                  
G17  21669798.760   113875519.023          50.000                                                  
G19  20231068.840   106314983.566          50.000                                                  
G24  21535457.400   113169537.598          50.000    21535459.360    84509717.652          50.000  
G28  22828267.580   119963483.305          50.000                                                  
E 2  27207655.940   142977166.750          50.000    27207661.200   106768647.656          50.000  
E15  23707653.320   124584519.266          50.000    23707658.900    93033879.863          50.000  
E27  24343061.860   127923628.402          50.000    24343066.060    95527372.918          50.000  
E30  22657230.300   119064518.238          50.000    22657234.280    88911801.945          50.000  
> 2020  6 10 17 48 33.0000000  0 13       0.000000000000
G 2  22912522.760   120406114.438          50.000                                                  
G 6  21510303.600   113037349.832          50.000    21510306.460    84411005.961          50.000  
G12  23678175.340   124429638.535          50.000                                                  
G13  24245517.060   127411067.965          50.000                                                  
G15  24559323.720   129059899.926          50.000                                                  
G17  21670211.820   113877689.566          50.000                                                  
G19  20231250.380   106315937.539          50.000                                                  
G24  21535129.680   113167815.461          50.000    21535131.660    84508431.641          50.000  
G28  22828596.900   119965213.930          50.000                                                  
E 2  27208050.120   142979238.176          50.000    27208055.380   106770194.500          50.000  
E15  23707316.820   124582750.992          50.000    23707322.400    93032559.398          50.000  
E27  24342764.800   127922067.281          50.000    24342769.000    95526207.148          50.000  
E30  22657344.420   119065117.898          50.000    22657348.380    88912249.742          50.000  
> 2020  6 10 17 48 34.0000000  0 13       0.000000000000
G 2  22911930.760   120403003.457          50.000                                                  
G 6  21509886.320   113035156.957          50.000    21509889.180    84409368.430          50.000  
G12  23677657.480   124426917.230          50.000                                                  
G13  24246131.900   127414298.949          50.000                                                  
G15  24559809.020   129062450.227          50.000                                                  
G17  21670624.900   113879860.324          50.000                                                  
G19  20231432.000   106316892.004          50.000                                                  
G24  21534802.080   113166093.855          50.000    21534804.040    84507146.031          50.000  
G28  22828926.260   119966944.684          50.000                                                  
E 2  27208444.320   142981309.758          50.000    27208449.580   106771741.461          50.000  
E15  23706980.400   124580983.125          50.000    23706986.000    93031239.242          50.000  
E27  24342467.740   127920506.273          50.000    24342471.940    95525041.461          50.000  
E30  22657458.560   119065717.781          50.000    22657462.540    88912697.707          50.000  
> 2020  6 10 17 48 35.0000000  0 13       0.000000000000
G 2  22911338.820   120399892.730          50.000                                                  
G 6  21509469.120   113032964.605          50.000    21509471.980    84407731.281          50.000  
G12  23677139.640   124424195.965          50.000                                                  
G13  24246746.740   127417529.941          50.000                                                  
G15  24560294.340   129065000.629          50.000                                                  
G17  21671038.020   113882031.289          50.000                                                  
G19  20231613.720   106317846.941          50.000                                                  
G24  21534474.560   113164372.801          50.000    21534476.540    84505860.824          50.000  
G28  22829255.640   119968675.559          50.000                                                  
E 2  27208838.560   142983381.469          50.000    27208843.820   106773288.516          50.000  
E15  23706644.060   124579215.656          50.000    23706649.660    93029919.379          50.000  
E27  24342170.720   127918945.367          50.000    24342174.920    95523875.852          50.000  
