     3.03           OBSERVATION DATA    M: Mixed            RINEX VERSION / TYPE
sbp2rinex v2.2 (RTKL                    20210504 171529 UTC PGM / RUN BY / DATE 
log: 202101052150-202101052210.sbp                          COMMENT             
format: Swift Navigation SBP, option: CONVBASE,EPHALL,OBSALLCOMMENT             
                                                            MARKER NAME         
                                                            MARKER NUMBER       
                                                            MARKER TYPE         
                                                            OBSERVER / AGENCY   
                                                            REC # / TYPE / VERS 
                                                            ANT # / TYPE        
 -2711595.6132 -4352800.3364  3779530.1283                  APPROX POSITION XYZ 
        0.0000        0.0000        0.0000                  ANTENNA: DELTA H/E/N
G    4 C1C L1C C5I L5I                                      SYS / # / OBS TYPES 
E    4 C1B L1B C5I L5I                                      SYS / # / OBS TYPES 
  2021     1     5    21    50   20.0000000     GPS         TIME OF FIRST OBS   
  2021     1     5    22    20   16.0000000     GPS         TIME OF LAST OBS    
G                                                           SYS / PHASE SHIFT   
E                                                           SYS / PHASE SHIFT   
  0                                                         GLONASS SLOT / FRQ #
 C1C    0.000 C1P    0.000 C2C    0.000 C2P    0.000        GLONASS COD/PHS/BIS 
                                                            END OF HEADER       
> 2021  1  5 21 50 20.0000000  0 16       0.000000000000
G 4  22269893.420   117029052.074    22269897.140    87391830.867  
G 5  24480830.300   128647596.3282                                 
G 7  21015499.040   110437193.016                                  
G 8  22574421.540   118629313.328    22574423.000    88586820.352  
G 9  20361144.640   106998492.055    20361145.660    79901473.906  
G14  23486724.220   123423527.6952                                 
G16  24322877.860   127817569.7772                                 
G27  23055397.180   121156870.961    23055398.360    90474285.629  
G28  23735953.460   124733248.8442                                 
G30  22301477.400   117194994.863    22301479.180    87515741.637  
E 2  23631489.300   124184292.984    23631494.320    92735016.496  
E 3  23534892.160   123676664.078    23534898.060    92355943.434  
E 5  26781411.140   140737214.945    26781418.660   105095959.035  
E 8  22733454.300   119465097.688    22733458.640    89210944.266  
E25  24137236.200   126842001.215    24137242.220    94719668.730  
E30  26373041.480   138591221.9842   26373048.440   103493431.6562 
> 2021  1  5 21 50 21.0000000  0 16       0.000000000000
G 4  22270385.580   117031638.430    22270389.320    87393762.238  
G 5  24480411.320   128645394.6022                                 
G 7  21015387.220   110436605.344                                  
G 8  22574055.620   118627390.391    22574057.080    88585384.395  
G 9  20361273.560   106999169.551    20361274.580    79901979.832  
G14  23486067.260   123420075.4102                                 
G16  24323584.160   127821281.4302                                 
G27  23055408.620   121156931.008    23055409.800    90474330.477  
G28  23735299.120   124729810.1762                                 
G30  22301111.940   117193074.445    22301113.740    87514307.563  
E 2  23631291.080   124183251.375    23631296.100    92734238.668  
E 3  23535054.720   123677518.320    23535060.620    92356581.340  
E 5  26781922.700   140739903.152    26781930.220   105097966.461  
E 8  22733114.640   119463312.746    22733118.980    89209611.355  
E25  24137518.800   126843486.230    24137524.800    94720777.672  
E30  26372546.960   138588623.2932   26372553.920   103491491.0742 
> 2021  1  5 21 50 22.0000000  0 16       0.000000000000
G 4  22270877.820   117034225.133    22270881.540    87395693.871  
G 5  24479992.440   128643193.3672                                 
G 7  21015275.420   110436017.863                                  
G 8  22573689.780   118625467.918    22573691.240    88583948.789  
G 9  20361402.580   106999847.570    20361403.620    79902486.152  
G14  23485410.360   123416623.3552                                 
G16  24324290.480   127824993.2152                                 
G27  23055420.160   121156991.723    23055421.340    90474375.816  
G28  23734644.800   124726371.7152                                 
G30  22300746.540   117191154.199    22300748.320    87512873.617  
E 2  23631092.940   124182210.109    23631097.960    92733461.098  
E 3  23535217.340   123678372.941    23535223.240    92357219.531  
E 5  26782434.280   140742591.535    26782441.800   105099974.020  
E 8  22732775.020   119461528.059    22732779.360    89208278.633  
E25  24137801.420   126844971.496    24137807.440    94721886.797  
E30  26372052.480   138586024.7622   26372059.440   103489550.6132 
> 2021  1  5 21 50 23.0000000  0 16       0.000000000000
G 4  22271370.120   117036812.188    22271373.840    87397625.766  
G 5  24479573.660   128640992.6212                                 
G 7  21015163.660   110435430.566                                  
G 8  22573324.040   118623545.926    22573325.500    88582513.539  
G 9  20361531.720   107000526.117    20361532.740    79902992.863  
G14  23484753.500   123413171.5042                                 
G16  24324996.840   127828705.1412                                 
G27  23055431.840   121157053.102    23055433.020    90474421.656  
G28  23733990.520   124722933.4532                                 
G30  22300381.160   117189234.109    22300382.940    87511439.789  
E 2  23630894.860   124181169.180    23630899.880    92732683.781  
E 3  23535380.040   123679227.949    23535385.940    92357858.012  
E 5  26782945.880   140745280.078    26782953.420   105101981.695  
E 8  22732435.460   119459743.633    22732439.800    89206946.109  
E25  24138084.120   126846457.000    24138090.120    94722996.102  
E30  26371558.020   138583426.3832   26371564.980   103487610.2662 
> 2021  1  5 21 50 24.0000000  0 16       0.000000000000
G 4  22271862.480   117039399.582    22271866.220    87399557.914  
G 5  24479154.960   128638792.3592                                 
G 7  21015051.940   110434843.453                                  
G 8  22572958.380   118621624.406    22572959.840    88581078.641  
G 9  20361660.940   107001205.188    20361661.960    79903499.961  
G14  23484096.680   123409719.8752                                 
G16  24325703.220   127832417.2072                                 
G27  23055443.660   121157115.145    23055444.840    90474467.992  
G28  23733336.280   124719495.4302                                 
G30  22300015.800   117187314.188    22300017.600    87510006.086  
E 2  23630696.840   124180128.602    23630701.860    92731906.730  
E 3  23535542.820   123680083.332    23535548.720    92358496.773  
E 5  26783457.540   140747968.797    26783465.060   105103989.504  
E 8  22732095.940   119457959.469    22732100.280    89205613.777  
E25  24138366.840   126847942.758    24138372.860    94724105.598  
E30  26371063.600   138580828.1522   26371070.560   103485670.0312 
> 2021  1  5 21 50 26.0000000  0 16       0.000000000000
G 4  22272847.420   117044575.418    22272851.140    87403422.988  
G 5  24478317.840   128634393.3012                                 
G 7  21014828.600   110433669.785                                  
G 8  22572227.360   118617782.809    22572228.820    88578209.922  
G 9  20361919.680   107002564.906    20361920.700    79904515.344  
G14  23482783.160   123402817.2732                                 
G16  24327116.080   127839841.7542                                 
G27  23055467.640   121157241.215    23055468.820    90474562.137  
G28  23732027.920   124712619.9842                                 
G30  22299285.200   117183474.828    22299286.980    87507139.035  
E 2  23630301.000   124178048.445    23630306.020    92730353.363  
E 3  23535868.580   123681795.250    23535874.500    92359775.152  
E 5  26784480.920   140753346.734    26784488.460   105108005.496  
E 8  22731417.060   119454391.910    22731421.400    89202949.691  
E25  24138932.440   126850914.977    24138938.440    94726325.109  
E30  26370074.820   138575632.1762   26370081.800   103481789.9182 
> 2021  1  5 21 50 27.0000000  0 16       0.000000000000
G 4  22273339.980   117047163.859    22273343.700    87405355.918  
G 5  24477899.420   128632194.5002                                 
G 7  21014716.980   110433083.238                                  
G 8  22571861.980   118615862.719    22571863.440    88576776.094  
G 9  20362049.200   107003245.551    20362050.220    79905023.617  
G14  23482126.460   123399366.2932                                 
G16  24327822.540   127843554.2302                                 
G27  23055479.820   121157305.262    23055481.000    90474609.969  
G28  23731373.800   124709182.5782                                 
G30  22298919.940   117181555.410    22298921.740    87505705.707  
E 2  23630103.180   124177008.875    23630108.200    92729577.066  
E 3  23536031.580   123682651.781    23536037.480    92360414.770  
E 5  26784992.660   140756035.965    26785000.200   105110013.684  
E 8  22731077.680   119452608.523    22731082.020    89201617.941  
E25  24139215.300   126852401.453    24139221.320    94727435.145  
E30  26369580.500   138573034.4182   26369587.460   103479850.0352 
> 2021  1  5 21 50 28.0000000  0 16       0.000000000000
G 4  22273832.620   117049752.656    22273836.340    87407289.113  
G 5  24477481.100   128629996.1802                                 
G 7  21014605.400   110432496.875                                  
G 8  22571496.680   118613943.109    22571498.140    88575342.625  
G 9  20362178.820   107003926.719    20362179.840    79905532.289  
G14  23481469.800   123395915.5552                                 
G16  24328529.020   127847266.8442                                 
G27  23055492.140   121157369.961    23055493.320    90474658.285  
G28  23730719.740   124705745.3982                                 
G30  22298554.720   117179636.137    22298556.500    87504272.488  
E 2  23629905.420   124175969.664    23629910.440    92728801.027  
E 3  23536194.640   123683508.707    23536200.560    92361054.680  
E 5  26785504.440   140758725.344    26785511.980   105112021.984  
E 8  22730738.380   119450825.402    22730742.700    89200286.395  
E25  24139498.220   126853888.188    24139504.240    94728545.363  
E30  26369086.180   138570436.8282   26369093.160   103477910.2772 
> 2021  1  5 21 50 29.0000000  0 16       0.000000000000
G 4  22274325.300   117052341.789    22274329.040    87409222.563  
G 5  24477062.860   128627798.3632                                 
G 7  21014493.860   110431910.707                                  
G 8  22571131.480   118612023.961    22571132.940    88573909.496  
G 9  20362308.540   107004608.406    20362309.560    79906041.344  
G14  23480813.180   123392465.0202                                 
G16  24329235.540   127850979.6022                                 
G27  23055504.580   121157435.316    23055505.760    90474707.098  
G28  23730065.700   124702308.3912                                 
G30  22298189.520   117177717.043    22298191.320    87502839.406  
E 2  23629707.720   124174930.785    23629712.760    92728025.242  
E 3  23536357.780   123684365.996    23536363.680    92361694.863  
E 5  26786016.260   140761414.914    26786023.780   105114030.430  
E 8  22730399.100   119449042.523    22730403.440    89198955.023  
E25  24139781.180   126855375.156    24139787.200    94729655.762  
E30  26368591.900   138567839.3832   26368598.880   103475970.6252 
> 2021  1  5 21 50 30.0000000  0 16       0.000000000000
G 4  22274818.080   117054931.281    22274821.800    87411156.273  
G 5  24476644.720   128625601.0272                                 
G 7  21014382.340   110431324.719                                  
G 8  22570766.380   118610105.281    22570767.820    88572476.723  
G 9  20362438.360   107005290.613    20362439.380    79906550.789  
G14  23480156.600   123389014.7072                                 
G16  24329942.080   127854692.5082                                 
G27  23055517.140   121157501.352    23055518.320    90474756.410  
G28  23729411.700   124698871.6172                                 
G30  22297824.360   117175798.098    22297826.140    87501406.430  
E 2  23629510.100   124173892.254    23629515.120    92727249.715  
E 3  23536521.000   123685223.676    23536526.900    92362335.336  
E 5  26786528.080   140764104.637    26786535.620   105116038.988  
E 8  22730059.880   119447259.914    22730064.220    89197623.852  
E25  24140064.180   126856862.371    24140070.200    94730766.348  
E30  26368097.660   138565242.0782   26368104.620   103474031.0822 
> 2021  1  5 21 50 31.0000000  0 16       0.000000000000
G 4  22275310.900   117057521.109    22275314.620    87413090.238  
G 5  24476226.680   128623404.1912                                 
G 7  21014270.880   110430738.914                                  
G 8  22570401.360   118608187.094    22570402.800    88571044.316  
G 9  20362568.280   107005973.348    20362569.300    79907060.625  
G14  23479500.080   123385564.6132                                 
G16  24330648.640   127858405.5512                                 
G27  23055529.840   121157568.043    23055531.020    90474806.219  
G28  23728757.740   124695435.0662                                 
G30  22297459.240   117173879.328    22297461.020    87499973.586  
E 2  23629312.540   124172854.047    23629317.560    92726474.430  
E 3  23536684.280   123686081.734    23536690.180    92362976.094  
E 5  26787039.960   140766794.531    26787047.500   105118047.672  
E 8  22729720.720   119445477.555    22729725.040    89196292.871  
E25  24140347.240   126858349.824    24140353.260    94731877.105  
E30  26367603.440   138562644.9452   26367610.400   103472091.6642 
> 2021  1  5 21 50 32.0000000  0 16       0.000000000000
G 4  22275803.800   117060111.293    22275807.520    87415024.473  
G 5  24475808.720   128621207.8282                                 
G 7  21014159.440   110430153.289                                  
G 8  22570036.420   118606269.367    22570037.860    88569612.250  
G 9  20362698.300   107006656.613    20362699.320    79907570.859  
G14  23478843.580   123382114.7302                                 
G16  24331355.240   127862118.7192                                 
G27  23055542.660   121157635.395    23055543.820    90474856.516  
G28  23728103.820   124691998.7072                                 
G30  22297094.140   117171960.723    22297095.920    87498540.867  
E 2  23629115.040   124171816.188    23629120.060    92725699.410  
E 3  23536847.640   123686940.168    23536853.540    92363617.133  
E 5  26787551.860   140769484.594    26787559.400   105120056.484  
E 8  22729381.580   119443695.461    22729385.920    89194962.086  
E25  24140630.340   126859837.516    24140636.360    94732988.043  
E30  26367109.260   138560047.9732   26367116.220   103470152.3672 
> 2021  1  5 21 50 33.0000000  0 16       0.000000000000
G 4  22276296.760   117062701.824    22276300.480    87416958.961  
G 5  24475390.860   128619011.9652                                 
G 7  21014048.040   110429567.871                                  
G 8  22569671.580   118604352.113    22569673.020    88568180.539  
G 9  20362828.420   107007340.398    20362829.440    79908081.484  
G14  23478187.140   123378665.0822                                 
G16  24332061.860   127865832.0432                                 
G27  23055555.600   121157703.430    23055556.780    90474907.324  
G28  23727449.940   124688562.5742                                 
G30  22296729.060   117170042.277    22296730.840    87497108.266  
E 2  23628917.620   124170778.684    23628922.640    92724924.648  
E 3  23537011.060   123687799.000    23537016.960    92364258.469  
E 5  26788063.800   140772174.840    26788071.340   105122065.434  
E 8  22729042.520   119441913.629    22729046.860    89193631.500  
E25  24140913.480   126861325.465    24140919.500    94734099.176  
E30  26366615.100   138557451.1562   26366622.060   103468213.1882 
> 2021  1  5 21 50 34.0000000  0 16       0.000000000000
G 4  22276789.780   117065292.703    22276793.500    87418893.711  
G 5  24474973.100   128616816.5942                                 
G 7  21013936.660   110428982.625                                  
G 8  22569306.820   118602435.344    22569308.280    88566749.191  
G 9  20362958.640   107008024.715    20362959.660    79908592.504  
G14  23477530.720   123375215.6482                                 
G16  24332768.520   127869545.5042                                 
G27  23055568.660   121157772.117    23055569.840    90474958.621  
G28  23726796.120   124685126.6332                                 
G30  22296364.040   117168124.016    22296365.820    87495675.801  
E 2  23628720.240   124169741.512    23628725.260    92724150.137  
E 3  23537174.560   123688658.203    23537180.460    92364900.082  
E 5  26788575.760   140774865.234    26788583.300   105124074.492  
E 8  22728703.500   119440132.059    22728707.820    89192301.105  
E25  24141196.680   126862813.648    24141202.700    94735210.480  
E30  26366120.960   138554854.4802   26366127.940   103466274.1132 
> 2021  1  5 21 50 35.0000000  0 16       0.000000000000
G 4  22277282.880   117067883.934    22277286.600    87420828.723  
G 5  24474555.420   128614621.7032                                 
G 7  21013825.340   110428397.574                                  
G 8  22568942.160   118600519.031    22568943.620    88565318.184  
G 9  20363088.960   107008709.555    20363089.980    79909103.910  
G14  23476874.360   123371766.4342                                 
G16  24333475.180   127873259.0902                                 
G27  23055581.860   121157841.461    23055583.040    90475010.410  
G28  23726142.320   124681690.9342                                 
G30  22295999.040   117166205.910    22296000.800    87494243.453  
E 2  23628522.940   124168704.684    23628527.960    92723375.883  
E 3  23537338.140   123689517.789    23537344.040    92365541.980  
E 5  26789087.760   140777555.809    26789095.300   105126083.688  
E 8  22728364.520   119438350.746    22728368.860    89190970.906  
E25  24141479.920   126864302.082    24141485.940    94736321.973  
E30  26365626.860   138552258.0082   26365633.840   103464335.1882 
> 2021  1  5 21 50 36.0000000  0 16       0.000000000000
G 4  22277776.040   117070475.504    22277779.760    87422763.992  
G 5  24474137.840   128612427.3012                                 
G 7  21013714.040   110427812.695                                  
G 8  22568577.580   118598603.172    22568579.040    88563887.512  
G 9  20363219.380   107009394.918    20363220.400    79909615.711  
G14  23476218.040   123368317.4452                                 
G16  24334181.880   127876972.8162                                 
G27  23055595.180   121157911.484    23055596.360    90475062.703  
G28  23725488.560   124678255.4142                                 
G30  22295634.060   117164287.949    22295635.840    87492811.215  
E 2  23628325.700   124167668.188    23628330.720    92722601.875  
E 3  23537501.780   123690377.754    23537507.680    92366184.164  
E 5  26789599.800   140780246.539    26789607.320   105128092.996  
E 8  22728025.600   119436569.684    22728029.940    89189640.895  
E25  24141763.200   126865790.746    24141769.220    94737433.637  
E30  26365132.800   138549661.6372   26365139.760   103462396.3402 
> 2021  1  5 21 50 37.0000000  0 16       0.000000000000
G 4  22278269.280   117073067.426    22278272.980    87424699.520  
G 5  24473720.360   128610233.3872                                 
G 7  21013602.760   110427228.008                                  
G 8  22568213.100   118596687.789    22568214.540    88562457.199  
G 9  20363349.900   107010080.797    20363350.920    79910127.898  
G14  23475561.760   123364868.6802                                 
G16  24334888.620   127880686.6882                                 
G27  23055608.640   121157982.156    23055609.800    90475115.480  
G28  23724834.860   124674820.1602                                 
G30  22295269.120   117162370.164    22295270.880    87491379.109  
E 2  23628128.540   124166632.039    23628133.560    92721828.129  
E 3  23537665.500   123691238.105    23537671.400    92366826.633  
E 5  26790111.860   140782937.441    26790119.400   105130102.434  
E 8  22727686.720   119434788.895    22727691.060    89188311.082  
E25  24142046.540   126867279.664    24142052.540    94738545.492  
E30  26364638.760   138547065.4532   26364645.720   103460457.6332 
> 2021  1  5 21 50 38.0000000  0 16       0.000000000000
G 4  22278762.560   117075659.703    22278766.280    87426635.313  
G 5  24473302.960   128608039.9652                                 
G 7  21013491.540   110426643.516                                  
G 8  22567848.720   118594772.910    22567850.160    88561027.262  
G 9  20363480.520   107010767.207    20363481.540    79910640.480  
G14  23474905.520   123361420.1412                                 
G16  24335595.360   127884400.6882                                 
G27  23055622.220   121158053.508    23055623.380    90475168.770  
G28  23724181.180   124671385.0942                                 
G30  22294904.200   117160452.551    22294905.980    87489947.129  
E 2  23627931.420   124165596.234    23627936.440    92721054.641  
E 3  23537829.300   123692098.836    23537835.200    92367469.383  
E 5  26790623.960   140785628.516    26790631.480   105132112.000  
E 8  22727347.900   119433008.363    22727352.240    89186981.465  
E25  24142329.920   126868768.824    24142335.920    94739657.523  
E30  26364144.740   138544469.4182   26364151.720   103458519.0392 
> 2021  1  5 21 50 39.0000000  0 16       0.000000000000
G 4  22279255.920   117078252.313    22279259.640    87428571.355  
G 5  24472885.660   128605847.0272                                 
G 7  21013380.360   110426059.211                                  
G 8  22567484.420   118592858.512    22567485.860    88559597.684  
G 9  20363611.240   107011454.145    20363612.260    79911153.457  
G14  23474249.320   123357971.8012                                 
G16  24336302.140   127888114.8282                                 
G27  23055635.920   121158125.520    23055637.080    90475222.547  
G28  23723527.540   124667950.2272                                 
G30  22294539.320   117158535.102    22294541.100    87488515.270  
E 2  23627734.380   124164560.773    23627739.400    92720281.406  
E 3  23537993.160   123692959.949    23537999.060    92368112.422  
E 5  26791136.080   140788319.770    26791143.620   105134121.703  
E 8  22727009.120   119431228.090    22727013.460    89185652.039  
E25  24142613.340   126870258.227    24142619.340    94740769.742  
E30  26363650.760   138541873.5312   26363657.740   103456580.5512 
> 2021  1  5 21 50 40.0000000  0 16       0.000000000000
G 4  22279749.340   117080845.277    22279753.060    87430507.664  
G 5  24472468.460   128603654.5822                                 
G 7  21013269.200   110425475.066                                  
G 8  22567120.200   118590944.578    22567121.640    88558168.453  
G 9  20363742.060   107012141.605    20363743.080    79911666.824  
G14  23473593.180   123354523.6912                                 
G16  24337008.940   127891829.1092                                 
G27  23055649.740   121158198.199    23055650.920    90475276.824  
G28  23722873.960   124664515.5662                                 
G30  22294174.480   117156617.805    22294176.240    87487083.527  
E 2  23627537.400   124163525.652    23627542.420    92719508.426  
E 3  23538157.100   123693821.441    23538163.000    92368755.746  
E 5  26791648.240   140791011.184    26791655.780   105136131.523  
E 8  22726670.400   119429448.074    22726674.740    89184322.809  
E25  24142896.800   126871747.863    24142902.820    94741882.133  
E30  26363156.820   138539277.8092   26363163.780   103454642.1882 
> 2021  1  5 21 50 41.0000000  0 16       0.000000000000
G 4  22280242.840   117083438.590    22280246.560    87432444.230  
G 5  24472051.340   128601462.6212                                 
G 7  21013158.080   110424891.125                                  
G 8  22566756.080   118589031.125    22566757.520    88556739.578  
G 9  20363872.980   107012829.590    20363874.000    79912180.582  
G14  23472937.060   123351075.7972                                 
G16  24337715.780   127895543.5232                                 
G27  23055663.700   121158271.535    23055664.860    90475331.594  
G28  23722220.400   124661081.1332                                 
G30  22293809.660   117154700.688    22293811.440    87485651.922  
E 2  23627340.500   124162490.871    23627345.520    92718735.699  
E 3  23538321.120   123694683.324    23538327.020    92369399.359  
E 5  26792160.440   140793702.754    26792167.960   105138141.461  
E 8  22726331.720   119427668.316    22726336.060    89182993.766  
E25  24143180.320   126873237.750    24143186.340    94742994.707  
E30  26362662.900   138536682.2342   26362669.860   103452703.9342 
> 2021  1  5 21 50 42.0000000  0 16       0.000000000000
G 4  22280736.400   117086032.258    22280740.120    87434381.066  
G 5  24471634.320   128599271.1642                                 
G 7  21013047.000   110424307.379                                  
G 8  22566392.060   118587118.145    22566393.500    88555311.059  
G 9  20364004.000   107013518.109    20364005.020    79912694.742  
G14  23472280.980   123347628.1332                                 
G16  24338422.640   127899258.0742                                 
G27  23055677.780   121158345.551    23055678.960    90475386.871  
G28  23721566.880   124657646.9062                                 
G30  22293444.880   117152783.727    22293446.640    87484220.426  
E 2  23627143.640   124161456.426    23627148.660    92717963.223  
E 3  23538485.200   123695545.582    23538491.100    92370043.254  
E 5  26792672.660   140796394.508    26792680.200   105140151.535  
E 8  22725993.100   119425888.828    22725997.420    89181664.930  
E25  24143463.880   126874727.883    24143469.900    94744107.469  
E30  26362169.000   138534086.8092   26362175.960   103450765.7932 
> 2021  1  5 21 50 43.0000000  0 16       0.000000000000
G 4  22281230.020   117088626.258    22281233.740    87436318.148  
G 5  24471217.380   128597080.1912                                 
G 7  21012935.940   110423723.809                                  
G 8  22566028.120   118585205.648    22566029.560    88553882.902  
G 9  20364135.120   107014207.133    20364136.120    79913209.273  
G14  23471624.960   123344180.6682                                 
G16  24339129.520   127902972.7662                                 
G27  23055692.000   121158420.219    23055693.160    90475442.633  
G28  23720913.420   124654212.8832                                 
G30  22293080.120   117150866.934    22293081.880    87482789.059  
E 2  23626946.860   124160422.324    23626951.880    92717191.008  
E 3  23538649.340   123696408.219    23538655.240    92370687.426  
E 5  26793184.920   140799086.4142   26793192.440   105142161.7232 
E 8  22725654.520   119424109.586    22725658.860    89180336.273  
E25  24143747.500   126876218.250    24143753.500    94745220.406  
E30  26361675.140   138531491.5432   26361682.100   103448827.7702 
> 2021  1  5 21 50 44.0000000  0 16       0.000000000000
G 4  22281723.720   117091220.613    22281727.420    87438255.492  
G 5  24470800.560   128594889.7112                                 
G 7  21012824.940   110423140.438                                  
G 8  22565664.280   118583293.605    22565665.700    88552455.082  
G 9  20364266.340   107014896.684    20364267.340    79913724.203  
G14  23470968.980   123340733.4412                                 
G16  24339836.420   127906687.5942                                 
G27  23055706.340   121158495.559    23055707.500    90475498.895  
G28  23720259.980   124650779.0742                                 
G30  22292715.400   117148950.305    22292717.160    87481357.816  
E 2  23626750.140   124159388.570    23626755.160    92716419.047  
E 3  23538813.580   123697271.246    23538819.480    92371331.895  
E 5  26793697.200   140801778.5042   26793704.740   105144172.0472 
E 8  22725316.000   119422330.621    22725320.320    89179007.828  
E25  24144031.140   126877708.871    24144037.160    94746333.535  
E30  26361181.300   138528896.4492   26361188.280   103446889.8752 
> 2021  1  5 21 50 46.0000000  0 16       0.000000000000
G 4  22282711.300   117096410.367    22282715.000    87442130.961  
G 5  24469967.160   128590510.2192                                 
G 7  21012603.020   110421974.242                                  
G 8  22564936.840   118579470.973    22564938.280    88549600.523  
G 9  20364529.080   107016277.391    20364530.080    79914755.254  
G14  23469657.120   123333839.6332                                 
G16  24341250.320   127914117.6802                                 
G27  23055735.380   121158648.230    23055736.540    90475612.906  
G28  23718953.240   124643912.0982                                 
G30  22291986.040   117145117.547    22291987.820    87478495.695  
E 2  23626356.900   124157322.078    23626361.920    92714875.887  
E 3  23539142.240   123698998.434    23539148.160    92372621.680  
E 5  26794721.880   140807163.1722   26794729.400   105148193.0632 
E 8  22724639.080   119418773.453    22724643.420    89176351.500  
E25  24144598.600   126880690.828    24144604.600    94748560.320  
E30  26360193.740   138523706.7232   26360200.700   103443014.4342 
> 2021  1  5 21 50 48.0000000  0 16       0.000000000000
G 4  22283699.140   117101601.516    22283702.840    87446007.469  
G 5  24469134.140   128586132.6802                                 
G 7  21012381.240   110420808.805                                  
G 8  22564209.780   118575650.203    22564211.220    88546747.355  
G 9  20364792.220   107017660.188    20364793.220    79915787.867  
G14  23468345.440   123326946.7232                                 
G16  24342664.320   127921548.2972                                 
G27  23055764.940   121158803.566    23055766.100    90475728.906  
G28  23717646.660   124637045.9772                                 
G30  22291256.820   117141285.449    22291258.580    87475634.070  
E 2  23625963.920   124155256.949    23625968.940    92713333.746  
E 3  23539471.220   123700727.152    23539477.120    92373912.605  
E 5  26795746.680   140812548.5232   26795754.200   105152214.5902 
E 8  22723962.380   119415217.344    22723966.720    89173695.965  
E25  24145166.240   126883673.770    24145172.240    94750787.840  
E30  26359206.280   138518517.6132   26359213.240   103439139.4492 
> 2021  1  5 21 50 49.0000000  0 16       0.000000000000
G 4  22284193.160   117104197.617    22284196.860    87447946.117  
G 5  24468717.760   128583944.6412                                 
G 7  21012270.400   110420226.363                                  
G 8  22563846.380   118573740.527    22563847.820    88545321.305  
G 9  20364923.940   107018352.367    20364924.940    79916304.758  
G14  23467689.660   123323500.5862                                 
G16  24343371.360   127925263.8242                                 
G27  23055779.920   121158882.230    23055781.080    90475787.652  
G28  23716993.420   124633613.2382                                 
G30  22290892.260   117139369.637    22290894.020    87474203.434  
E 2  23625767.520   124154224.902    23625772.560    92712563.063  
E 3  23539635.800   123701592.090    23539641.700    92374558.500  
E 5  26796259.120   140815241.4412   26796266.660   105154225.5312 
E 8  22723624.100   119413439.676    22723628.440    89172368.488  
E25  24145450.120   126885165.598    24145456.140    94751901.867  
E30  26358712.600   138515923.3052   26358719.560   103437202.1412 
> 2021  1  5 21 50 50.0000000  0 16       0.000000000000
G 4  22284687.240   117106794.059    22284690.960    87449885.023  
G 5  24468301.500   128581757.0902                                 
G 7  21012159.600   110419644.113                                  
G 8  22563483.060   118571831.324    22563484.500    88543895.605  
G 9  20365055.760   107019045.086    20365056.760    79916822.051  
G14  23467033.940   123320054.6882                                 
G16  24344078.440   127928979.4842                                 
G27  23055795.020   121158961.555    23055796.160    90475846.895  
G28  23716340.240   124630180.7192                                 
G30  22290527.720   117137453.992    22290529.480    87472772.926  
E 2  23625571.200   124153193.191    23625576.220    92711792.629  
E 3  23539800.480   123702457.406    23539806.380    92375204.676  
E 5  26796771.600   140817934.5472   26796779.140   105156236.6172 
E 8  22723285.880   119411662.270    22723290.200    89171041.203  
E25  24145734.040   126886657.668    24145740.060    94753016.074  
E30  26358218.940   138513329.1452   26358225.920   103435264.9452 
> 2021  1  5 21 50 51.0000000  0 16       0.000000000000
G 4  22285181.400   117109390.855    22285185.100    87451824.191  
G 5  24467885.300   128579570.0272                                 
G 7  21012048.840   110419062.047                                  
G 8  22563119.860   118569922.602    22563121.280    88542470.266  
G 9  20365187.680   107019738.316    20365188.680    79917339.727  
G14  23466378.240   123316609.0042                                 
G16  24344785.520   127932695.2812                                 
G27  23055810.240   121159041.551    23055811.400    90475906.637  
G28  23715687.100   124626748.3952                                 
G30  22290163.220   117135538.531    22290164.980    87471342.555  
E 2  23625374.940   124152161.828    23625379.960    92711022.457  
E 3  23539965.200   123703323.098    23539971.100    92375851.133  
E 5  26797284.120   140820627.8092   26797291.640   105158247.8162 
E 8  22722947.700   119409885.121    22722952.020    89169714.113  
E25  24146018.020   126888149.988    24146024.040    94754130.469  
E30  26357725.320   138510735.1252   26357732.280   103433327.8522 
> 2021  1  5 21 50 52.0000000  0 16       0.000000000000
G 4  22285675.620   117111987.992    22285679.320    87453763.613  
G 5  24467469.220   128577383.4652                                 
G 7  21011938.120   110418480.172                                  
G 8  22562756.720   118568014.375    22562758.160    88541045.297  
G 9  20365319.700   107020432.074    20365320.680    79917857.797  
G14  23465722.600   123313163.5552                                 
G16  24345492.640   127936411.2072                                 
G27  23055825.580   121159122.203    23055826.740    90475966.867  
G28  23715033.980   124623316.3052                                 
G30  22289798.740   117133623.223    22289800.500    87469912.293  
E 2  23625178.740   124151130.793    23625183.760    92710252.527  
E 3  23540130.020   123704189.176    23540135.920    92376497.883  
E 5  26797796.660   140823321.2272   26797804.200   105160259.1372 
E 8  22722609.560   119408108.227    22722613.900    89168387.211  
E25  24146302.060   126889642.539    24146308.060    94755245.035  
E30  26357231.720   138508141.2852   26357238.700   103431390.8952 
> 2021  1  5 21 50 53.0000000  0 16       0.000000000000
G 4  22286169.900   117114585.477    22286173.620    87455703.297  
G 5  24467053.220   128575197.3912                                 
G 7  21011827.420   110417898.480                                  
G 8  22562393.700   118566106.633    22562395.120    88539620.688  
G 9  20365451.800   107021126.355    20365452.800    79918376.258  
G14  23465066.980   123309718.3052                                 
G16  24346199.780   127940127.2732                                 
G27  23055841.060   121159203.535    23055842.220    90476027.605  
G28  23714380.920   124619884.4222                                 
G30  22289434.300   117131708.086    22289436.060    87468482.168  
E 2  23624982.600   124150100.109    23624987.620    92709482.859  
E 3  23540294.900   123705055.637    23540300.800    92377144.914  
E 5  26798309.220   140826014.8242   26798316.760   105162270.5862 
E 8  22722271.480   119406331.605    22722275.820    89167060.516  
E25  24146586.120   126891135.340    24146592.140    94756359.789  
E30  26356738.160   138505547.5902   26356745.120   103429454.0472 
> 2021  1  5 21 50 54.0000000  0 16       0.000000000000
G 4  22286664.260   117117183.305    22286667.960    87457643.234  
G 5  24466637.320   128573011.7972                                 
G 7  21011716.760   110417316.980                                  
G 8  22562030.760   118564199.359    22562032.180    88538196.430  
G 9  20365584.020   107021821.156    20365585.020    79918895.105  
G14  23464411.420   123306273.2932                                 
G16  24346906.960   127943843.4692                                 
G27  23055856.660   121159285.516    23055857.820    90476088.828  
G28  23713727.900   124616452.7622                                 
G30  22289069.900   117129793.113    22289071.660    87467052.156  
E 2  23624786.540   124149069.766    23624791.560    92708713.445  
E 3  23540459.860   123705922.477    23540465.760    92377792.230  
E 5  26798821.840   140828708.5862   26798829.380   105164282.1602 
E 8  22721933.440   119404555.234    22721937.780    89165734.004  
E25  24146870.240   126892628.383    24146876.260    94757474.727  
E30  26356244.620   138502954.0392   26356251.600   103427517.3052 
> 2021  1  5 21 50 55.0000000  0 16       0.000000000000
G 4  22287158.680   117119781.477    22287162.380    87459583.434  
G 5  24466221.500   128570826.6952                                 
G 7  21011606.140   110416735.660                                  
G 8  22561667.900   118562292.535    22561669.320    88536772.508  
G 9  20365716.340   107022516.484    20365717.340    79919414.348  
G14  23463755.880   123302828.4772                                 
G16  24347614.160   127947559.7972                                 
G27  23055872.380   121159368.172    23055873.540    90476150.555  
G28  23713074.920   124613021.3132                                 
G30  22288705.520   117127878.293    22288707.280    87465622.262  
E 2  23624590.540   124148039.758    23624595.560    92707944.285  
E 3  23540624.880   123706789.699    23540630.780    92378439.832  
E 5  26799334.480   140831402.5162   26799342.020   105166293.8592 
E 8  22721595.460   119402779.133    22721599.800    89164407.691  
E25  24147154.400   126894121.664    24147160.420    94758589.836  
E30  26355751.120   138500360.6562   26355758.080   103425580.6882 
> 2021  1  5 21 50 56.0000000  0 16       0.000000000000
G 4  22287653.160   117122380.008    22287656.860    87461523.898  
G 5  24465805.780   128568642.0902                                 
G 7  21011495.560   110416154.531                                  
G 8  22561305.120   118560386.191    22561306.560    88535348.941  
G 9  20365848.760   107023212.348    20365849.760    79919933.988  
G14  23463100.400   123299383.9102                                 
G16  24348321.380   127951276.2772                                 
G27  23055888.240   121159451.500    23055889.400    90476212.785  
G28  23712421.960   124609590.0592                                 
G30  22288341.180   117125963.641    22288342.940    87464192.496  
E 2  23624394.600   124147010.098    23624399.620    92707175.383  
E 3  23540789.980   123707657.305    23540795.880    92379087.715  
E 5  26799847.140   140834096.6132   26799854.680   105168305.6842 
E 8  22721257.540   119401003.285    22721261.860    89163081.574  
E25  24147438.620   126895615.195    24147444.620    94759705.137  
E30  26355257.640   138497767.4262   26355264.620   103423644.1842 
> 2021  1  5 21 50 57.0000000  0 16       0.000000000000
G 4  22288147.700   117124978.883    22288151.420    87463464.621  
G 5  24465390.160   128566457.9802                                 
G 7  21011385.000   110415573.598                                  
G 8  22560942.460   118558480.332    22560943.880    88533925.742  
G 9  20365981.280   107023908.734    20365982.280    79920454.020  
G14  23462444.960   123295939.5512                                 
G16  24349028.620   127954992.8872                                 
G27  23055904.220   121159535.477    23055905.380    90476275.500  
G28  23711769.060   124606159.0272                                 
G30  22287976.860   117124049.152    22287978.620    87462762.848  
E 2  23624198.720   124145980.785    23624203.740    92706406.742  
E 3  23540955.160   123708525.297    23540961.060    92379735.895  
E 5  26800359.840   140836790.8832   26800367.380   105170317.6372 
E 8  22720919.660   119399227.707    22720923.980    89161755.656  
E25  24147722.860   126897108.969    24147728.880    94760820.613  
E30  26354764.200   138495174.3672   26354771.160   103421707.8092 
> 2021  1  5 21 50 58.0000000  0 16       0.000000000000
G 4  22288642.320   117127578.094    22288646.020    87465405.594  
G 5  24464974.640   128564274.3552                                 
G 7  21011274.500   110414992.836                                  
G 8  22560579.880   118556574.938    22560581.300    88532502.887  
G 9  20366113.900   107024605.633    20366114.880    79920974.438  
G14  23461789.560   123292495.4062                                 
G16  24349735.900   127958709.6252                                 
G27  23055920.340   121159620.133    23055921.480    90476338.719  
G28  23711116.200   124602728.2072                                 
G30  22287612.580   117122134.816    22287614.320    87461333.316  
E 2  23624002.920   124144951.789    23624007.940    92705638.336  
E 3  23541120.400   123709393.656    23541126.300    92380384.344  
E 5  26800872.580   140839485.3052   26800880.120   105172329.7072 
E 8  22720581.820   119397452.379    22720586.140    89160429.926  
E25  24148007.160   126898602.965    24148013.180    94761936.262  
E30  26354270.780   138492581.4492   26354277.760   103419771.5392 
> 2021  1  5 21 50 59.0000000  0 16       0.000000000000
G 4  22289137.000   117130177.664    22289140.700    87467346.832  
G 5  24464559.200   128562091.2272                                 
G 7  21011164.020   110414412.270                                  
G 8  22560217.380   118554670.047    22560218.800    88531080.410  
G 9  20366246.620   107025303.066    20366247.600    79921495.250  
G14  23461134.220   123289051.5162                                 
G16  24350443.200   127962426.5042                                 
G27  23055936.560   121159705.445    23055937.720    90476402.434  
G28  23710463.380   124599297.6092                                 
G30  22287248.320   117120220.652    22287250.080    87459903.914  
E 2  23623807.180   124143923.156    23623812.200    92704870.203  
E 3  23541285.720   123710262.406    23541291.620    92381033.082  
E 5  26801385.340   140842179.9062   26801392.880   105174341.9062 
E 8  22720244.040   119395677.316    22720248.360    89159104.391  
E25  24148291.520   126900097.227    24148297.520    94763052.105  
E30  26353777.400   138489988.7032   26353784.360   103417835.3982 
> 2021  1  5 21 51  0.0000000  0 16       0.000000000000
G 4  22289631.760   117132777.582    22289635.460    87469288.332  
G 5  24464143.860   128559908.5822                                 
G 7  21011053.580   110413831.883                                  
G 8  22559854.980   118552765.629    22559856.400    88529658.281  
G 9  20366379.420   107026001.020    20366380.420    79922016.453  
G14  23460478.900   123285607.8052                                 
G16  24351150.520   127966143.5272                                 
G27  23055952.940   121159791.430    23055954.080    90476466.645  
G28  23709810.600   124595867.2112                                 
G30  22286884.100   117118306.660    22286885.860    87458474.637  
E 2  23623611.500   124142894.863    23623616.520    92704102.320  
E 3  23541451.100   123711131.543    23541457.000    92381682.117  
E 5  26801898.140   140844874.6762   26801905.680   105176354.2302 
E 8  22719906.300   119393902.520    22719910.640    89157779.055  
E25  24148575.900   126901591.719    24148581.920    94764168.121  
E30  26353284.040   138487396.1052   26353291.020   103415899.3672 
> 2021  1  5 21 51  1.0000000  0 16       0.000000000000
G 4  22290126.560   117135377.844    22290130.260    87471230.086  
G 5  24463728.600   128557726.4262                                 
G 7  21010943.160   110413251.691                                  
G 8  22559492.680   118550861.684    22559494.100    88528236.512  
G 9  20366512.340   107026699.504    20366513.340    79922538.051  
G14  23459823.620   123282164.3402                                 
G16  24351857.880   127969860.6842                                 
G27  23055969.420   121159878.063    23055970.560    90476531.344  
G28  23709157.860   124592437.0232                                 
G30  22286519.900   117116392.824    22286521.660    87457045.480  
E 2  23623415.880   124141866.898    23623420.900    92703334.684  
E 3  23541616.560   123712001.051    23541622.480    92382331.422  
E 5  26802410.980   140847569.6052   26802418.520   105178366.6762 
E 8  22719568.620   119392127.973    22719572.940    89156453.906  
E25  24148860.340   126903086.449    24148866.360    94765284.316  
E30  26352790.720   138484803.6602   26352797.680   103413963.4532 
> 2021  1  5 21 51  2.0000000  0 16       0.000000000000
G 4  22290621.440   117137978.441    22290625.140    87473172.098  
G 5  24463313.440   128555544.7732                                 
G 7  21010832.800   110412671.684                                  
G 8  22559130.460   118548958.207    22559131.880    88526815.086  
G 9  20366645.360   107027398.516    20366646.360    79923060.047  
G14  23459168.400   123278721.0982                                 
G16  24352565.260   127973577.9802                                 
G27  23055986.040   121159965.379    23055987.180    90476596.551  
G28  23708505.160   124589007.0702                                 
G30  22286155.740   117114479.160    22286157.500    87455616.449  
E 2  23623220.320   124140839.285    23623225.340    92702567.309  
E 3  23541782.100   123712870.949    23541788.000    92382981.020  
E 5  26802923.840   140850264.7072   26802931.380   105180379.2502 
E 8  22719230.980   119390353.699    22719235.320    89155128.965  
E25  24149144.840   126904581.430    24149150.840    94766400.699  
E30  26352297.440   138482211.3982   26352304.400   103412027.6722 
> 2021  1  5 21 51  3.0000000  0 16       0.000000000000
G 4  22291116.380   117140579.398    22291120.080    87475114.371  
G 5  24462898.380   128553363.5982                                 
G 7  21010722.460   110412091.859                                  
G 8  22558768.320   118547055.191    22558769.740    88525394.012  
G 9  20366778.480   107028098.051    20366779.460    79923582.430  
G14  23458513.220   123275278.0662                                 
G16  24353272.660   127977295.4062                                 
G27  23056002.780   121160053.355    23056003.920    90476662.254  
G28  23707852.500   124585577.3322                                 
G30  22285791.620   117112565.672    22285793.380    87454187.551  
E 2  23623024.840   124139812.016    23623029.860    92701800.195  
E 3  23541947.720   123713741.230    23541953.620    92383630.906  
E 5  26803436.740   140852959.9842   26803444.280   105182391.9572 
E 8  22718893.400   119388579.684    22718897.720    89153804.215  
E25  24149429.360   126906076.652    24149435.380    94767517.258  
E30  26351804.160   138479619.2542   26351811.120   103410091.9802 
> 2021  1  5 21 51  4.0000000  0 16       0.000000000000
G 4  22291611.400   117143180.703    22291615.100    87477056.906  
G 5  24462483.420   128551182.9262                                 
G 7  21010612.160   110411512.223                                  
G 8  22558406.280   118545152.652    22558407.700    88523973.289  
G 9  20366911.700   107028798.102    20366912.680    79924105.199  
G14  23457858.060   123271835.2662                                 
G16  24353980.080   127981012.9802                                 
G27  23056019.640   121160142.000    23056020.780    90476728.449  
G28  23707199.880   124582147.7892                                 
G30  22285427.520   117110652.336    22285429.280    87452758.766  
E 2  23622829.420   124138785.082    23622834.440    92701033.328  
E 3  23542113.400   123714611.887    23542119.300    92384281.074  
E 5  26803949.660   140855655.4222   26803957.200   105184404.7812 
E 8  22718555.860   119386805.926    22718560.200    89152479.652  
E25  24149713.940   126907572.113    24149719.960    94768634.000  
E30  26351310.920   138477027.2812   26351317.880   103408156.4182 
> 2021  1  5 21 51  5.0000000  0 16       0.000000000000
G 4  22292106.480   117145782.363    22292110.180    87478999.707  
G 5  24462068.540   128549002.7462                                 
G 7  21010501.880   110410932.766                                  
G 8  22558044.340   118543250.594    22558045.740    88522552.922  
G 9  20367045.020   107029498.684    20367046.000    79924628.363  
G14  23457202.960   123268392.6842                                 
G16  24354687.540   127984730.7072                                 
G27  23056036.640   121160231.301    23056037.780    90476795.141  
G28  23706547.300   124578718.4772                                 
G30  22285063.460   117108739.168    22285065.220    87451330.105  
E 2  23622634.080   124137758.488    23622639.100    92700266.719  
E 3  23542279.140   123715482.930    23542285.060    92384931.527  
E 5  26804462.620   140858351.0272   26804470.160   105186417.7342 
E 8  22718218.380   119385032.438    22718222.700    89151155.293  
E25  24149998.560   126909067.813    24150004.580    94769750.918  
E30  26350817.720   138474435.4692   26350824.680   103406220.9772 
> 2021  1  5 21 51  7.0000000  0 16       0.000000000000
G 4  22293096.840   117150986.695    22293100.540    87482886.063  
G 5  24461239.060   128544643.8522                                 
G 7  21010281.460   110409774.414                                  
G 8  22557320.700   118539447.887    22557322.120    88519713.242  
G 9  20367311.940   107030901.414    20367312.920    79925675.863  
G14  23455892.900   123261508.1912                                 
G16  24356102.540   127992166.5592                                 
G27  23056071.000   121160411.918    23056072.140    90476930.020  
G28  23705242.260   124571860.4692                                 
G30  22284335.440   117104913.328    22284337.180    87448473.152  
E 2  23622243.560   124135706.320    23622248.580    92698734.254  
E 3  23542610.880   123717226.152    23542616.780    92386233.285  
E 5  26805488.620   140863742.7342   26805496.160   105190444.0082 
E 8  22717543.560   119381486.227    22717547.880    89148507.152  
E25  24150567.940   126912059.953    24150573.960    94771985.309  
E30  26349831.400   138469252.3202   26349838.360   103402350.4452 
> 2021  1  5 21 51  8.0000000  0 16       0.000000000000
G 4  22293592.100   117153589.371    22293595.800    87484829.617  
G 5  24460824.480   128542465.1412                                 
G 7  21010171.300   110409195.527                                  
G 8  22556959.020   118537547.223    22556960.420    88518293.918  
G 9  20367445.560   107031603.574    20367446.540    79926200.203  
G14  23455237.920   123258066.2732                                 
G16  24356810.080   127995884.6722                                 
G27  23056088.380   121160503.211    23056089.520    90476998.195  
G28  23704589.800   124568431.7702                                 
G30  22283971.460   117103000.645    22283973.200    87447044.848  
E 2  23622048.400   124134680.746    23622053.420    92697968.402  
E 3  23542776.840   123718098.336    23542782.740    92386884.590  
E 5  26806001.680   140866438.8402   26806009.220   105192457.3322 
E 8  22717206.220   119379713.516    22717210.560    89147183.375  
E25  24150852.700   126913556.371    24150858.720    94773102.762  
E30  26349338.280   138466660.9572   26349345.240   103400415.3362 
> 2021  1  5 21 51  9.0000000  0 16       0.000000000000
G 4  22294087.440   117156192.410    22294091.140    87486773.445  
G 5  24460409.980   128540286.9262                                 
G 7  21010061.180   110408616.828                                  
G 8  22556597.420   118535647.043    22556598.840    88516874.953  
G 9  20367579.280   107032306.266    20367580.260    79926724.938  
G14  23454582.980   123254624.5782                                 
G16  24357517.640   127999602.9412                                 
G27  23056105.880   121160595.180    23056107.020    90477066.871  
G28  23703937.380   124565003.3132                                 
G30  22283607.520   117101088.148    22283609.260    87445616.688  
E 2  23621853.300   124133655.527    23621858.320    92697202.816  
E 3  23542942.880   123718970.902    23542948.800    92387536.180  
E 5  26806514.760   140869135.1092   26806522.300   105194470.7772 
E 8  22716868.940   119377941.074    22716873.260    89145859.797  
E25  24151137.520   126915053.043    24151143.520    94774220.406  
E30  26348845.200   138464069.7812   26348852.160   103398480.3672 
> 2021  1  5 21 51 10.0000000  0 16       0.000000000000
G 4  22294582.860   117158795.746    22294586.560    87488717.516  
G 5  24459995.520   128538109.4062                                 
G 7  21009951.100   110408038.207                                  
G 8  22556235.920   118533747.355    22556237.300    88515456.414  
G 9  20367713.100   107033009.430    20367714.080    79927250.055  
G14  23453928.060   123251183.1912                                 
G16  24358225.220   128003321.336                                  
G27  23056123.500   121160687.813    23056124.640    90477136.090  
G28  23703284.980   124561575.1992                                 
G30  22283243.620   117099175.754    22283245.360    87444188.625  
E 2  23621658.260   124132630.668    23621663.280    92696437.520  
E 3  23543109.000   123719843.855    23543114.900    92388188.063  
E 5  26807027.880   140871831.488    26807035.440   105196484.273  
E 8  22716531.700   119376168.848    22716536.040    89144536.363  
E25  24151422.360   126916549.984    24151428.360    94775338.277  
E30  26348352.100   138461478.8832   26348359.040   103396545.6882 
> 2021  1  5 21 51 11.0000000  0 16       0.000000000000
G 4  22295078.340   117161399.473    22295082.020    87490661.859  
G 5  24459581.200   128535932.1762                                 
G 7  21009841.040   110407459.875                                  
G 8  22555874.500   118531848.160    22555875.900    88514038.184  
G 9  20367847.020   107033713.168    20367848.000    79927775.574  
G14  23453273.220   123247741.9492                                 
G16  24358932.840   128007039.867                                  
G27  23056141.260   121160781.117    23056142.380    90477205.770  
G28  23702632.640   124558147.1602                                 
G30  22282879.740   117097263.590    22282881.480    87442760.711  
E 2  23621463.300   124131606.125    23621468.320    92695672.441  
E 3  23543275.200   123720717.195    23543281.100    92388840.230  
E 5  26807541.040   140874528.094    26807548.580   105198497.969  
E 8  22716194.520   119374396.930    22716198.860    89143213.180  
E25  24151707.260   126918047.145    24151713.260    94776456.285  
E30  26347859.080   138458888.0042   26347866.020   103394610.9412 
> 2021  1  5 21 51 12.0000000  0 16       0.000000000000
G 4  22295573.880   117164003.555    22295577.560    87492606.461  
G 5  24459166.980   128533755.4412                                 
G 7  21009731.040   110406881.734                                  
G 8  22555513.180   118529949.426    22555514.580    88512620.301  
G 9  20367981.020   107034417.430    20367982.000    79928301.484  
G14  23452618.400   123244300.9102                                 
G16  24359640.460   128010758.527                                  
G27  23056159.140   121160875.086    23056160.260    90477275.941  
G28  23701980.340   124554719.3362                                 
G30  22282515.900   117095351.570    22282517.640    87441332.906  
E 2  23621268.400   124130581.922    23621273.420    92694907.613  
E 3  23543441.460   123721590.906    23543447.360    92389492.676  
E 5  26808054.200   140877224.875    26808061.760   105200511.797  
E 8  22715857.380   119372625.266    22715861.720    89141890.184  
E25  24151992.200   126919544.539    24151998.200    94777574.469  
E30  26347366.080   138456297.3012   26347373.020   103392676.3242 
> 2021  1  5 21 51 13.0000000  0 16       0.000000000000
G 4  22296069.480   117166607.992    22296073.180    87494551.336  
G 5  24458752.860   128531579.2032                                 
G 7  21009621.040   110406303.785                                  
G 8  22555151.960   118528051.191    22555153.360    88511202.789  
G 9  20368115.140   107035122.219    20368116.120    79928827.785  
G14  23451963.640   123240860.1292                                 
G16  24360348.120   128014477.320                                  
G27  23056177.140   121160969.719    23056178.280    90477346.609  
G28  23701328.080   124551291.7342                                 
G30  22282152.080   117093439.723    22282153.820    87439905.227  
E 2  23621073.560   124129558.063    23621078.580    92694143.043  
E 3  23543607.780   123722465.016    23543613.700    92390145.418  
E 5  26808567.420   140879921.828    26808574.980   105202525.758  
E 8  22715520.300   119370853.871    22715524.620    89140567.391  
E25  24152277.180   126921042.184    24152283.200    94778692.840  
E30  26346873.120   138453706.7502   26346880.060   103390741.8242 
> 2021  1  5 21 51 14.0000000  0 16       0.000000000000
G 4  22296565.140   117169212.758    22296568.840    87496496.453  
G 5  24458338.820   128529403.4532                                 
G 7  21009511.100   110405726.027                                  
G 8  22554790.820   118526153.430    22554792.220    88509785.629  
G 9  20368249.360   107035827.520    20368250.340    79929354.473  
G14  23451308.920   123237419.5552                                 
G16  24361055.820   128018196.254                                  
G27  23056195.280   121161065.023    23056196.400    90477417.777  
G28  23700675.880   124547864.3632                                 
G30  22281788.300   117091528.051    22281790.040    87438477.680  
E 2  23620878.800   124128534.551    23620883.800    92693378.730  
E 3  23543774.200   123723339.500    23543780.100    92390798.445  
E 5  26809080.660   140882618.941    26809088.220   105204539.832  
E 8  22715183.260   119369082.746    22715187.580    89139244.797  
