     3.03           OBSERVATION DATA    M: Mixed            RINEX VERSION / TYPE
sbp2rinex v2.2 (RTKL                    20210504 171529 UTC PGM / RUN BY / DATE 
log: 202101052110-202101052130.sbp                          COMMENT             
format: Swift Navigation SBP, option: CONVBASE,EPHALL,OBSALLCOMMENT             
                                                            MARKER NAME         
                                                            MARKER NUMBER       
                                                            MARKER TYPE         
                                                            OBSERVER / AGENCY   
                                                            REC # / TYPE / VERS 
                                                            ANT # / TYPE        
 -2711592.7870 -4352797.4638  3779532.8122                  APPROX POSITION XYZ 
        0.0000        0.0000        0.0000                  ANTENNA: DELTA H/E/N
G    4 C1C L1C C5I L5I                                      SYS / # / OBS TYPES 
E    4 C1B L1B C5I L5I                                      SYS / # / OBS TYPES 
  2021     1     5    21    10   20.0000000     GPS         TIME OF FIRST OBS   
  2021     1     5    21    40   16.0000000     GPS         TIME OF LAST OBS    
G                                                           SYS / PHASE SHIFT   
E                                                           SYS / PHASE SHIFT   
  0                                                         GLONASS SLOT / FRQ #
 C1C    0.000 C1P    0.000 C2C    0.000 C2P    0.000        GLONASS COD/PHS/BIS 
                                                            END OF HEADER       
> 2021  1  5 21 10 20.0000000  0 14       0.000000000000
G 3  24194577.380   127143285.078    24194581.240    94944653.242  
G 4  21290896.100   111884391.895    21290899.400    83550040.953  
G 7  21389125.100   112400605.020                                  
G 8  23662946.880   124349539.242    23662949.300    92858413.848  
G 9  20327926.000   106823927.301    20327926.980    79771117.375  
G16  22750643.960   119555429.719                                  
G27  23374583.280   122834198.602    23374584.920    91726833.695  
G30  23268693.960   122277742.883    23268696.440    91311297.605  
E 2  24295077.360   127671465.418    24295082.880    95339071.895  
E 3  23349014.820   122699871.371    23349020.800    91626520.043  
E 5  25660258.140   134845524.195    25660265.080   100696322.160  
E 8  23666005.400   124365679.730    23666010.260    92870467.684  
E24  27170672.120   142782828.371    27170690.580   106623552.195  
E25  23615710.740   124101365.051    23615716.880    92673089.320  
> 2021  1  5 21 10 21.0000000  0 14       0.000000000000
G 3  24195287.660   127147017.680    24195291.540    94947440.574  
G 4  21291216.640   111886076.262    21291219.920    83551298.762  
G 7  21388923.860   112399547.512                                  
G 8  23662426.960   124346807.105    23662429.400    92856373.621  
G 9  20327831.300   106823429.629    20327832.280    79770745.738  
G16  22751227.940   119558498.480                                  
G27  23374316.780   122832798.109    23374318.420    91725787.875  
G30  23268253.480   122275428.113    23268255.960    91309569.047  
E 2  24294723.620   127669606.527    24294729.140    95337683.758  
E 3  23349010.540   122699848.848    23349016.500    91626503.223  
E 5  25660675.900   134847719.539    25660682.840   100697961.539  
E 8  23665578.080   124363434.160    23665582.940    92868790.797  
E24  27171181.760   142785506.605    27171200.240   106625552.172  
E25  23615853.640   124102115.957    23615859.760    92673650.063  
> 2021  1  5 21 10 22.0000000  0 14       0.000000000000
G 3  24195997.960   127150750.293    24196001.820    94950227.914  
G 4  21291537.240   111887761.020    21291540.520    83552556.859  
G 7  21388722.660   112398490.223                                  
G 8  23661907.100   124344075.180    23661909.520    92854333.543  
G 9  20327736.680   106822932.402    20327737.660    79770374.434  
G16  22751811.980   119561567.633                                  
G27  23374050.360   122831398.137    23374052.020    91724742.441  
G30  23267813.020   122273113.512    23267815.500    91307840.609  
E 2  24294369.940   127667747.965    24294375.460    95336295.875  
E 3  23349006.300   122699826.656    23349012.280    91626486.652  
E 5  25661093.700   134849915.117    25661100.640   100699601.090  
E 8  23665150.780   124361188.707    23665155.640    92867113.996  
E24  27171691.420   142788184.910    27171709.900   106627552.203  
E25  23615996.600   124102867.219    23616002.720    92674211.070  
> 2021  1  5 21 10 23.0000000  0 14       0.000000000000
G 3  24196708.260   127154482.957    24196712.140    94953015.289  
G 4  21291857.900   111889446.172    21291861.200    83553815.250  
G 7  21388521.500   112397433.141                                  
G 8  23661387.260   124341343.449    23661389.680    92852293.617  
G 9  20327642.140   106822435.609    20327643.120    79770003.449  
G16  22752396.100   119564637.188                                  
G27  23373784.060   122829998.691    23373785.700    91723697.402  
G30  23267372.600   122270799.066    23267375.080    91306112.293  
E 2  24294016.320   127665889.727    24294021.840    95334908.230  
E 3  23349002.140   122699804.805    23349008.120    91626470.336  
E 5  25661511.560   134852110.926    25661518.500   100701240.816  
E 8  23664723.500   124358943.379    23664728.380    92865437.297  
E24  27172201.100   142790863.285    27172219.580   106629552.289  
E25  23616139.620   124103618.852    23616145.760    92674772.352  
> 2021  1  5 21 10 24.0000000  0 14       0.000000000000
G 3  24197418.580   127158215.652    24197422.440    94955802.688  
G 4  21292178.660   111891131.707    21292181.940    83555073.930  
G 7  21388320.380   112396376.277                                  
G 8  23660867.480   124338611.918    23660869.900    92850253.840  
G 9  20327547.700   106821939.258    20327548.660    79769632.801  
G16  22752980.280   119567707.137                                  
G27  23373517.860   122828599.750    23373519.500    91722652.738  
G30  23266932.200   122268484.785    23266934.680    91304384.094  
E 2  24293662.780   127664031.824    24293668.300    95333520.836  
E 3  23348998.060   122699783.293    23349004.020    91626454.273  
E 5  25661929.440   134854306.973    25661936.400   100702880.723  
E 8  23664296.240   124356698.184    23664301.120    92863760.688  
E24  27172710.800   142793541.742    27172729.260   106631552.430  
E25  23616282.720   124104370.840    23616288.840    92675333.902  
> 2021  1  5 21 10 25.0000000  0 14       0.000000000000
G 3  24198128.900   127161948.375    24198132.760    94958590.109  
G 4  21292499.480   111892817.645    21292502.760    83556332.906  
G 7  21388119.300   112395319.609                                  
G 8  23660347.720   124335880.586    23660350.140    92848214.211  
G 9  20327453.320   106821443.355    20327454.300    79769262.480  
G16  22753564.560   119570777.500                                  
G27  23373251.740   122827201.348    23373253.400    91721608.477  
G30  23266491.840   122266170.676    23266494.320    91302656.027  
E 2  24293309.300   127662174.246    24293314.820    95332133.684  
E 3  23348994.020   122699762.117    23349000.000    91626438.457  
E 5  25662347.380   134856503.250    25662354.320   100704520.797  
E 8  23663869.020   124354453.113    23663873.900    92862084.176  
E24  27173220.500   142796220.285    27173238.980   106633552.641  
E25  23616425.880   124105123.191    23616432.020    92675895.723  
> 2021  1  5 21 10 26.0000000  0 14       0.000000000000
G 3  24198839.220   127165681.129    24198843.080    94961377.555  
G 4  21292820.360   111894503.957    21292823.660    83557592.168  
G 7  21387918.280   112394263.156                                  
G 8  23659828.000   124333149.438    23659830.420    92846174.719  
G 9  20327359.040   106820947.887    20327360.000    79768892.488  
G16  22754148.900   119573848.242                                  
G27  23372985.740   122825803.477    23372987.380    91720564.613  
G30  23266051.520   122263856.730    23266053.980    91300928.082  
E 2  24292955.860   127660317.004    24292961.380    95330746.781  
E 3  23348990.060   122699741.293    23348996.020    91626422.906  
E 5  25662765.360   134858699.770    25662772.300   100706161.055  
E 8  23663441.820   124352208.172    23663446.700    92860407.758  
E24  27173730.220   142798898.906    27173748.700   106635552.910  
E25  23616569.120   124105875.918    23616575.260    92676457.824  
> 2021  1  5 21 10 27.0000000  0 14       0.000000000000
G 3  24199549.540   127169413.910    24199553.400    94964165.020  
G 4  21293141.340   111896190.680    21293144.640    83558851.734  
G 7  21387717.280   112393206.914                                  
G 8  23659308.320   124330418.512    23659310.740    92844135.395  
G 9  20327264.840   106820452.871    20327265.820    79768522.836  
G16  22754733.320   119576919.414                                  
G27  23372719.840   122824406.129    23372721.480    91719521.141  
G30  23265611.220   122261542.938    23265613.680    91299200.250  
E 2  24292602.500   127658460.094    24292608.020    95329360.129  
E 3  23348986.160   122699720.805    23348992.120    91626407.605  
E 5  25663183.400   134860896.523    25663190.340   100707801.488  
E 8  23663014.640   124349963.363    23663019.520    92858731.441  
E24  27174239.960   142801577.609    27174258.440   106637553.238  
E25  23616712.420   124106629.008    23616718.560    92677020.195  
> 2021  1  5 21 10 28.0000000  0 14       0.000000000000
G 3  24200259.880   127173146.758    24200263.740    94966952.535  
G 4  21293462.380   111897877.777    21293465.680    83560111.578  
G 7  21387516.320   112392150.875                                  
G 8  23658788.680   124327687.758    23658791.100    92842096.195  
G 9  20327170.720   106819958.285    20327171.700    79768153.500  
G16  22755317.820   119579990.961                                  
G27  23372454.020   122823009.289    23372455.660    91718478.047  
G30  23265170.940   122259229.332    23265173.420    91297472.559  
E 2  24292249.200   127656603.508    24292254.720    95327973.719  
E 3  23348982.320   122699700.645    23348988.280    91626392.555  
E 5  25663601.460   134863093.504    25663608.400   100709442.090  
E 8  23662587.500   124347718.676    23662592.360    92857055.215  
E24  27174749.720   142804256.387    27174768.200   106639553.621  
E25  23616855.800   124107382.453    23616861.940    92677582.836  
> 2021  1  5 21 10 30.0000000  0 14       0.000000000000
G 3  24201680.560   127180612.500    24201684.420    94972527.594  
G 4  21294104.700   111901253.156    21294107.980    83562632.152  
G 7  21387114.520   112390039.438                                  
G 8  23657749.480   124322226.777    23657751.900    92838018.191  
G 9  20326982.740   106818970.422    20326983.720    79767415.813  
G16  22756487.040   119586135.262                                  
G27  23371922.700   122820217.215    23371924.360    91716393.059  
G30  23264290.500   122254602.570    23264292.980    91294017.512  
E 2  24291542.800   127652891.301    24291548.320    95325201.617  
E 3  23348974.840   122699661.352    23348980.820    91626363.211  
E 5  25664437.740   134867488.152    25664444.680   100712723.805  
E 8  23661733.260   124343229.676    23661738.140    92853703.039  
E24  27175769.280   142809614.172    27175787.740   106643554.566  
E25  23617142.760   124108890.438    23617148.900    92678708.926  
> 2021  1  5 21 10 31.0000000  0 14       0.000000000000
G 3  24202390.920   127184345.434    24202394.780    94975315.172  
G 4  21294425.960   111902941.430    21294429.260    83563892.875  
G 7  21386913.680   112388984.031                                  
G 8  23657229.940   124319496.602    23657232.360    92835979.426  
G 9  20326888.880   106818477.168    20326889.840    79767047.473  
G16  22757071.760   119589208.020                                  
G27  23371657.200   122818821.965    23371658.840    91715351.148  
G30  23263850.320   122252289.438    23263852.800    91292290.176  
E 2  24291189.680   127651035.699    24291195.200    95323815.945  
E 3  23348971.200   122699642.207    23348977.160    91626348.918  
E 5  25664855.940   134869685.855    25664862.900   100714364.949  
E 8  23661306.180   124340985.355    23661311.060    92852027.090  
E24  27176279.080   142812293.180    27176297.540   106645555.125  
E25  23617286.340   124109644.965    23617292.480    92679272.375  
> 2021  1  5 21 10 32.0000000  0 14       0.000000000000
G 3  24203101.280   127188078.422    24203105.160    94978102.793  
G 4  21294747.320   111904630.094    21294750.600    83565153.891  
G 7  21386712.880   112387928.832                                  
G 8  23656710.440   124316766.633    23656712.860    92833940.816  
G 9  20326795.100   106817984.348    20326796.060    79766679.457  
G16  22757656.580   119592281.176                                  
G27  23371391.800   122817427.234    23371393.440    91714309.633  
G30  23263410.180   122249976.469    23263412.660    91290562.957  
E 2  24290836.640   127649180.422    24290842.160    95322430.516  
E 3  23348967.620   122699623.406    23348973.580    91626334.883  
E 5  25665274.200   134871883.777    25665281.140   100716006.258  
E 8  23660879.140   124338741.176    23660884.000    92850351.246  
E24  27176788.880   142814972.258    27176807.360   106647555.738  
E25  23617430.000   124110399.859    23617436.120    92679836.102  
> 2021  1  5 21 10 33.0000000  0 14       0.000000000000
G 3  24203811.640   127191811.395    24203815.520    94980890.398  
G 4  21295068.720   111906319.156    21295072.020    83566415.199  
G 7  21386512.140   112386873.840                                  
G 8  23656190.980   124314036.863    23656193.400    92831902.352  
G 9  20326701.400   106817491.961    20326702.360    79766311.766  
G16  22758241.460   119595354.738                                  
G27  23371126.480   122816033.047    23371128.120    91713268.520  
G30  23262970.080   122247663.668    23262972.540    91288835.867  
E 2  24290483.660   127647325.477    24290489.160    95321045.332  
E 3  23348964.100   122699604.938    23348970.080    91626321.098  
E 5  25665692.500   134874081.926    25665699.440   100717647.734  
E 8  23660452.100   124336497.117    23660456.980    92848675.492  
E24  27177298.720   142817651.418    27177317.180   106649556.414  
E25  23617573.720   124111155.121    23617579.840    92680400.098  
> 2021  1  5 21 10 34.0000000  0 14       0.000000000000
G 3  24204522.020   127195544.449    24204525.900    94983678.070  
G 4  21295390.220   111908008.605    21295393.520    83567676.801  
G 7  21386311.420   112385819.059                                  
G 8  23655671.560   124311307.305    23655673.980    92829864.047  
G 9  20326607.800   106817000.031    20326608.760    79765944.414  
G16  22758826.400   119598428.703                                  
G27  23370861.280   122814639.352    23370862.920    91712227.773  
G30  23262530.000   122245351.027    23262532.460    91287108.895  
E 2  24290130.740   127645470.852    24290136.240    95319660.391  
E 3  23348960.660   122699586.820    23348966.620    91626307.570  
E 5  25666110.840   134876280.297    25666117.780   100719289.379  
E 8  23660025.100   124334253.188    23660029.960    92846999.836  
E24  27177808.560   142820330.664    27177827.020   106651557.148  
E25  23617717.500   124111910.746    23617723.640    92680964.367  
> 2021  1  5 21 10 35.0000000  0 14       0.000000000000
G 3  24205232.400   127199277.496    24205236.260    94986465.730  
G 4  21295711.780   111909698.438    21295715.080    83568938.691  
G 7  21386110.740   112384764.492                                  
G 8  23655152.180   124308577.922    23655154.600    92827825.875  
G 9  20326514.260   106816508.527    20326515.220    79765577.383  
G16  22759411.440   119601503.055                                  
G27  23370596.160   122813246.188    23370597.800    91711187.426  
G30  23262089.940   122243038.555    23262092.420    91285382.051  
E 2  24289777.880   127643616.559    24289783.380    95318275.695  
E 3  23348957.280   122699569.027    23348963.240    91626294.289  
E 5  25666529.220   134878478.926    25666536.160   100720931.215  
E 8  23659598.120   124332009.375    23659602.980    92845324.266  
E24  27178318.420   142823009.980    27178336.880   106653557.941  
E25  23617861.360   124112666.730    23617867.500    92681528.906  
> 2021  1  5 21 10 36.0000000  0 14       0.000000000000
G 3  24205942.780   127203010.621    24205946.660    94989253.453  
G 4  21296033.420   111911388.664    21296036.720    83570200.875  
G 7  21385910.100   112383710.125                                  
G 8  23654632.840   124305848.762    23654635.260    92825787.867  
G 9  20326420.820   106816017.473    20326421.780    79765210.688  
G16  22759996.540   119604577.809                                  
G27  23370331.160   122811853.566    23370332.800    91710147.480  
G30  23261649.920   122240726.238    23261652.400    91283655.320  
E 2  24289425.080   127641762.590    24289430.580    95316891.242  
E 3  23348953.960   122699551.578    23348959.920    91626281.262  
E 5  25666947.640   134880677.785    25666954.580   100722573.223  
E 8  23659171.160   124329765.715    23659176.020    92843648.813  
E24  27178828.300   142825689.387    27178846.760   106655558.797  
E25  23618005.300   124113423.082    23618011.420    92682093.715  
> 2021  1  5 21 10 37.0000000  0 14       0.000000000000
G 3  24206653.180   127206743.727    24206657.040    94992041.160  
G 4  21296355.140   111913079.273    21296358.420    83571463.340  
G 7  21385709.500   112382655.973                                  
G 8  23654113.540   124303119.777    23654115.940    92823749.988  
G 9  20326327.460   106815526.855    20326328.420    79764844.316  
G16  22760581.720   119607652.965                                  
G27  23370066.240   122810461.453    23370067.880    91709107.914  
G30  23261209.940   122238414.098    23261212.400    91281928.723  
E 2  24289072.340   127639908.953    24289077.840    95315507.039  
E 3  23348950.700   122699534.473    23348956.660    91626268.492  
E 5  25667366.120   134882876.840    25667373.060   100724215.371  
E 8  23658744.220   124327522.168    23658749.080    92841973.441  
E24  27179338.180   142828368.855    27179356.640   106657559.707  
E25  23618149.300   124114179.789    23618155.420    92682658.797  
> 2021  1  5 21 10 38.0000000  0 14       0.000000000000
G 3  24207363.580   127210476.891    24207367.440    94994828.910  
G 4  21296676.920   111914770.289    21296680.220    83572726.109  
G 7  21385508.940   112381602.035                                  
G 8  23653594.260   124300390.984    23653596.680    92821712.254  
G 9  20326234.180   106815036.680    20326235.140    79764478.277  
G16  22761166.980   119610728.508                                  
G27  23369801.440   122809069.887    23369803.080    91708068.758  
G30  23260769.980   122236102.102    23260772.440    91280202.230  
E 2  24288719.660   127638055.652    24288725.180    95314123.082  
E 3  23348947.500   122699517.699    23348953.460    91626255.969  
E 5  25667784.640   134885076.191    25667791.580   100725857.750  
E 8  23658317.320   124325278.742    23658322.180    92840298.160  
E24  27179848.080   142831048.414    27179866.540   106659560.676  
E25  23618293.360   124114936.871    23618299.480    92683224.148  
> 2021  1  5 21 10 39.0000000  0 14       0.000000000000
G 3  24208073.980   127214210.098    24208077.860    94997616.695  
G 4  21296998.800   111916461.688    21297002.080    83573989.168  
G 7  21385308.420   112380548.309                                  
G 8  23653075.020   124297662.402    23653077.440    92819674.680  
G 9  20326140.980   106814546.957    20326141.960    79764112.574  
G16  22761752.320   119613804.457                                  
G27  23369536.720   122807678.832    23369538.360    91707029.988  
G30  23260330.060   122233790.285    23260332.520    91278475.879  
E 2  24288367.060   127636202.680    24288372.560    95312739.375  
E 3  23348944.380   122699501.285    23348950.340    91626243.715  
E 5  25668203.200   134887275.750    25668210.140   100727500.281  
E 8  23657890.420   124323035.445    23657895.280    92838622.973  
E24  27180358.000   142833728.051    27180376.460   106661561.707  
E25  23618437.500   124115694.309    23618443.620    92683789.773  
> 2021  1  5 21 10 40.0000000  0 14       0.000000000000
G 3  24208784.400   127217943.336    24208788.260    95000404.500  
G 4  21297320.720   111918153.480    21297324.020    83575252.520  
G 7  21385107.940   112379494.781                                  
G 8  23652555.840   124294934.020    23652558.240    92817637.250  
G 9  20326047.880   106814057.668    20326048.840    79763747.195  
G16  22762337.740   119616880.813                                  
G27  23369272.120   122806288.313    23369273.760    91705991.613  
G30  23259890.160   122231478.625    23259892.620    91276749.637  
E 2  24288014.500   127634350.031    24288020.020    95311355.906  
E 3  23348941.320   122699485.195    23348947.280    91626231.703  
E 5  25668621.820   134889475.551    25668628.740   100729142.992  
E 8  23657463.560   124320792.289    23657468.420    92836947.895  
E24  27180867.940   142836407.766    27180886.400   106663562.793  
E25  23618581.700   124116452.113    23618587.820    92684355.672  
> 2021  1  5 21 10 41.0000000  0 14       0.000000000000
G 3  24209494.800   127221676.578    24209498.680    95003192.309  
G 4  21297642.740   111919845.660    21297646.040    83576516.156  
G 7  21384907.500   112378441.469                                  
G 8  23652036.680   124292205.828    23652039.080    92815599.969  
G 9  20325954.860   106813568.809    20325955.820    79763382.137  
G16  22762923.220   119619957.563                                  
G27  23369007.620   122804898.313    23369009.260    91704953.625  
G30  23259450.300   122229167.129    23259452.760    91275023.523  
E 2  24287662.020   127632497.703    24287667.520    95309972.680  
E 3  23348938.320   122699469.438    23348944.280    91626219.941  
E 5  25669040.460   134891675.574    25669047.400   100730785.867  
E 8  23657036.740   124318549.254    23657041.600    92835272.906  
E24  27181377.880   142839087.551    27181396.340   106665563.938  
E25  23618725.980   124117210.277    23618732.100    92684921.836  
> 2021  1  5 21 10 42.0000000  0 14       0.000000000000
G 3  24210205.240   127225409.871    24210209.100    95005980.156  
G 4  21297964.820   111921538.230    21297968.120    83577780.094  
G 7  21384707.100   112377388.375                                  
G 8  23651517.560   124289477.836    23651519.960    92813562.832  
G 9  20325861.920   106813080.398    20325862.880    79763017.418  
G16  22763508.780   119623034.715                                  
G27  23368743.200   122803508.832    23368744.840    91703916.027  
G30  23259010.460   122226855.797    23259012.940    91273297.527  
E 2  24287309.600   127630645.727    24287315.100    95308589.715  
E 3  23348935.380   122699454.035    23348941.340    91626208.445  
E 5  25669459.160   134893875.820    25669466.100   100732428.914  
E 8  23656609.920   124316306.348    23656614.780    92833598.012  
E24  27181887.840   142841767.418    27181906.300   106667565.141  
E25  23618870.320   124117968.813    23618876.440    92685488.277  
> 2021  1  5 21 10 43.0000000  0 14       0.000000000000
G 3  24210915.660   127229143.207    24210919.540    95008768.035  
G 4  21298286.980   111923231.195    21298290.280    83579044.316  
G 7  21384506.740   112376335.477                                  
G 8  23650998.460   124286750.043    23651000.880    92811525.844  
G 9  20325769.060   106812592.434    20325770.020    79762653.027  
G16  22764094.420   119626112.254                                  
G27  23368478.900   122802119.891    23368480.540    91702878.832  
G30  23258570.660   122224544.629    23258573.120    91271571.656  
E 2  24286957.240   127628794.066    24286962.740    95307206.984  
E 3  23348932.520   122699438.957    23348938.480    91626197.188  
E 5  25669877.900   134896076.313    25669884.840   100734072.141  
E 8  23656183.140   124314063.566    23656188.000    92831923.215  
E24  27182397.820   142844447.367    27182416.280   106669566.398  
E25  23619014.720   124118727.695    23619020.840    92686054.980  
> 2021  1  5 21 10 44.0000000  0 14       0.000000000000
G 3  24211626.100   127232876.566    24211629.980    95011555.930  
G 4  21298609.220   111924924.535    21298612.500    83580308.824  
G 7  21384306.420   112375282.785                                  
G 8  23650479.420   124284022.430    23650481.840    92809488.992  
G 9  20325676.280   106812104.910    20325677.240    79762288.969  
G16  22764680.140   119629190.195                                  
G27  23368214.680   122800731.445    23368216.320    91701842.008  
G30  23258130.900   122222233.617    23258133.360    91269845.902  
E 2  24286604.940   127626942.734    24286610.440    95305824.500  
E 3  23348929.720   122699424.223    23348935.680    91626186.191  
E 5  25670296.680   134898277.055    25670303.620   100735715.555  
E 8  23655756.380   124311820.914    23655761.220    92830248.508  
E24  27182907.820   142847127.383    27182926.280   106671567.715  
E25  23619159.200   124119486.945    23619165.320    92686621.957  
> 2021  1  5 21 10 45.0000000  0 14       0.000000000000
G 3  24212336.540   127236609.953    24212340.420    95014343.848  
G 4  21298931.520   111926618.281    21298934.820    83581573.633  
G 7  21384106.140   112374230.313                                  
G 8  23649960.420   124281295.035    23649962.820    92807452.305  
G 9  20325583.600   106811617.836    20325584.560    79761925.242  
G16  22765265.920   119632268.543                                  
G27  23367950.580   122799343.559    23367952.220    91700805.602  
G30  23257691.160   122219922.797    23257693.620    91268120.293  
E 2  24286252.720   127625091.730    24286258.220    95304442.262  
E 3  23348926.980   122699409.836    23348932.940    91626175.449  
E 5  25670715.520   134900478.008    25670722.440   100737359.125  
E 8  23655329.640   124309578.395    23655334.480    92828573.906  
E24  27183417.820   142849807.484    27183436.280   106673569.094  
E25  23619303.760   124120246.574    23619309.880    92687189.215  
> 2021  1  5 21 10 46.0000000  0 14       0.000000000000
G 3  24213046.980   127240343.375    24213050.860    95017131.789  
G 4  21299253.920   111928312.410    21299257.200    83582838.730  
G 7  21383905.900   112373178.043                                  
G 8  23649441.440   124278567.828    23649443.860    92805415.754  
G 9  20325490.980   106811131.199    20325491.960    79761561.844  
G16  22765851.780   119635347.281                                  
G27  23367686.560   122797956.191    23367688.200    91699769.578  
G30  23257251.440   122217612.117    23257253.920    91266394.785  
E 2  24285900.540   127623241.055    24285906.040    95303060.270  
E 3  23348924.300   122699395.777    23348930.260    91626164.957  
E 5  25671134.380   134902679.199    25671141.320   100739002.875  
E 8  23654902.920   124307335.996    23654907.780    92826899.395  
E24  27183927.840   142852487.672    27183946.300   106675570.535  
E25  23619448.380   124121006.547    23619454.500    92687756.734  
> 2021  1  5 21 10 47.0000000  0 14       0.000000000000
G 3  24213757.440   127244076.824    24213761.320    95019919.754  
G 4  21299576.380   111930006.941    21299579.660    83584104.125  
G 7  21383705.700   112372125.988                                  
G 8  23648922.500   124275840.820    23648924.920    92803379.355  
G 9  20325398.460   106810644.992    20325399.440    79761198.773  
G16  22766437.740   119638426.422                                  
G27  23367422.660   122796569.348    23367424.300    91698733.949  
G30  23256811.760   122215301.598    23256814.240    91264669.398  
E 2  24285548.420   127621390.715    24285553.920    95301678.523  
E 3  23348921.700   122699382.074    23348927.640    91626154.727  
E 5  25671553.300   134904880.641    25671560.240   100740646.813  
E 8  23654476.240   124305093.734    23654481.080    92825224.980  
E24  27184437.880   142855167.922    27184456.340   106677572.020  
E25  23619593.060   124121766.895    23619599.180    92688324.527  
> 2021  1  5 21 10 48.0000000  0 14       0.000000000000
G 3  24214467.900   127247810.328    24214471.780    95022707.754  
G 4  21299898.900   111931701.848    21299902.200    83585369.801  
G 7  21383505.540   112371074.129                                  
G 8  23648403.620   124273114.012    23648406.020    92801343.102  
G 9  20325306.040   106810159.242    20325307.000    79760836.035  
G16  22767023.740   119641505.949                                  
G27  23367158.860   122795183.027    23367160.500    91697698.711  
G30  23256372.120   122212991.250    23256374.580    91262944.137  
E 2  24285196.380   127619540.699    24285201.880    95300297.027  
E 3  23348919.140   122699368.691    23348925.100    91626144.738  
E 5  25671972.280   134907082.305    25671979.200   100742290.914  
E 8  23654049.560   124302851.598    23654054.420    92823550.664  
E24  27184947.940   142857848.262    27184966.380   106679573.574  
E25  23619737.820   124122527.598    23619743.940    92688892.590  
> 2021  1  5 21 10 49.0000000  0 14       0.000000000000
G 3  24215178.380   127251543.836    24215182.240    95025495.766  
G 4  21300221.500   111933397.148    21300224.800    83586635.770  
G 7  21383305.420   112370022.477                                  
G 8  23647884.760   124270387.406    23647887.160    92799307.004  
G 9  20325213.680   106809673.922    20325214.640    79760473.617  
G16  22767609.840   119644585.887                                  
G27  23366895.140   122793797.227    23366896.780    91696663.859  
G30  23255932.520   122210681.070    23255934.980    91261219.004  
E 2  24284844.400   127617691.004    24284849.900    95298915.766  
E 3  23348916.660   122699355.652    23348922.620    91626135.004  
E 5  25672391.280   134909284.219    25672398.220   100743935.203  
E 8  23653622.920   124300609.578    23653627.780    92821876.434  
E24  27185458.000   142860528.668    27185476.460   106681575.180  
E25  23619882.660   124123288.660    23619888.760    92689460.918  
> 2021  1  5 21 10 50.0000000  0 14       0.000000000000
G 3  24215888.840   127255277.3912   24215892.720    95028283.8052 
G 4  21300544.180   111935092.840    21300547.480    83587902.035  
G 7  21383105.340   112368971.047                                  
G 8  23647365.940   124267661.008    23647368.340    92797271.059  
G 9  20325121.420   106809189.047    20325122.380    79760111.539  
G16  22768196.000   119647666.219                                  
G27  23366631.540   122792411.961    23366633.180    91695629.410  
G30  23255492.920   122208371.047    23255495.400    91259493.988  
E 2  24284492.480   127615841.656    24284497.980    95297534.762  
E 3  23348914.260   122699342.957    23348920.200    91626125.527  
E 5  25672810.340   134911486.359    25672817.260   100745579.660  
E 8  23653196.300   124298367.691    23653201.160    92820202.301  
E24  27185968.080   142863209.152    27185986.540   106683576.844  
E25  23620027.540   124124050.094    23620033.660    92690029.523  
> 2021  1  5 21 10 51.0000000  0 14       0.000000000000
G 3  24216599.320   127259010.9692   24216603.200    95031071.8672 
G 4  21300866.940   111936788.938    21300870.240    83589168.602  
G 7  21382905.300   112367919.813                                  
G 8  23646847.160   124264934.816    23646849.580    92795235.270  
G 9  20325029.220   106808704.629    20325030.200    79759749.797  
G16  22768782.260   119650746.957                                  
G27  23366368.020   122791027.230    23366369.660    91694595.359  
G30  23255053.380   122206061.184    23255055.840    91257769.094  
E 2  24284140.620   127613992.633    24284146.120    95296154.000  
E 3  23348911.900   122699330.605    23348917.860    91626116.305  
E 5  25673229.440   134913688.715    25673236.360   100747224.277  
E 8  23652769.720   124296125.941    23652774.560    92818528.270  
E24  27186478.180   142865889.730    27186496.640   106685578.574  
E25  23620172.520   124124811.891    23620178.620    92690598.402  
> 2021  1  5 21 10 52.0000000  0 14       0.000000000000
G 3  24217309.800   127262744.5862   24217313.680    95033859.9572 
G 4  21301189.760   111938485.406    21301193.060    83590435.445  
G 7  21382705.300   112366868.785                                  
G 8  23646328.420   124262208.820    23646330.840    92793199.625  
G 9  20324937.120   106808220.637    20324938.100    79759388.375  
G16  22769368.580   119653828.074                                  
G27  23366104.620   122789643.008    23366106.260    91693561.688  
G30  23254613.860   122203751.484    23254616.320    91256044.320  
E 2  24283788.820   127612143.926    24283794.320    95294773.473  
E 3  23348909.620   122699318.586    23348915.560    91626107.328  
E 5  25673648.580   134915891.328    25673655.500   100748869.086  
E 8  23652343.140   124293884.309    23652348.000    92816854.320  
E24  27186988.280   142868570.371    27187006.740   106687580.352  
E25  23620317.540   124125574.035    23620323.660    92691167.535  
> 2021  1  5 21 10 53.0000000  0 14       0.000000000000
G 3  24218020.300   127266478.2342   24218024.180    95036648.0662 
G 4  21301512.680   111940182.273    21301515.960    83591702.582  
G 7  21382505.340   112365817.980                                  
G 8  23645809.720   124259483.043    23645812.140    92791164.141  
G 9  20324845.120   106807737.102    20324846.080    79759027.293  
G16  22769954.960   119656909.613                                  
G27  23365841.320   122788259.324    23365842.960    91692528.418  
G30  23254174.360   122201441.961    23254176.820    91254319.672  
E 2  24283437.080   127610295.555    24283442.580    95293393.195  
E 3  23348907.400   122699306.914    23348913.340    91626098.613  
E 5  25674067.760   134918094.164    25674074.700   100750514.059  
E 8  23651916.600   124291642.824    23651921.460    92815180.488  
E24  27187498.400   142871251.090    27187516.860   106689582.184  
E25  23620462.640   124126336.566    23620468.760    92691736.957  
> 2021  1  5 21 10 54.0000000  0 14       0.000000000000
G 3  24218730.800   127270211.9062   24218734.680    95039436.1992 
G 4  21301835.660   111941879.531    21301838.940    83592970.016  
G 7  21382305.400   112364767.375                                  
G 8  23645291.060   124256757.449    23645293.460    92789128.797  
G 9  20324753.180   106807254.012    20324754.140    79758666.543  
G16  22770541.440   119659991.531                                  
G27  23365578.100   122786876.172    23365579.740    91691495.547  
G30  23253734.900   122199132.605    23253737.380    91252595.156  
E 2  24283085.420   127608447.512    24283090.920    95292013.164  
E 3  23348905.240   122699295.574    23348911.180    91626090.145  
E 5  25674486.980   134920297.219    25674493.920   100752159.195  
E 8  23651490.080   124289401.465    23651494.940    92813506.746  
E24  27188008.560   142873931.902    27188027.000   106691584.086  
E25  23620607.820   124127099.449    23620613.940    92692306.641  
> 2021  1  5 21 10 55.0000000  0 14       0.000000000000
G 3  24219441.300   127273945.6052   24219445.180    95042224.3482 
G 4  21302158.700   111943577.180    21302162.000    83594237.742  
G 7  21382105.520   112363716.977                                  
G 8  23644772.420   124254032.055    23644774.840    92787093.602  
G 9  20324661.340   106806771.340    20324662.300    79758306.109  
G16  22771127.980   119663073.859                                  
G27  23365315.000   122785493.539    23365316.640    91690463.059  
G30  23253295.480   122196823.387    23253297.940    91250870.742  
E 2  24282733.800   127606599.797    24282739.300    95290633.379  
E 3  23348903.140   122699284.586    23348909.100    91626081.941  
E 5  25674906.260   134922500.520    25674913.200   100753804.516  
E 8  23651063.600   124287160.223    23651068.440    92811833.090  
E24  27188518.700   142876612.773    27188537.160   106693586.035  
E25  23620753.060   124127862.691    23620759.180    92692876.594  
> 2021  1  5 21 10 56.0000000  0 14       0.000000000000
G 3  24220151.800   127277679.3442   24220155.680    95045012.5272 
G 4  21302481.820   111945275.207    21302485.120    83595505.746  
G 7  21381905.680   112362666.781                                  
G 8  23644253.840   124251306.863    23644256.260    92785058.555  
G 9  20324569.580   106806289.121    20324570.540    79757946.008  
G16  22771714.600   119666156.574                                  
G27  23365052.000   122784111.441    23365053.640    91689430.973  
G30  23252856.080   122194514.348    23252858.540    91249146.461  
E 2  24282382.260   127604752.410    24282387.760    95289253.836  
E 3  23348901.120   122699273.922    23348907.060    91626073.977  
E 5  25675325.580   134924704.082    25675332.520   100755450.031  
E 8  23650637.120   124284919.105    23650641.960    92810159.527  
E24  27189028.880   142879293.730    27189047.340   106695588.047  
E25  23620898.380   124128626.293    23620904.480    92693446.816  
> 2021  1  5 21 10 57.0000000  0 14       0.000000000000
G 3  24220862.320   127281413.1172   24220866.200    95047800.7302 
G 4  21302805.020   111946973.641    21302808.320    83596774.059  
G 7  21381705.880   112361616.805                                  
G 8  23643735.300   124248581.875    23643737.700    92783023.664  
G 9  20324477.900   106805807.352    20324478.860    79757586.246  
G16  22772301.300   119669239.703                                  
G27  23364789.080   122782729.863    23364790.720    91688399.277  
G30  23252416.720   122192205.473    23252419.180    91247422.301  
E 2  24282030.780   127602905.355    24282036.280    95287874.543  
E 3  23348899.160   122699263.605    23348905.100    91626066.273  
E 5  25675744.940   134926907.832    25675751.880   100757095.688  
E 8  23650210.680   124282678.121    23650215.520    92808486.066  
E24  27189539.060   142881974.758    27189557.520   106697590.113  
E25  23621043.740   124129390.262    23621049.860    92694017.313  
> 2021  1  5 21 10 58.0000000  0 14       0.000000000000
G 3  24221572.840   127285146.9222   24221576.720    95050588.9612 
G 4  21303128.300   111948672.457    21303131.600    83598042.656  
G 7  21381506.100   112360567.035                                  
G 8  23643216.780   124245857.070    23643219.180    92780988.910  
G 9  20324386.300   106805326.016    20324387.260    79757226.809  
G16  22772888.080   119672323.211                                  
G27  23364526.280   122781348.813    23364527.920    91687367.973  
G30  23251977.380   122189896.762    23251979.840    91245698.262  
E 2  24281679.360   127601058.637    24281684.860    95286495.496  
E 3  23348897.260   122699253.629    23348903.200    91626058.824  
E 5  25676164.360   134929111.844    25676171.300   100758741.543  
E 8  23649784.260   124280437.270    23649789.100    92806812.703  
E24  27190049.260   142884655.863    27190067.720   106699592.234  
E25  23621189.200   124130154.594    23621195.300    92694588.082  
> 2021  1  5 21 10 59.0000000  0 14       0.000000000000
G 3  24222283.360   127288880.7542   24222287.240    95053377.2072 
G 4  21303451.660   111950371.660    21303454.940    83599311.539  
G 7  21381306.380   112359517.477                                  
G 8  23642698.300   124243132.477    23642700.720    92778954.313  
G 9  20324294.780   106804845.117    20324295.760    79756867.695  
G16  22773474.940   119675407.121                                  
G27  23364263.580   122779968.297    23364265.220    91686337.070  
G30  23251538.080   122187588.219    23251540.540    91243974.352  
E 2  24281328.000   127599212.238    24281333.500    95285116.695  
E 3  23348895.420   122699243.992    23348901.380    91626051.625  
E 5  25676583.820   134931316.098    25676590.740   100760387.574  
E 8  23649357.860   124278196.547    23649362.700    92805139.438  
E24  27190559.480   142887337.051    27190577.920   106701594.422  
E25  23621334.720   124130919.285    23621340.820    92695159.113  
> 2021  1  5 21 11  1.0000000  0 14       0.000000000000
G 3  24223704.420   127296348.5122   24223708.300    95058953.7892 
G 4  21304098.580   111953771.262    21304101.860    83601850.207  
G 7  21380907.060   112357418.984                                  
G 8  23641661.460   124237683.867    23641663.880    92774885.547  
G 9  20324112.020   106803884.676    20324112.980    79756150.484  
G16  22774648.860   119681576.109                                  
G27  23363738.480   122777208.801    23363740.120    91684276.387  
G30  23250659.560   122182971.621    23250662.020    91240526.906  
E 2  24280625.480   127595520.430    24280630.960    95282359.824  
E 3  23348891.940   122699225.742    23348897.900    91626037.996  
E 5  25677422.840   134935725.297    25677429.780   100763680.172  
E 8  23648505.140   124273715.488    23648509.980    92801793.203  
E24  27191579.940   142892699.629    27191598.400   106705598.926  
E25  23621625.960   124132449.758    23621632.060    92696302.004  
> 2021  1  5 21 11  2.0000000  0 14       0.000000000000
G 3  24224414.960   127300082.4262   24224418.840    95061742.0982 
G 4  21304422.140   111955471.641    21304425.440    83603119.969  
G 7  21380707.440   112356370.051                                  
G 8  23641143.100   124234959.867    23641145.520    92772851.395  
G 9  20324020.760   106803405.102    20324021.720    79755792.359  
G16  22775235.940   119684661.211                                  
G27  23363476.080   122775829.852    23363477.720    91683246.652  
G30  23250220.360   122180663.566    23250222.820    91238803.359  
E 2  24280274.300   127593675.020    24280279.800    95280981.758  
E 3  23348890.300   122699217.109    23348896.260    91626031.551  
E 5  25677842.440   134937930.254    25677849.360   100765326.730  
E 8  23648078.820   124271475.145    23648083.660    92800120.219  
E24  27192090.200   142895381.035    27192108.660   106707601.273  
E25  23621771.680   124133215.531    23621777.780    92696873.848  
> 2021  1  5 21 11  3.0000000  0 14       0.000000000000
G 3  24225125.520   127303816.3952   24225129.400    95064530.4492 
G 4  21304745.780   111957172.410    21304749.080    83604390.023  
G 7  21380507.880   112355321.328                                  
G 8  23640624.780   124232236.051    23640627.180    92770817.379  
G 9  20323929.580   106802925.988    20323930.560    79755434.582  
G16  22775823.080   119687746.707                                  
G27  23363213.760   122774451.449    23363215.420    91682217.328  
G30  23249781.180   122178355.664    23249783.640    91237079.926  
E 2  24279923.200   127591829.941    24279928.700    95279603.941  
E 3  23348888.740   122699208.844    23348894.680    91626025.379  
E 5  25678262.060   134940135.422    25678269.000   100766973.445  
E 8  23647652.520   124269234.938    23647657.360    92798447.340  
E24  27192600.480   142898062.523    27192618.940   106709603.684  
E25  23621917.460   124133981.680    23621923.580    92697445.969  
> 2021  1  5 21 11  4.0000000  0 14       0.000000000000
G 3  24225836.060   127307550.3522   24225839.960    95067318.7932 
G 4  21305069.500   111958873.570    21305072.800    83605660.371  
G 7  21380308.360   112354272.797                                  
G 8  23640106.500   124229512.430    23640108.900    92768783.508  
G 9  20323838.500   106802447.316    20323839.460    79755077.129  
G16  22776410.320   119690832.598                                  
G27  23362951.560   122773073.555    23362953.200    91681188.383  
G30  23249342.020   122176047.934    23249344.480    91235356.621  
E 2  24279572.160   127589985.195    24279577.640    95278226.375  
E 3  23348887.220   122699200.902    23348893.180    91626019.449  
E 5  25678681.740   134942340.840    25678688.680   100768620.352  
E 8  23647226.240   124266994.855    23647231.080    92796774.551  
E24  27193110.760   142900744.090    27193129.220   106711606.148  
E25  23622063.320   124134748.180    23622069.440    92698018.355  
> 2021  1  5 21 11  5.0000000  0 14       0.000000000000
G 3  24226546.620   127311284.3672   24226550.520    95070107.1802 
G 4  21305393.300   111960575.121    21305396.600    83606931.008  
G 7  21380108.860   112353224.484                                  
G 8  23639588.240   124226789.000    23639590.640    92766749.777  
G 9  20323747.500   106801969.086    20323748.460    79754720.012  
G16  22776997.620   119693918.879                                  
G27  23362689.460   122771696.203    23362691.100    91680159.840  
G30  23248902.920   122173740.363    23248905.380    91233633.438  
E 2  24279221.180   127588140.770    24279226.660    95276849.039  
E 3  23348885.780   122699193.305    23348891.720    91626013.773  
E 5  25679101.460   134944546.469    25679108.400   100770267.406  
E 8  23646800.000   124264754.898    23646804.840    92795101.855  
E24  27193621.060   142903425.734    27193639.520   106713608.672  
E25  23622209.260   124135515.043    23622215.360    92698591.012  
> 2021  1  5 21 11  6.0000000  0 14       0.000000000000
G 3  24227257.200   127315018.4142   24227261.080    95072895.5862 
G 4  21305717.180   111962277.066    21305720.460    83608201.941  
G 7  21379909.420   112352176.371                                  
G 8  23639070.020   124224065.785    23639072.440    92764716.207  
G 9  20323656.580   106801491.301    20323657.540    79754363.223  
G16  22777585.000   119697005.559                                  
G27  23362427.460   122770319.367    23362429.100    91679131.684  
G30  23248463.820   122171432.949    23248466.280    91231910.371  
E 2  24278870.260   127586296.680    24278875.740    95275471.961  
E 3  23348884.400   122699186.051    23348890.340    91626008.355  
E 5  25679521.220   134946752.348    25679528.160   100771914.652  
E 8  23646373.760   124262515.078    23646378.620    92793429.266  
E24  27194131.380   142906107.445    27194149.840   106715611.250  
E25  23622355.260   124136282.266    23622361.360    92699163.941  
> 2021  1  5 21 11  7.0000000  0 14       0.000000000000
G 3  24227967.760   127318752.4842   24227971.660    95075684.0162 
G 4  21306041.120   111963979.391    21306044.400    83609473.156  
G 7  21379710.000   112351128.461                                  
G 8  23638551.860   124221342.789    23638554.260    92762682.805  
G 9  20323565.740   106801013.945    20323566.700    79754006.758  
G16  22778172.440   119700092.637                                  
G27  23362165.560   122768943.074    23362167.200    91678103.934  
G30  23248024.780   122169125.711    23248027.240    91230187.434  
E 2  24278519.400   127584452.914    24278524.880    95274095.125  
E 3  23348883.080   122699179.125    23348889.020    91626003.188  
E 5  25679941.040   134948958.453    25679947.960   100773562.070  
E 8  23645947.560   124260275.379    23645952.420    92791756.762  
E24  27194641.700   142908789.258    27194660.180   106717613.902  
E25  23622501.320   124137049.848    23622507.440    92699737.133  
> 2021  1  5 21 11  8.0000000  0 14       0.000000000000
G 3  24228678.340   127322486.5862   24228682.220    95078472.4652 
G 4  21306365.140   111965682.113    21306368.420    83610744.672  
G 7  21379510.640   112350080.773                                  
G 8  23638033.720   124218620.008    23638036.140    92760649.563  
G 9  20323474.980   106800537.043    20323475.960    79753650.629  
G16  22778759.980   119703180.109                                  
G27  23361903.760   122767567.297    23361905.400    91677076.570  
G30  23247585.760   122166818.645    23247588.200    91228464.625  
E 2  24278168.600   127582609.484    24278174.100    95272718.539  
E 3  23348881.820   122699172.551    23348887.780    91625998.273  
E 5  25680360.900   134951164.813    25680367.820   100775209.676  
E 8  23645521.400   124258035.816    23645526.240    92790084.363  
E24  27195152.040   142911471.129    27195170.520   106719616.594  
E25  23622647.460   124137817.805    23622653.560    92700310.609  
> 2021  1  5 21 11  9.0000000  0 14       0.000000000000
G 3  24229388.920   127326220.7112   24229392.820    95081260.9342 
G 4  21306689.220   111967385.219    21306692.520    83612016.473  
G 7  21379311.300   112349033.293                                  
G 8  23637515.640   124215897.426    23637518.040    92758616.465  
G 9  20323384.320   106800060.582    20323385.280    79753294.828  
G16  22779347.580   119706267.973                                  
G27  23361642.060   122766192.051    23361643.700    91676049.598  
G30  23247146.760   122164511.723    23247149.220    91226741.922  
E 2  24277817.880   127580766.383    24277823.360    95271342.195  
E 3  23348880.640   122699166.313    23348886.580    91625993.617  
E 5  25680780.800   134953371.398    25680787.720   100776857.449  
E 8  23645095.240   124255796.383    23645100.080    92788412.059  
E24  27195662.400   142914153.082    27195680.880   106721619.352  
E25  23622793.660   124138586.113    23622799.780    92700884.344  
> 2021  1  5 21 11 10.0000000  0 14       0.000000000000
G 3  24230099.520   127329954.8712   24230103.400    95084049.4302 
G 4  21307013.400   111969088.730    21307016.680    83613288.574  
G 7  21379112.020   112347986.023                                  
G 8  23636997.580   124213175.063    23637000.000    92756583.535  
G 9  20323293.740   106799584.566    20323294.700    79752939.363  
G16  22779935.240   119709356.234                                  
G27  23361380.460   122764817.348    23361382.100    91675023.035  
G30  23246707.800   122162204.977    23246710.260    91225019.355  
E 2  24277467.200   127578923.613    24277472.700    95269966.105  
E 3  23348879.520   122699160.418    23348885.460    91625989.219  
E 5  25681200.740   134955578.203    25681207.660   100778505.387  
E 8  23644669.120   124253557.082    23644673.960    92786739.852  
E24  27196172.780   142916835.121    27196191.240   106723622.172  
E25  23622939.940   124139354.797    23622946.040    92701458.359  
> 2021  1  5 21 11 11.0000000  0 14       0.000000000000
G 3  24230810.100   127333689.0702   24230814.000    95086837.9492 
G 4  21307337.640   111970792.621    21307340.920    83614560.957  
G 7  21378912.760   112346938.953                                  
G 8  23636479.560   124210452.855    23636481.960    92754550.719  
G 9  20323203.240   106799108.992    20323204.200    79752584.227  
G16  22780523.000   119712444.898                                  
G27  23361118.960   122763443.148    23361120.600    91673996.848  
G30  23246268.860   122159898.383    23246271.320    91223296.898  
E 2  24277116.600   127577081.172    24277122.100    95268590.254  
E 3  23348878.460   122699154.855    23348884.400    91625985.063  
E 5  25681620.720   134957785.266    25681627.660   100780153.516  
E 8  23644243.020   124251317.895    23644247.860    92785067.734  
E24  27196683.160   142919517.211    27196701.640   106725625.027  
E25  23623086.280   124140123.820    23623092.400    92702032.633  
> 2021  1  5 21 11 12.0000000  0 14       0.000000000000
G 3  24231520.720   127337423.2932   24231524.600    95089626.4922 
G 4  21307661.940   111972496.898    21307665.240    83615833.633  
G 7  21378713.560   112345892.109                                  
G 8  23635961.580   124207730.863    23635963.980    92752518.066  
G 9  20323112.820   106798633.867    20323113.780    79752229.426  
G16  22781110.840   119715533.957                                  
G27  23360857.560   122762069.504    23360859.200    91672971.074  
G30  23245829.960   122157591.961    23245832.420    91221574.570  
E 2  24276766.060   127575239.063    24276771.540    95267214.656  
E 3  23348877.460   122699149.645    23348883.420    91625981.172  
E 5  25682040.760   134959992.527    25682047.680   100781801.793  
E 8  23643816.940   124249078.852    23643821.780    92783395.723  
E24  27197193.580   142922199.391    27197212.040   106727627.953  
E25  23623232.700   124140893.223    23623238.800    92702607.188  
> 2021  1  5 21 11 13.0000000  0 14       0.000000000000
G 3  24232231.320   127341157.5432   24232235.200    95092415.0552 
G 4  21307986.340   111974201.582    21307989.620    83617106.609  
G 7  21378514.400   112344845.469                                  
G 8  23635443.640   124205009.059    23635446.040    92750485.551  
G 9  20323022.500   106798159.180    20323023.460    79751874.949  
G16  22781698.740   119718623.402                                  
G27  23360596.260   122760696.371    23360597.900    91671945.684  
G30  23245391.100   122155285.707    23245393.560    91219852.367  
E 2  24276415.580   127573397.281    24276421.060    95265839.297  
E 3  23348876.540   122699144.766    23348882.480    91625977.527  
E 5  25682460.840   134962200.047    25682467.760   100783450.266  
E 8  23643390.880   124246839.934    23643395.720    92781723.805  
E24  27197704.000   142924881.652    27197722.460   106729630.941  
E25  23623379.180   124141662.980    23623385.280    92703182.004  
> 2021  1  5 21 11 14.0000000  0 14       0.000000000000
G 3  24232941.920   127344891.8162   24232945.820    95095203.6332 
G 4  21308310.800   111975906.645    21308314.100    83618379.871  
G 7  21378315.260   112343799.027                                  
G 8  23634925.740   124202287.461    23634928.140    92748453.191  
G 9  20322932.240   106797684.934    20322933.220    79751520.805  
G16  22782286.720   119721713.250                                  
G27  23360335.060   122759323.770    23360336.700    91670920.691  
G30  23244952.260   122152979.621    23244954.720    91218130.293  
E 2  24276065.160   127571555.832    24276070.660    95264464.188  
E 3  23348875.680   122699140.234    23348881.620    91625974.145  
E 5  25682880.960   134964407.816    25682887.900   100785098.922  
E 8  23642964.860   124244601.148    23642969.700    92780051.984  
E24  27198214.420   142927563.984    27198232.880   106731633.980  
E25  23623525.720   124142433.105    23623531.840    92703757.098  
> 2021  1  5 21 11 15.0000000  0 14       0.000000000000
G 3  24233652.540   127348626.1482   24233656.440    95097992.2542 
G 4  21308635.340   111977612.109    21308638.640    83619653.430  
G 7  21378116.160   112342752.801                                  
G 8  23634407.880   124199566.063    23634410.280    92746420.977  
G 9  20322842.080   106797211.137    20322843.060    79751166.996  
G16  22782874.760   119724803.500                                  
G27  23360073.960   122757951.723    23360075.600    91669896.113  
G30  23244513.460   122150673.691    23244515.920    91216408.336  
E 2  24275714.800   127569714.719    24275720.300    95263089.332  
E 3  23348874.880   122699136.043    23348880.820    91625971.012  
E 5  25683301.120   134966615.801    25683308.060   100786747.742  
E 8  23642538.860   124242362.492    23642543.700    92778380.258  
E24  27198724.860   142930246.387    27198743.340   106733637.070  
E25  23623672.340   124143203.594    23623678.460    92704332.461  
> 2021  1  5 21 11 16.0000000  0 14       0.000000000000
G 3  24234363.160   127352360.4842   24234367.060    95100780.8792 
G 4  21308959.940   111979317.949    21308963.240    83620927.273  
G 7  21377917.120   112341706.781                                  
G 8  23633890.040   124196844.859    23633892.440    92744388.910  
G 9  20322752.020   106796737.781    20322752.980    79750813.516  
G16  22783462.900   119727894.145                                  
G27  23359812.980   122756580.184    23359814.620    91668871.914  
G30  23244074.700   122148367.934    23244077.140    91214686.504  
E 2  24275364.520   127567873.926    24275370.000    95261714.715  
E 3  23348874.140   122699132.191    23348880.100    91625968.137  
E 5  25683721.340   134968824.000    25683728.260   100788396.723  
E 8  23642112.880   124240123.969    23642117.720    92776708.637  
E24  27199235.320   142932928.883    27199253.800   106735640.230  
E25  23623819.020   124143974.441    23623825.140    92704908.098  
> 2021  1  5 21 11 17.0000000  0 14       0.000000000000
G 3  24235073.800   127356094.8552   24235077.680    95103569.5312 
G 4  21309284.640   111981024.184    21309287.920    83622201.406  
G 7  21377718.100   112340660.969                                  
G 8  23633372.260   124194123.844    23633374.660    92742356.984  
G 9  20322662.020   106796264.871    20322662.980    79750460.371  
G16  22784051.100   119730985.180                                  
G27  23359552.080   122755209.172    23359553.720    91667848.105  
G30  23243635.960   122146062.332    23243638.400    91212964.789  
E 2  24275014.280   127566033.457    24275019.780    95260340.340  
E 3  23348873.480   122699128.676    23348879.420    91625965.512  
E 5  25684141.600   134971032.469    25684148.520   100790045.898  
E 8  23641686.920   124237885.570    23641691.760    92775037.105  
E24  27199745.800   142935611.453    27199764.280   106737643.449  
E25  23623965.780   124144745.645    23623971.900    92705483.992  
> 2021  1  5 21 11 18.0000000  0 14       0.000000000000
G 3  24235784.440   127359829.2662   24235788.320    95106358.2112 
G 4  21309609.400   111982730.816    21309612.680    83623475.840  
G 7  21377519.140   112339615.367                                  
G 8  23632854.500   124191403.039    23632856.900    92740325.219  
G 9  20322572.120   106795792.398    20322573.080    79750107.551  
G16  22784639.380   119734076.613                                  
G27  23359291.280   122753838.695    23359292.920    91666824.699  
G30  23243197.240   122143756.891    23243199.700    91211243.191  
E 2  24274664.120   127564193.328    24274669.620    95258966.219  
E 3  23348872.880   122699125.512    23348878.820    91625963.148  
E 5  25684561.900   134973241.160    25684568.820   100791695.246  
E 8  23641261.000   124235647.301    23641265.840    92773365.672  
E24  27200256.300   142938294.094    27200274.760   106739646.719  
E25  23624112.600   124145517.219    23624118.720    92706060.168  
> 2021  1  5 21 11 19.0000000  0 14       0.000000000000
G 3  24236495.080   127363563.6912   24236498.960    95109146.9062 
G 4  21309934.240   111984437.832    21309937.520    83624750.559  
G 7  21377320.200   112338569.965                                  
G 8  23632336.780   124188682.4412   23632339.180    92738293.6052 
G 9  20322482.280   106795320.367    20322483.260    79749755.059  
G16  22785227.740   119737168.430                                  
G27  23359030.600   122752468.746    23359032.240    91665801.684  
G30  23242758.560   122141451.629    23242761.020    91209521.730  
E 2  24274314.020   127562353.523    24274319.500    95257592.340  
E 3  23348872.340   122699122.676    23348878.280    91625961.035  
