     3.03           OBSERVATION DATA    M: Mixed            RINEX VERSION / TYPE
sbp2rinex v2.2 (RTKL                    20210504 171529 UTC PGM / RUN BY / DATE 
log: 202103102310-202103102340.sbp                          COMMENT             
format: Swift Navigation SBP, option: CONVBASE,EPHALL,OBSALLCOMMENT             
                                                            MARKER NAME         
                                                            MARKER NUMBER       
                                                            MARKER TYPE         
                                                            OBSERVER / AGENCY   
                                                            REC # / TYPE / VERS 
                                                            ANT # / TYPE        
 -2711590.9028 -4352791.2399  3779528.9914                  APPROX POSITION XYZ 
        0.0000        0.0000        0.0000                  ANTENNA: DELTA H/E/N
G    4 C1C L1C C5I L5I                                      SYS / # / OBS TYPES 
E    4 C1B L1B C5I L5I                                      SYS / # / OBS TYPES 
  2021     3    10    23    10   18.0000000     GPS         TIME OF FIRST OBS   
  2021     3    10    23    50   16.0000000     GPS         TIME OF LAST OBS    
G                                                           SYS / PHASE SHIFT   
E                                                           SYS / PHASE SHIFT   
  0                                                         GLONASS SLOT / FRQ #
 C1C    0.000 C1P    0.000 C2C    0.000 C2P    0.000        GLONASS COD/PHS/BIS 
                                                            END OF HEADER       
> 2021  3 10 23 10 18.0000000  0 14       0.000000000000
G 2  22792024.800   119772895.461                                  
G 6  21269809.820   111773550.242    21269812.580    83467260.926  
G12  23162346.420   121718946.023                                  
G13  24307893.460   127738801.570                                  
G14  23348829.480   122698904.293    23348833.840    91625803.117  
G15  24573653.420   129135383.266                                  
G17  21930159.260   115243761.035                                  
G19  20312005.140   106740319.895                                  
G24  21132529.660   111052146.539    21132531.360    82928552.195  
G28  22948139.800   120593282.762                                  
E 2  23612006.580   124081923.863    23612008.680    92658575.559  
E 8  25841855.960   135799830.191    25841860.400   101408950.039  
E25  24745714.480   130039568.938    24745718.220    97107460.785  
E30  25817715.180   135672969.387    25817719.200   101314218.965  
> 2021  3 10 23 10 19.0000000  0 14       0.000000000000
G 2  22791438.360   119769813.734                                  
G 6  21269450.260   111771660.754    21269453.020    83465849.941  
G12  23161846.140   121716317.078                                  
G13  24308508.480   127742033.586                                  
G14  23349282.800   122701286.461    23349287.160    91627582.008  
G15  24574131.720   129137896.645                                  
G17  21930606.280   115246110.176                                  
G19  20312224.300   106741471.613                                  
G24  21132304.060   111050961.035    21132305.780    82927666.914  
G28  22948481.120   120595076.379                                  
E 2  23611841.740   124081057.570    23611843.840    92657928.652  
E 8  25842259.360   135801950.105    25842263.820   101410533.090  
E25  24745940.720   130040757.848    24745944.480    97108348.609  
E30  25817296.740   135670770.496    25817300.760   101312576.938  
> 2021  3 10 23 10 20.0000000  0 14       0.000000000000
G 2  22790851.980   119766732.293                                  
G 6  21269090.800   111769771.824    21269093.560    83464439.379  
G12  23161345.880   121713688.203                                  
G13  24309123.520   127745265.598                                  
G14  23349736.140   122703668.773    23349740.500    91629361.004  
G15  24574610.020   129140410.152                                  
G17  21931053.340   115248459.492                                  
G19  20312443.540   106742623.793                                  
G24  21132078.580   111049776.129    21132080.300    82926782.082  
G28  22948822.460   120596870.137                                  
E 2  23611676.920   124080191.441    23611679.020    92657281.863  
E 8  25842662.800   135804070.156    25842667.240   101412116.238  
E25  24746167.000   130041946.957    24746170.760    97109236.574  
E30  25816878.320   135668571.590    25816882.320   101310934.895  
> 2021  3 10 23 10 21.0000000  0 14       0.000000000000
G 2  22790265.660   119763651.125                                  
G 6  21268731.460   111767883.473    21268734.220    83463029.246  
G12  23160845.620   121711059.379                                  
G13  24309738.540   127748497.586                                  
G14  23350189.500   122706051.246    23350193.860    91631140.121  
G15  24575088.340   129142923.773                                  
G17  21931500.440   115250808.965                                  
G19  20312662.880   106743776.426                                  
G24  21131853.200   111048591.805    21131854.920    82925897.684  
G28  22949163.820   120598664.016                                  
E 2  23611512.120   124079325.461    23611514.220    92656635.188  
E 8  25843066.260   135806190.371    25843070.720   101413699.512  
E25  24746393.320   130043136.258    24746397.060    97110124.688  
E30  25816459.860   135666372.652    25816463.880   101309292.832  
> 2021  3 10 23 10 22.0000000  0 14       0.000000000000
G 2  22789679.380   119760570.246                                  
G 6  21268372.220   111765995.695    21268375.000    83461619.543  
G12  23160345.400   121708430.637                                  
G13  24310353.560   127751729.559                                  
G14  23350642.900   122708433.871    23350647.260    91632919.355  
G15  24575566.700   129145437.527                                  
G17  21931947.560   115253158.625                                  
G19  20312882.320   106744929.523                                  
G24  21131627.960   111047408.070    21131629.660    82925013.727  
G28  22949505.220   120600458.039                                  
E 2  23611347.360   124078459.645    23611349.460    92655988.637  
E 8  25843469.760   135808310.723    25843474.200   101415282.891  
E25  24746619.680   130044325.770    24746623.420    97111012.961  
E30  25816041.420   135664173.703    25816045.440   101307650.762  
> 2021  3 10 23 10 23.0000000  0 14       0.000000000000
G 2  22789093.160   119757489.641                                  
G 6  21268013.100   111764108.480    21268015.860    83460210.262  
G12  23159845.180   121705801.965                                  
G13  24310968.600   127754961.516                                  
G14  23351096.320   122710816.648    23351100.700    91634698.699  
G15  24576045.080   129147951.402                                  
G17  21932394.720   115255508.461                                  
G19  20313101.820   106746083.074                                  
G24  21131402.820   111046224.949    21131404.520    82924130.230  
G28  22949846.620   120602252.176                                  
E 2  23611182.620   124077593.973    23611184.740    92655342.195  
E 8  25843873.280   135810431.219    25843877.720   101416866.375  
E25  24746846.080   130045515.480    24746849.820    97111901.379  
E30  25815622.960   135661974.730    25815626.980   101306008.668  
> 2021  3 10 23 10 24.0000000  0 14       0.000000000000
G 2  22788507.000   119754409.320                                  
G 6  21267654.080   111762221.824    21267656.840    83458801.391  
G12  23159344.960   121703173.375                                  
G13  24311583.600   127758193.480                                  
G14  23351549.780   122713199.586    23351554.140    91636478.168  
G15  24576523.480   129150465.355                                  
G17  21932841.900   115257858.469                                  
G19  20313321.420   106747237.066                                  
G24  21131177.780   111045042.406    21131179.500    82923247.160  
G28  22950188.080   120604046.434                                  
E 2  23611017.920   124076728.449    23611020.020    92654695.859  
E 8  25844276.820   135812551.871    25844281.260   101418449.977  
E25  24747072.500   130046705.383    24747076.260    97112789.945  
E30  25815204.500   135659775.746    25815208.520   101304366.582  
> 2021  3 10 23 10 25.0000000  0 14       0.000000000000
G 2  22787920.880   119751329.281                                  
G 6  21267295.180   111760335.738    21267297.940    83457392.953  
G12  23158844.760   121700544.824                                  
G13  24312198.620   127761425.402                                  
G14  23352003.260   122715582.660    23352007.640    91638257.734  
G15  24577001.900   129152979.465                                  
G17  21933289.140   115260208.648                                  
G19  20313541.120   106748391.531                                  
G24  21130952.860   111043860.469    21130954.580    82922364.543  
G28  22950529.540   120605840.832                                  
E 2  23610853.260   124075863.094    23610855.360    92654049.652  
E 8  25844680.400   135814672.660    25844684.840   101420033.684  
E25  24747298.980   130047895.492    24747302.720    97113678.660  
E30  25814786.060   135657576.734    25814790.060   101302724.465  
> 2021  3 10 23 10 26.0000000  0 14       0.000000000000
G 2  22787334.820   119748249.516                                  
G 6  21266936.380   111758450.219    21266939.140    83455984.934  
G12  23158344.580   121697916.348                                  
G13  24312813.640   127764657.305                                  
G14  23352456.780   122717965.887    23352461.140    91640037.418  
G15  24577480.340   129155493.699                                  
G17  21933736.380   115262558.984                                  
G19  20313760.880   106749546.445                                  
G24  21130728.060   111042679.113    21130729.780    82921482.363  
G28  22950871.020   120607635.359                                  
E 2  23610688.600   124074997.871    23610690.720    92653403.543  
E 8  25845084.000   135816793.598    25845088.440   101421617.500  
E25  24747525.480   130049085.785    24747529.220    97114567.516  
E30  25814367.580   135655377.676    25814371.580   101301082.309  
> 2021  3 10 23 10 27.0000000  0 14       0.000000000000
G 2  22786748.820   119745170.055                                  
G 6  21266577.680   111756565.285    21266580.440    83454577.352  
G12  23157844.400   121695287.934                                  
G13  24313428.640   127767889.199                                  
G14  23352910.320   122720349.281    23352914.700    91641817.223  
G15  24577958.800   129158008.059                                  
G17  21934183.680   115264909.500                                  
G19  20313980.740   106750701.824                                  
G24  21130503.360   111041498.328    21130505.080    82920600.605  
G28  22951212.540   120609430.027                                  
E 2  23610524.000   124074132.820    23610526.100    92652757.566  
E 8  25845487.620   135818914.672    25845492.080   101423201.418  
E25  24747752.020   130050276.289    24747755.780    97115456.527  
E30  25813949.120   135653178.613    25813953.120   101299440.152  
> 2021  3 10 23 10 28.0000000  0 14       0.000000000000
G 2  22786162.880   119742090.859                                  
G 6  21266219.100   111754680.910    21266221.860    83453170.191  
G12  23157344.260   121692659.590                                  
G13  24314043.640   127771121.063                                  
G14  23353363.900   122722732.824    23353368.260    91643597.141  
G15  24578437.300   129160522.527                                  
G17  21934631.000   115267260.188                                  
G19  20314200.700   106751857.656                                  
G24  21130278.780   111040318.141    21130280.500    82919719.301  
G28  22951554.080   120611224.828                                  
E 2  23610359.400   124073267.918    23610361.520    92652111.699  
E 8  25845891.280   135821035.891    25845895.720   101424785.441  
E25  24747978.600   130051466.992    24747982.360    97116345.688  
E30  25813530.640   135650979.520    25813534.640   101297797.973  
> 2021  3 10 23 10 29.0000000  0 14       0.000000000000
G 2  22785576.960   119739011.930                                  
G 6  21265860.620   111752797.090    21265863.380    83451763.445  
G12  23156844.100   121690031.313                                  
G13  24314658.640   127774352.914                                  
G14  23353817.500   122725116.512    23353821.880    91645377.164  
G15  24578915.800   129163037.121                                  
G17  21935078.340   115269611.043                                  
G19  20314420.720   106753013.941                                  
G24  21130054.320   111039138.547    21130056.020    82918838.434  
G28  22951895.640   120613019.746                                  
E 2  23610194.840   124072403.148    23610196.960    92651465.926  
E 8  25846294.960   135823157.262    25846299.420   101426369.582  
E25  24748205.220   130052657.879    24748208.980    97117234.988  
E30  25813112.160   135648780.410    25813116.160   101296155.785  
> 2021  3 10 23 10 30.0000000  0 14       0.000000000000
G 2  22784991.120   119735933.301                                  
G 6  21265502.240   111750913.859    21265505.020    83450357.137  
G12  23156343.980   121687403.098                                  
G13  24315273.640   127777584.746                                  
G14  23354271.140   122727500.355    23354275.500    91647157.309  
G15  24579394.340   129165551.840                                  
G17  21935525.740   115271962.066                                  
G19  20314640.860   106754170.680                                  
G24  21129829.960   111037959.523    21129831.660    82917957.992  
G28  22952237.220   120614814.801                                  
E 2  23610030.320   124071538.563    23610032.420    92650820.297  
E 8  25846698.680   135825278.773    25846703.120   101427953.828  
E25  24748431.880   130053848.977    24748435.640    97118124.441  
E30  25812693.680   135646581.281    25812697.680   101294513.578  
> 2021  3 10 23 10 31.0000000  0 14       0.000000000000
G 2  22784405.340   119732854.949                                  
G 6  21265143.980   111749031.191    21265146.760    83448951.246  
G12  23155843.860   121684774.945                                  
G13  24315888.640   127780816.563                                  
G14  23354724.800   122729884.359    23354729.160    91648937.570  
G15  24579872.900   129168066.668                                  
G17  21935973.160   115274313.270                                  
G19  20314861.060   106755327.891                                  
G24  21129605.700   111036781.109    21129607.420    82917078.012  
G28  22952578.840   120616609.992                                  
E 2  23609865.820   124070674.117    23609867.920    92650174.770  
E 8  25847102.420   135827400.441    25847106.860   101429538.188  
E25  24748658.580   130055040.270    24748662.320    97119014.047  
E30  25812275.200   135644382.129    25812279.200   101292871.355  
> 2021  3 10 23 10 32.0000000  0 14       0.000000000000
G 2  22783819.600   119729776.871                                  
G 6  21264785.840   111747149.082    21264788.600    83447545.777  
G12  23155343.740   121682146.863                                  
G13  24316503.640   127784048.371                                  
G14  23355178.480   122732268.508    23355182.860    91650717.941  
G15  24580351.480   129170581.625                                  
G17  21936420.600   115276664.625                                  
G19  20315081.360   106756485.543                                  
G24  21129381.580   111035603.277    21129383.280    82916198.461  
G28  22952920.480   120618405.305                                  
E 2  23609701.360   124069809.816    23609703.460    92649529.348  
E 8  25847506.180   135829522.238    25847510.640   101431122.645  
E25  24748885.320   130056231.766    24748889.060    97119903.797  
E30  25811856.700   135642182.953    25811860.720   101291229.113  
> 2021  3 10 23 10 33.0000000  0 14       0.000000000000
G 2  22783233.900   119726699.082                                  
G 6  21264427.780   111745267.547    21264430.560    83446140.734  
G12  23154843.640   121679518.844                                  
G13  24317118.620   127787280.156                                  
G14  23355632.200   122734652.820    23355636.580    91652498.430  
G15  24580830.080   129173096.688                                  
G17  21936868.080   115279016.160                                  
G19  20315301.740   106757643.660                                  
G24  21129157.560   111034426.023    21129159.260    82915319.344  
G28  22953262.140   120620200.754                                  
E 2  23609536.920   124068945.688    23609539.020    92648884.055  
E 8  25847909.980   135831644.191    25847914.420   101432707.219  
E25  24749112.080   130057423.457    24749115.840    97120793.695  
E30  25811438.220   135639983.754    25811442.220   101289586.859  
> 2021  3 10 23 10 34.0000000  0 14       0.000000000000
G 2  22782648.280   119723621.578                                  
G 6  21264069.860   111743386.582    21264072.620    83444736.121  
G12  23154343.560   121676890.895                                  
G13  24317733.620   127790511.930                                  
G14  23356085.960   122737037.281    23356090.320    91654279.035  
G15  24581308.700   129175611.871                                  
G17  21937315.600   115281367.867                                  
G19  20315522.200   106758802.230                                  
G24  21128933.640   111033249.367    21128935.360    82914440.672  
G28  22953603.820   120621996.336                                  
E 2  23609372.500   124068081.707    23609374.600    92648238.879  
E 8  25848313.800   135833766.289    25848318.260   101434291.898  
E25  24749338.900   130058615.344    24749342.640    97121683.742  
E30  25811019.720   135637784.539    25811023.720   101287944.586  
> 2021  3 10 23 10 35.0000000  0 14       0.000000000000
G 2  22782062.700   119720544.348                                  
G 6  21263712.020   111741506.195    21263714.780    83443331.938  
G12  23153843.500   121674263.004                                  
G13  24318348.600   127793743.680                                  
G14  23356539.740   122739421.898    23356544.100    91656059.750  
G15  24581787.360   129178127.176                                  
G17  21937763.140   115283719.746                                  
G19  20315742.760   106759961.258                                  
G24  21128709.840   111032073.316    21128711.560    82913562.449  
G28  22953945.540   120623792.043                                  
E 2  23609208.120   124067217.875    23609210.220    92647593.809  
E 8  25848717.640   135835888.527    25848722.100   101435876.688  
E25  24749565.740   130059807.426    24749569.500    97122573.934  
E30  25810601.220   135635585.297    25810605.220   101286302.297  
> 2021  3 10 23 10 36.0000000  0 14       0.000000000000
G 2  22781477.180   119717467.406                                  
G 6  21263354.300   111739626.363    21263357.060    83441928.168  
G12  23153343.440   121671635.184                                  
G13  24318963.580   127796975.402                                  
G14  23356993.540   122741806.664    23356997.900    91657840.582  
G15  24582266.020   129180642.598                                  
G17  21938210.720   115286071.793                                  
G19  20315963.400   106761120.727                                  
G24  21128486.160   111030897.855    21128487.880    82912684.672  
G28  22954287.280   120625587.879                                  
E 2  23609043.780   124066354.199    23609045.880    92646948.855  
E 8  25849121.520   135838010.918    25849125.980   101437461.590  
E25  24749792.620   130060999.719    24749796.380    97123464.281  
E30  25810182.700   135633386.035    25810186.720   101284659.992  
> 2021  3 10 23 10 37.0000000  0 14       0.000000000000
G 2  22780891.700   119714390.742                                  
G 6  21262996.700   111737747.117    21262999.460    83440524.832  
G12  23152843.380   121669007.426                                  
G13  24319578.540   127800207.121                                  
G14  23357447.380   122744191.590    23357451.740    91659621.531  
G15  24582744.720   129183158.145                                  
G17  21938658.340   115288424.008                                  
G19  20316184.120   106762280.668                                  
G24  21128262.600   111029722.980    21128264.300    82911807.332  
G28  22954629.040   120627383.832                                  
E 2  23608879.440   124065490.672    23608881.540    92646304.016  
E 8  25849525.440   135840133.465    25849529.880   101439046.605  
E25  24750019.560   130062192.207    24750023.300    97124354.777  
E30  25809764.200   135631186.754    25809768.200   101283017.672  
> 2021  3 10 23 10 38.0000000  0 14       0.000000000000
G 2  22780306.280   119711314.359                                  
G 6  21262639.200   111735868.430    21262641.960    83439121.918  
G12  23152343.360   121666379.734                                  
G13  24320193.520   127803438.813                                  
G14  23357901.240   122746576.660    23357905.620    91661402.590  
G15  24583223.420   129185673.797                                  
G17  21939105.980   115290776.398                                  
G19  20316404.940   106763441.055                                  
G24  21128039.140   111028548.699    21128040.840    82910930.434  
G28  22954970.820   120629179.918                                  
E 2  23608715.160   124064627.313    23608717.260    92645659.297  
E 8  25849929.360   135842256.137    25849933.820   101440631.715  
E25  24750246.520   130063384.891    24750250.260    97125245.414  
E30  25809345.680   135628987.445    25809349.680   101281375.332  
> 2021  3 10 23 10 39.0000000  0 14       0.000000000000
G 2  22779720.920   119708238.270                                  
G 6  21262281.800   111733990.309    21262284.560    83437719.426  
G12  23151843.340   121663752.117                                  
G13  24320808.480   127806670.492                                  
G14  23358355.140   122748961.887    23358359.500    91663183.766  
G15  24583702.160   129188189.566                                  
G17  21939553.660   115293128.957                                  
G19  20316625.840   106764601.898                                  
G24  21127815.780   111027375.004    21127817.500    82910053.973  
G28  22955312.640   120630976.148                                  
E 2  23608550.900   124063764.090    23608553.000    92645014.684  
E 8  25850333.320   135844378.957    25850337.780   101442216.938  
E25  24750473.520   130064577.781    24750477.260    97126136.207  
E30  25808927.160   135626788.117    25808931.160   101279732.977  
> 2021  3 10 23 10 40.0000000  0 14       0.000000000000
G 2  22779135.620   119705162.434                                  
G 6  21261924.520   111732112.766    21261927.280    83436317.363  
G12  23151343.320   121661124.563                                  
G13  24321423.460   127809902.145                                  
G14  23358809.060   122751347.266    23358813.420    91664965.055  
G15  24584180.920   129190705.465                                  
G17  21940001.380   115295481.688                                  
G19  20316846.840   106765763.195                                  
G24  21127592.560   111026201.906    21127594.260    82909177.957  
G28  22955654.460   120632772.492                                  
E 2  23608386.660   124062901.027    23608388.760    92644370.188  
E 8  25850737.320   135846501.922    25850741.760   101443802.266  
E25  24750700.540   130065770.863    24750704.300    97127027.148  
E30  25808508.640   135624588.766    25808512.640   101278090.605  
> 2021  3 10 23 10 41.0000000  0 14       0.000000000000
G 2  22778550.360   119702086.898                                  
G 6  21261567.340   111730235.781    21261570.100    83434915.723  
G12  23150843.340   121658497.074                                  
G13  24322038.420   127813133.793                                  
G14  23359263.020   122753732.793    23359267.380    91666746.453  
G15  24584659.700   129193221.484                                  
G17  21940449.120   115297834.590                                  
G19  20317067.900   106766924.949                                  
G24  21127369.420   111025029.383    21127371.140    82908302.375  
G28  22955996.320   120634568.969                                  
E 2  23608222.440   124062038.117    23608224.540    92643725.809  
E 8  25851141.320   135848625.023    25851145.780   101445387.699  
E25  24750927.620   130066964.137    24750931.380    97127918.227  
E30  25808090.100   135622389.387    25808094.120   101276448.215  
> 2021  3 10 23 10 42.0000000  0 14       0.000000000000
G 2  22777965.160   119699011.652                                  
G 6  21261210.260   111728359.379    21261213.020    83433514.512  
G12  23150343.360   121655869.660                                  
G13  24322653.380   127816365.410                                  
G14  23359717.000   122756118.484    23359721.360    91668527.973  
G15  24585138.520   129195737.621                                  
G17  21940896.900   115300187.660                                  
G19  20317289.060   106768087.156                                  
G24  21127146.420   111023857.441    21127148.120    82907427.219  
G28  22956338.200   120636365.574                                  
E 2  23608058.280   124061175.367    23608060.380    92643081.547  
E 8  25851545.380   135850748.301    25851549.840   101446973.262  
E25  24751154.740   130068157.621    24751158.480    97128809.465  
E30  25807671.580   135620189.996    25807675.580   101274805.813  
> 2021  3 10 23 10 43.0000000  0 14       0.000000000000
G 2  22777380.000   119695936.688                                  
G 6  21260853.300   111726483.543    21260856.060    83432113.727  
G12  23149843.380   121653242.297                                  
G13  24323268.320   127819597.008                                  
G14  23360171.000   122758504.324    23360175.380    91670309.609  
G15  24585617.340   129198253.883                                  
G17  21941344.700   115302540.902                                  
G19  20317510.320   106769249.828                                  
G24  21126923.520   111022686.074    21126925.220    82906552.500  
G28  22956680.120   120638162.320                                  
E 2  23607894.120   124060312.777    23607896.220    92642437.402  
E 8  25851949.440   135852871.688    25851953.900   101448558.906  
E25  24751381.880   130069351.301    24751385.640    97129700.852  
E30  25807253.040   135617990.578    25807257.040   101273163.391  
> 2021  3 10 23 10 44.0000000  0 14       0.000000000000
G 2  22776794.900   119692861.992                                  
G 6  21260496.460   111724608.273    21260499.220    83430713.363  
G12  23149343.420   121650615.004                                  
G13  24323883.280   127822828.594                                  
G14  23360625.040   122760890.316    23360629.420    91672091.355  
G15  24586096.200   129200770.254                                  
G17  21941792.540   115304894.305                                  
G19  20317731.660   106770412.949                                  
G24  21126700.720   111021515.305    21126702.440    82905678.223  
G28  22957022.040   120639959.180                                  
E 2  23607730.000   124059450.328    23607732.100    92641793.367  
E 8  25852353.540   135854995.234    25852358.000   101450144.668  
E25  24751609.080   130070545.180    24751612.820    97130592.383  
E30  25806834.500   135615791.141    25806838.500   101271520.957  
> 2021  3 10 23 10 45.0000000  0 14       0.000000000000
G 2  22776209.860   119689787.582                                  
G 6  21260139.720   111722733.574    21260142.480    83429313.430  
G12  23148843.480   121647987.781                                  
G13  24324498.220   127826060.168                                  
G14  23361079.120   122763276.461    23361083.480    91673873.211  
G15  24586575.060   129203286.750                                  
G17  21942240.400   115307247.883                                  
G19  20317953.080   106771576.527                                  
G24  21126478.040   111020345.125    21126479.760    82904804.387  
G28  22957364.000   120641756.180                                  
E 2  23607565.920   124058588.027    23607568.020    92641149.441  
E 8  25852757.660   135857118.918    25852762.120   101451730.535  
E25  24751836.300   130071739.250    24751840.040    97131484.059  
E30  25806415.960   135613591.672    25806419.960   101269878.496  
> 2021  3 10 23 10 46.0000000  0 14       0.000000000000
G 2  22775624.880   119686713.445                                  
G 6  21259783.080   111720859.445    21259785.840    83427913.918  
G12  23148343.540   121645360.625                                  
G13  24325113.180   127829291.723                                  
G14  23361533.220   122765662.762    23361537.580    91675655.188  
G15  24587053.960   129205803.359                                  
G17  21942688.320   115309601.637                                  
G19  20318174.580   106772740.563                                  
G24  21126255.480   111019175.551    21126257.200    82903931.004  
G28  22957706.000   120643553.316                                  
E 2  23607401.860   124057725.895    23607403.960    92640505.641  
E 8  25853161.820   135859242.762    25853166.280   101453316.523  
E25  24752063.560   130072933.527    24752067.300    97132375.887  
E30  25805997.420   135611392.191    25806001.420   101268236.027  
> 2021  3 10 23 10 47.0000000  0 14       0.000000000000
G 2  22775039.940   119683639.594                                  
G 6  21259426.540   111718985.891    21259429.320    83426514.836  
G12  23147843.620   121642733.539                                  
G13  24325728.120   127832523.250                                  
G14  23361987.340   122768049.211    23361991.720    91677437.277  
G15  24587532.880   129208320.082                                  
G17  21943136.240   115311955.563                                  
G19  20318396.180   106773905.055                                  
G24  21126033.020   111018006.570    21126034.740    82903058.063  
G28  22958048.000   120645350.582                                  
E 2  23607237.820   124056863.902    23607239.920    92639861.945  
E 8  25853566.000   135861366.734    25853570.460   101454902.605  
E25  24752290.860   130074128.004    24752294.620    97133267.867  
E30  25805578.860   135609192.695    25805582.860   101266593.547  
> 2021  3 10 23 10 48.0000000  0 14       0.000000000000
G 2  22774455.060   119680566.031                                  
G 6  21259070.140   111717112.906    21259072.900    83425116.180  
G12  23147343.720   121640106.520                                  
G13  24326343.040   127835754.758                                  
G14  23362441.500   122770435.820    23362445.860    91679219.484  
G15  24588011.820   129210836.922                                  
G17  21943584.220   115314309.648                                  
G19  20318617.860   106775069.988                                  
G24  21125810.680   111016838.160    21125812.400    82902185.551  
G28  22958390.040   120647147.961                                  
E 2  23607073.820   124056002.074    23607075.920    92639218.375  
E 8  25853970.200   135863490.855    25853974.660   101456488.797  
E25  24752518.200   130075322.684    24752521.960    97134159.996  
E30  25805160.300   135606993.172    25805164.300   101264951.047  
> 2021  3 10 23 10 49.0000000  0 14       0.000000000000
G 2  22773870.240   119677492.746                                  
G 6  21258713.820   111715240.500    21258716.580    83423717.953  
G12  23146843.820   121637479.559                                  
G13  24326957.980   127838986.254                                  
G14  23362895.680   122772822.578    23362900.060    91681001.801  
G15  24588490.780   129213353.883                                  
G17  21944032.220   115316663.902                                  
G19  20318839.620   106776235.391                                  
G24  21125588.460   111015670.344    21125590.180    82901313.480  
G28  22958732.080   120648945.484                                  
E 2  23606909.860   124055140.398    23606911.960    92638574.914  
E 8  25854374.440   135865615.121    25854378.900   101458075.098  
E25  24752745.580   130076517.559    24752749.320    97135052.273  
E30  25804741.740   135604793.621    25804745.740   101263308.527  
> 2021  3 10 23 10 50.0000000  0 14       0.000000000000
G 2  22773285.460   119674419.754                                  
G 6  21258357.620   111713368.645    21258360.380    83422320.141  
G12  23146343.940   121634852.672                                  
G13  24327572.920   127842217.719                                  
G14  23363349.900   122775209.488    23363354.260    91682784.234  
G15  24588969.760   129215870.957                                  
G17  21944480.260   115319018.336                                  
G19  20319061.480   106777401.234                                  
G24  21125366.340   111014503.082    21125368.060    82900441.824  
G28  22959074.180   120650743.137                                  
E 2  23606745.920   124054278.875    23606748.020    92637931.570  
E 8  25854778.700   135867739.535    25854783.160   101459661.508  
E25  24752973.000   130077712.629    24752976.740    97135944.695  
E30  25804323.180   135602594.055    25804327.180   101261665.996  
> 2021  3 10 23 10 51.0000000  0 14       0.000000000000
G 2  22772700.740   119671347.039                                  
G 6  21258001.520   111711497.371    21258004.300    83420922.762  
G12  23145844.080   121632225.848                                  
G13  24328187.840   127845449.176                                  
G14  23363804.140   122777596.551    23363808.520    91684566.781  
G15  24589448.780   129218388.145                                  
G17  21944928.320   115321372.930                                  
G19  20319283.420   106778567.539                                  
G24  21125144.320   111013336.422    21125146.040    82899570.617  
G28  22959416.280   120652540.918                                  
E 2  23606582.000   124053417.500    23606584.100    92637288.336  
E 8  25855183.000   135869864.082    25855187.460   101461248.020  
E25  24753200.440   130078907.895    24753204.200    97136837.266  
E30  25803904.600   135600394.461    25803908.600   101260023.441  
> 2021  3 10 23 10 52.0000000  0 14       0.000000000000
G 2  22772116.080   119668274.613                                  
G 6  21257645.540   111709626.664    21257648.300    83419525.805  
G12  23145344.220   121629599.090                                  
G13  24328802.760   127848680.602                                  
G14  23364258.420   122779983.777    23364262.780    91686349.445  
G15  24589927.800   129220905.441                                  
G17  21945376.420   115323727.699                                  
G19  20319505.440   106779734.297                                  
G24  21124922.440   111012170.352    21124924.140    82898699.848  
G28  22959758.400   120654338.828                                  
E 2  23606418.120   124052556.289    23606420.220    92636645.223  
E 8  25855587.320   135871988.773    25855591.780   101462834.641  
E25  24753427.940   130080103.371    24753431.680    97137729.988  
E30  25803486.040   135598194.855    25803490.040   101258380.879  
> 2021  3 10 23 10 53.0000000  0 14       0.000000000000
G 2  22771531.460   119665202.465                                  
G 6  21257289.660   111707756.520    21257292.420    83418129.270  
G12  23144844.380   121626972.402                                  
G13  24329417.680   127851912.004                                  
G14  23364712.720   122782371.141    23364717.100    91688132.219  
G15  24590406.840   129223422.863                                  
G17  21945824.540   115326082.637                                  
G19  20319727.560   106780901.512                                  
G24  21124700.640   111011004.863    21124702.360    82897829.520  
G28  22960100.560   120656136.867                                  
E 2  23606254.260   124051695.223    23606256.360    92636002.219  
E 8  25855991.660   135874113.625    25855996.120   101464421.375  
E25  24753655.460   130081299.043    24753659.220    97138622.859  
E30  25803067.460   135595995.219    25803071.460   101256738.297  
> 2021  3 10 23 10 54.0000000  0 14       0.000000000000
G 2  22770946.900   119662130.598                                  
G 6  21256933.900   111705886.957    21256936.660    83416733.168  
G12  23144344.540   121624345.777                                  
G13  24330032.580   127855143.391                                  
G14  23365167.040   122784758.672    23365171.420    91689915.113  
G15  24590885.920   129225940.398                                  
G17  21946272.700   115328437.742                                  
G19  20319949.760   106782069.180                                  
G24  21124478.980   111009839.984    21124480.700    82896959.645  
G28  22960442.740   120657935.031                                  
E 2  23606090.440   124050834.324    23606092.540    92635359.344  
E 8  25856396.020   135876238.602    25856400.480   101466008.211  
E25  24753883.040   130082494.906    24753886.780    97139515.875  
E30  25802648.880   135593795.566    25802652.880   101255095.699  
> 2021  3 10 23 10 55.0000000  0 14       0.000000000000
G 2  22770362.400   119659059.016                                  
G 6  21256578.240   111704017.965    21256581.000    83415337.492  
G12  23143844.720   121621719.227                                  
G13  24330647.500   127858374.746                                  
G14  23365621.400   122787146.348    23365625.780    91691698.117  
G15  24591365.020   129228458.055                                  
G17  21946720.900   115330793.023                                  
G19  20320172.040   106783237.301                                  
G24  21124257.420   111008675.688    21124259.140    82896090.199  
G28  22960784.940   120659733.324                                  
E 2  23605926.640   124049973.570    23605928.740    92634716.570  
E 8  25856800.420   135878363.727    25856804.880   101467595.152  
E25  24754110.640   130083690.969    24754114.380    97140409.039  
E30  25802230.300   135591595.883    25802234.300   101253453.082  
> 2021  3 10 23 10 56.0000000  0 14       0.000000000000
G 2  22769777.960   119655987.711                                  
G 6  21256222.700   111702149.551    21256225.460    83413942.250  
G12  23143344.920   121619092.746                                  
G13  24331262.400   127861606.094                                  
G14  23366075.800   122789534.176    23366080.180    91693481.230  
G15  24591844.140   129230975.832                                  
G17  21947169.120   115333148.465                                  
G19  20320394.420   106784405.875                                  
G24  21124035.980   111007512.004    21124037.700    82895221.215  
G28  22961127.180   120661531.746                                  
E 2  23605762.880   124049112.965    23605764.980    92634073.910  
E 8  25857204.860   135880488.992    25857209.320   101469182.199  
E25  24754338.280   130084887.238    24754342.020    97141302.355  
E30  25801811.700   135589396.184    25801815.700   101251810.449  
> 2021  3 10 23 10 57.0000000  0 14       0.000000000000
G 2  22769193.560   119652916.699                                  
G 6  21255867.260   111700281.695    21255870.020    83412547.422  
G12  23142845.140   121616466.320                                  
G13  24331877.300   127864837.422                                  
G14  23366530.220   122791922.156    23366534.600    91695264.465  
G15  24592323.280   129233493.719                                  
G17  21947617.380   115335504.074                                  
G19  20320616.880   106785574.914                                  
G24  21123814.660   111006348.922    21123816.360    82894352.680  
G28  22961469.440   120663330.305                                  
E 2  23605599.140   124048252.523    23605601.240    92633431.375  
E 8  25857609.300   135882614.410    25857613.760   101470769.359  
E25  24754565.960   130086083.699    24754569.700    97142195.816  
E30  25801393.100   135587196.469    25801397.100   101250167.805  
> 2021  3 10 23 10 58.0000000  0 14       0.000000000000
G 2  22768609.220   119649845.957                                  
G 6  21255511.920   111698414.406    21255514.680    83411153.020  
G12  23142345.360   121613839.965                                  
G13  24332492.200   127868068.734                                  
G14  23366984.660   122794310.289    23366989.040    91697047.809  
G15  24592802.440   129236011.727                                  
G17  21948065.680   115337859.852                                  
G19  20320839.420   106786744.398                                  
G24  21123593.440   111005186.402    21123595.140    82893484.566  
G28  22961811.720   120665128.988                                  
E 2  23605435.420   124047392.230    23605437.520    92632788.945  
E 8  25858013.780   135884739.969    25858018.240   101472356.625  
E25  24754793.680   130087280.359    24754797.420    97143089.426  
E30  25800974.520   135584996.723    25800978.520   101248525.137  
> 2021  3 10 23 10 59.0000000  0 14       0.000000000000
G 2  22768024.920   119646775.508                                  
G 6  21255156.700   111696547.707    21255159.460    83409759.055  
G12  23141845.580   121611213.680                                  
G13  24333107.100   127871300.016                                  
G14  23367439.140   122796698.586    23367443.520    91698831.273  
G15  24593281.620   129238529.840                                  
G17  21948514.000   115340215.805                                  
G19  20321062.060   106787914.348                                  
G24  21123372.320   111004024.461    21123374.040    82892616.879  
G28  22962154.020   120666927.805                                  
E 2  23605271.740   124046532.098    23605273.840    92632146.641  
E 8  25858418.300   135886865.660    25858422.760   101473943.992  
E25  24755021.420   130088477.219    24755025.180    97143983.184  
E30  25800555.900   135582796.961    25800559.900   101246882.461  
> 2021  3 10 23 11  0.0000000  0 14       0.000000000000
G 2  22767440.700   119643705.336                                  
G 6  21254801.580   111694681.570    21254804.340    83408365.512  
G12  23141345.840   121608587.469                                  
G13  24333721.980   127874531.285                                  
G14  23367893.640   122799087.020    23367898.020    91700614.848  
G15  24593760.820   129241048.090                                  
G17  21948962.360   115342571.922                                  
G19  20321284.780   106789084.730                                  
G24  21123151.320   111002863.109    21123153.040    82891749.641  
G28  22962496.340   120668726.746                                  
E 2  23605108.100   124045672.109    23605110.200    92631504.441  
E 8  25858822.820   135888991.500    25858827.300   101475531.473  
E25  24755249.220   130089674.285    24755252.980    97144877.098  
E30  25800137.300   135580597.176    25800141.300   101245239.766  
> 2021  3 10 23 11  1.0000000  0 14       0.000000000000
G 2  22766856.520   119640635.453                                  
G 6  21254446.580   111692816.000    21254449.340    83406972.395  
G12  23140846.100   121605961.309                                  
G13  24334336.880   127877762.539                                  
G14  23368348.180   122801475.621    23368352.560    91702398.543  
G15  24594240.060   129243566.441                                  
G17  21949410.740   115344928.207                                  
G19  20321507.580   106790255.582                                  
G24  21122930.440   111001702.348    21122932.160    82890882.836  
G28  22962838.700   120670525.824                                  
E 2  23604944.480   124044812.293    23604946.580    92630862.371  
E 8  25859227.400   135891117.480    25859231.860   101477119.051  
E25  24755477.060   130090871.539    24755480.800    97145771.152  
E30  25799718.700   135578397.367    25799722.700   101243597.051  
> 2021  3 10 23 11  2.0000000  0 14       0.000000000000
G 2  22766272.380   119637565.848                                  
G 6  21254091.680   111690951.000    21254094.440    83405579.699  
G12  23140346.360   121603335.238                                  
G13  24334951.760   127880993.758                                  
G14  23368802.740   122803864.371    23368807.120    91704182.348  
G15  24594719.300   129246084.910                                  
G17  21949859.160   115347284.668                                  
G19  20321730.480   106791426.879                                  
G24  21122709.660   111000542.180    21122711.380    82890016.477  
G28  22963181.080   120672325.035                                  
E 2  23604780.880   124043952.613    23604782.980    92630220.402  
E 8  25859631.980   135893243.613    25859636.440   101478706.746  
E25  24755704.920   130092069.004    24755708.680    97146665.359  
E30  25799300.080   135576197.531    25799304.080   101241954.316  
> 2021  3 10 23 11  3.0000000  0 14       0.000000000000
G 2  22765688.320   119634496.535                                  
G 6  21253736.900   111689086.590    21253739.660    83404187.445  
G12  23139846.660   121600709.219                                  
G13  24335566.640   127884224.980                                  
G14  23369257.340   122806253.281    23369261.720    91705966.270  
G15  24595198.580   129248603.496                                  
G17  21950307.620   115349641.293                                  
G19  20321953.440   106792598.637                                  
G24  21122489.000   110999382.613    21122490.720    82889150.570  
G28  22963523.480   120674124.371                                  
E 2  23604617.320   124043093.102    23604619.440    92629578.559  
E 8  25860036.600   135895369.871    25860041.060   101480294.535  
E25  24755932.840   130093266.660    24755936.580    97147559.715  
E30  25798881.460   135573997.684    25798885.460   101240311.578  
> 2021  3 10 23 11  4.0000000  0 14       0.000000000000
G 2  22765104.300   119631427.492                                  
G 6  21253382.220   111687222.727    21253384.980    83402795.602  
G12  23139346.940   121598083.270                                  
G13  24336181.520   127887456.160                                  
G14  23369711.960   122808642.328    23369716.340    91707750.297  
G15  24595677.860   129251122.199                                  
G17  21950756.100   115351998.086                                  
G19  20322176.520   106793770.836                                  
G24  21122268.460   110998223.645    21122270.180    82888285.105  
G28  22963865.900   120675923.840                                  
E 2  23604453.800   124042233.730    23604455.900    92628936.820  
E 8  25860441.240   135897496.301    25860445.700   101481882.453  
E25  24756160.780   130094464.516    24756164.520    97148454.215  
E30  25798462.840   135571797.820    25798466.840   101238668.820  
> 2021  3 10 23 11  5.0000000  0 14       0.000000000000
G 2  22764520.320   119628358.746                                  
G 6  21253027.640   111685359.453    21253030.400    83401404.195  
G12  23138847.260   121595457.383                                  
G13  24336796.380   127890687.336                                  
G14  23370166.620   122811031.539    23370171.000    91709534.449  
G15  24596157.180   129253641.008                                  
G17  21951204.620   115354355.055                                  
G19  20322399.660   106794943.496                                  
G24  21122048.020   110997065.246    21122049.740    82887420.066  
G28  22964208.360   120677723.434                                  
E 2  23604290.300   124041374.520    23604292.400    92628295.203  
E 8  25860845.920   135899622.840    25860850.380   101483470.449  
E25  24756388.760   130095662.578    24756392.520    97149348.871  
E30  25798044.220   135569597.926    25798048.200   101237026.043  
> 2021  3 10 23 11  6.0000000  0 14       0.000000000000
G 2  22763936.420   119625290.262                                  
G 6  21252673.180   111683496.738    21252675.940    83400013.211  
G12  23138347.580   121592831.574                                  
G13  24337411.260   127893918.469                                  
G14  23370621.300   122813420.895    23370625.680    91711318.707  
G15  24596636.520   129256159.945                                  
G17  21951653.160   115356712.176                                  
G19  20322622.900   106796116.598                                  
G24  21121827.700   110995907.430    21121829.420    82886555.465  
G28  22964550.840   120679523.164                                  
E 2  23604126.820   124040515.461    23604128.920    92627653.699  
E 8  25861250.620   135901749.566    25861255.080   101485058.590  
E25  24756616.780   130096860.832    24756620.540    97150243.672  
E30  25797625.580   135567397.992    25797629.580   101235383.238  
> 2021  3 10 23 11  7.0000000  0 14       0.000000000000
G 2  22763352.560   119622222.055                                  
G 6  21252318.820   111681634.613    21252321.580    83398622.664  
G12  23137847.920   121590205.828                                  
G13  24338026.120   127897149.602                                  
G14  23371076.000   122815810.422    23371080.380    91713103.090  
G15  24597115.880   129258678.988                                  
G17  21952101.740   115359069.465                                  
G19  20322846.220   106797290.152                                  
G24  21121607.500   110994750.223    21121609.200    82885691.316  
G28  22964893.340   120681323.039                                  
E 2  23603963.380   124039656.555    23603965.480    92627012.309  
E 8  25861655.340   135903876.438    25861659.820   101486646.836  
E25  24756844.840   130098059.309    24756848.600    97151138.637  
E30  25797206.940   135565198.055    25797210.940   101233740.426  
> 2021  3 10 23 11  8.0000000  0 14       0.000000000000
G 2  22762768.760   119619154.195                                  
G 6  21251964.580   111679773.027    21251967.340    83397232.520  
G12  23137348.260   121587580.129                                  
G13  24338640.980   127900380.707                                  
G14  23371530.740   122818200.074    23371535.120    91714887.570  
G15  24597595.260   129261198.137                                  
G17  21952550.360   115361426.953                                  
G19  20323069.620   106798464.191                                  
G24  21121387.380   110993593.570    21121389.100    82884827.582  
G28  22965235.860   120683123.020                                  
E 2  23603799.960   124038797.805    23603802.060    92626371.031  
E 8  25862060.080   135906003.344    25862064.540   101488235.109  
E25  24757072.940   130099257.926    24757076.680    97152033.707  
E30  25796788.300   135562998.102    25796792.300   101232097.605  
> 2021  3 10 23 11  9.0000000  0 14       0.000000000000
G 2  22762185.000   119616086.582                                  
G 6  21251610.440   111677912.035    21251613.200    83395842.816  
G12  23136848.620   121584954.520                                  
G13  24339255.820   127903611.785                                  
G14  23371985.520   122820589.898    23371989.900    91716672.180  
G15  24598074.660   129263717.402                                  
G17  21952999.000   115363784.586                                  
G19  20323293.120   106799638.664                                  
G24  21121167.400   110992437.535    21121169.120    82883964.309  
G28  22965578.420   120684923.145                                  
E 2  23603636.580   124037939.215    23603638.680    92625729.879  
E 8  25862464.860   135908130.488    25862469.340   101489823.559  
E25  24757301.060   130100456.785    24757304.820    97152928.961  
E30  25796369.660   135560798.125    25796373.660   101230454.766  
> 2021  3 10 23 11 10.0000000  0 14       0.000000000000
G 2  22761601.320   119613019.262                                  
G 6  21251256.420   111676051.613    21251259.180    83394453.539  
G12  23136349.000   121582328.977                                  
G13  24339870.680   127906842.840                                  
G14  23372440.320   122822979.871    23372444.700    91718456.898  
G15  24598554.080   129266236.793                                  
G17  21953447.660   115366142.391                                  
G19  20323516.700   106800813.590                                  
G24  21120947.520   110991282.094    21120949.240    82883101.480  
G28  22965921.000   120686723.391                                  
E 2  23603473.220   124037080.785    23603475.320    92625088.844  
E 8  25862869.680   135910257.758    25862874.140   101491412.102  
E25  24757529.240   130101655.840    24757533.000    97153824.355  
E30  25795951.020   135558598.125    25795955.020   101228811.910  
> 2021  3 10 23 11 11.0000000  0 14       0.000000000000
G 2  22761017.680   119609952.223                                  
G 6  21250902.500   111674191.770    21250905.260    83393064.695  
G12  23135849.400   121579703.504                                  
G13  24340485.520   127910073.887                                  
G14  23372895.140   122825370.000    23372899.520    91720241.730  
G15  24599033.540   129268756.301                                  
G17  21953896.380   115368500.363                                  
G19  20323740.380   106801988.977                                  
G24  21120727.760   110990127.250    21120729.480    82882239.098  
G28  22966263.600   120688523.777                                  
E 2  23603309.900   124036222.500    23603312.000    92624447.918  
E 8  25863274.500   135912385.148    25863278.980   101493000.738  
E25  24757757.460   130102855.090    24757761.200    97154719.898  
E30  25795532.360   135556398.102    25795536.360   101227169.039  
> 2021  3 10 23 11 12.0000000  0 14       0.000000000000
G 2  22760434.080   119606885.465                                  
G 6  21250548.680   111672332.488    21250551.440    83391676.273  
G12  23135349.800   121577078.098                                  
G13  24341100.360   127913304.887                                  
G14  23373350.000   122827760.273    23373354.380    91722026.676  
G15  24599513.000   129271275.922                                  
G17  21954345.120   115370858.500                                  
G19  20323964.120   106803164.813                                  
G24  21120508.120   110988973.008    21120509.840    82881377.164  
G28  22966606.220   120690324.281                                  
E 2  23603146.600   124035364.375    23603148.700    92623807.109  
E 8  25863679.360   135914512.715    25863683.840   101494589.504  
E25  24757985.700   130104054.543    24757989.460    97155615.594  
E30  25795113.720   135554198.070    25795117.700   101225526.156  
> 2021  3 10 23 11 13.0000000  0 14       0.000000000000
G 2  22759850.560   119603818.996                                  
G 6  21250194.980   111670473.777    21250197.740    83390288.277  
G12  23134850.200   121574452.750                                  
G13  24341715.200   127916535.871                                  
G14  23373804.880   122830150.715    23373809.260    91723811.746  
G15  24599992.480   129273795.648                                  
G17  21954793.880   115373216.801                                  
G19  20324187.960   106804341.102                                  
G24  21120288.580   110987819.340    21120290.300    82880515.656  
G28  22966948.880   120692124.926                                  
E 2  23602983.340   124034506.395    23602985.440    92623166.410  
E 8  25864084.260   135916640.406    25864088.720   101496178.359  
E25  24758213.980   130105254.191    24758217.740    97156511.438  
E30  25794695.060   135551997.996    25794699.040   101223883.246  
> 2021  3 10 23 11 14.0000000  0 14       0.000000000000
G 2  22759267.080   119600752.816                                  
G 6  21249841.400   111668615.641    21249844.160    83388900.707  
G12  23134350.640   121571827.473                                  
G13  24342330.040   127919766.844                                  
G14  23374259.800   122832541.293    23374264.180    91725596.918  
G15  24600472.000   129276315.496                                  
G17  21955242.680   115375575.273                                  
G19  20324411.900   106805517.844                                  
G24  21120069.160   110986666.238    21120070.880    82879654.574  
G28  22967291.560   120693925.703                                  
E 2  23602820.100   124033648.570    23602822.200    92622525.828  
E 8  25864489.160   135918768.242    25864493.640   101497767.328  
E25  24758442.300   130106454.043    24758446.060    97157407.430  
E30  25794276.400   135549797.906    25794280.380   101222240.324  
> 2021  3 10 23 11 15.0000000  0 14       0.000000000000
G 2  22758683.660   119597686.918                                  
G 6  21249487.920   111666758.078    21249490.660    83387513.566  
G12  23133851.060   121569202.254                                  
G13  24342944.860   127922997.789                                  
G14  23374714.740   122834932.027    23374719.120    91727382.203  
G15  24600951.540   129278835.453                                  
G17  21955691.520   115377933.910                                  
G19  20324635.900   106806695.035                                  
G24  21119849.840   110985513.730    21119851.560    82878793.938  
G28  22967634.240   120695726.598                                  
