     3.03           OBSERVATION DATA    M: Mixed            RINEX VERSION / TYPE
sbp2rinex v2.2 (RTKL                    20210504 171528 UTC PGM / RUN BY / DATE 
log: 202101042140-202101042230.sbp                          COMMENT             
format: Swift Navigation SBP, option: CONVBASE,EPHALL,OBSALLCOMMENT             
                                                            MARKER NAME         
                                                            MARKER NUMBER       
                                                            MARKER TYPE         
                                                            OBSERVER / AGENCY   
                                                            REC # / TYPE / VERS 
                                                            ANT # / TYPE        
 -2711592.9945 -4352797.5228  3779528.8352                  APPROX POSITION XYZ 
        0.0000        0.0000        0.0000                  ANTENNA: DELTA H/E/N
G    4 C1C L1C C5I L5I                                      SYS / # / OBS TYPES 
E    4 C1B L1B C5I L5I                                      SYS / # / OBS TYPES 
  2021     1     4    21    40   17.0000000     GPS         TIME OF FIRST OBS   
  2021     1     4    22    40   16.0000000     GPS         TIME OF LAST OBS    
G                                                           SYS / PHASE SHIFT   
E                                                           SYS / PHASE SHIFT   
  0                                                         GLONASS SLOT / FRQ #
 C1C    0.000 C1P    0.000 C2C    0.000 C2P    0.000        GLONASS COD/PHS/BIS 
                                                            END OF HEADER       
> 2021  1  4 21 40 17.0000000  0 13       0.000000000000
G 4  21874396.680   114950709.348    21874399.980    85839823.461  
G 7  21124407.240   111009508.711                                  
G 8  22914499.340   120416432.176    22914501.040    89921356.340  
G 9  20286771.020   106607660.809    20286771.760    79609620.617  
G14  24055315.760   126411506.0862                                 
G16  23732930.840   124717378.105                                  
G27  23090827.360   121343058.848    23090828.520    90613322.156  
G30  22619688.600   118867208.965    22619690.260    88764473.598  
E 7  24173918.080   127034757.414    24173924.300    94863608.395  
E19  26839588.260   141042952.5082   26839593.840   105324269.6132 
E21  26310570.300   138262941.262    26310576.940   103248289.598  
E27  23257410.180   122218492.438    23257415.560    91267049.719  
E30  24112396.540   126711471.125    24112402.160    94622194.324  
> 2021  1  4 21 40 18.0000000  0 13       0.000000000000
G 4  21874830.320   114952988.117    21874833.600    85841525.141  
G 7  21124264.700   111008759.605                                  
G 8  22914065.000   120414149.668    22914066.700    89919651.871  
G 9  20286816.180   106607898.164    20286816.920    79609797.863  
G14  24054628.600   126407894.9962                                 
G16  23733607.380   124720933.406                                  
G27  23090733.640   121342566.355    23090734.800    90612954.387  
G30  22619296.820   118865150.156    22619298.480    88762936.176  
E 7  24174210.380   127036293.473    24174216.600    94864755.449  
E19  26839091.020   141040339.5552   26839096.600   105322318.3872 
E21  26310106.980   138260506.535    26310113.620   103246471.457  
E27  23257345.060   122218150.230    23257350.420    91266794.176  
E30  24112804.900   126713617.129    24112810.520    94623796.859  
> 2021  1  4 21 40 19.0000000  0 13       0.000000000000
G 4  21875264.020   114955267.262    21875267.320    85843227.102  
G 7  21124122.180   111008010.707                                  
G 8  22913630.720   120411867.559    22913632.420    89917947.699  
G 9  20286861.440   106608136.027    20286862.180    79609975.488  
G14  24053941.460   126404284.0702                                 
G16  23734283.980   124724488.9302                                 
G27  23090640.040   121342074.496    23090641.200    90612587.086  
G30  22618905.080   118863091.504    22618906.720    88761398.871  
E 7  24174502.760   127037829.875    24174508.980    94865902.762  
E19  26838593.800   141037726.7032   26838599.400   105320367.2302 
E21  26309643.720   138258072.035    26309650.360   103244653.488  
E27  23257280.000   122217808.402    23257285.380    91266538.914  
E30  24113213.300   126715763.305    24113218.920    94625399.523  
> 2021  1  4 21 40 20.0000000  0 13       0.000000000000
G 4  21875697.800   114957546.781    21875701.100    85844929.336  
G 7  21123979.700   111007262.023                                  
G 8  22913196.520   120409585.816    22913198.220    89916243.801  
G 9  20286906.800   106608374.391    20286907.540    79610153.488  
G14  24053254.340   126400673.3012                                 
G16  23734960.620   124728044.6912                                 
G27  23090546.560   121341583.262    23090547.720    90612220.258  
G30  22618513.360   118861033.016    22618515.000    88759861.688  
E 7  24174795.180   127039366.602    24174801.400    94867050.316  
E19  26838096.600   141035113.8792   26838102.180   105318416.0942 
E21  26309180.480   138255637.746    26309187.120   103242835.676  
E27  23257215.020   122217466.941    23257220.400    91266283.926  
E30  24113621.740   126717909.645    24113627.360    94627002.309  
> 2021  1  4 21 40 21.0000000  0 13       0.000000000000
G 4  21876131.640   114959826.668    21876134.940    85846631.848  
G 7  21123837.260   111006513.523                                  
G 8  22912762.380   120407304.441    22912764.080    89914540.180  
G 9  20286952.260   106608613.250    20286953.000    79610331.855  
G14  24052567.260   126397062.6762                                 
G16  23735637.300   124731600.6802                                 
G27  23090453.200   121341092.680    23090454.360    90611853.914  
G30  22618121.680   118858974.699    22618123.320    88758324.633  
E 7  24175087.660   127040903.652    24175093.900    94868198.113  
E19  26837599.420   141032501.1412   26837605.000   105316465.0272 
E21  26308717.280   138253203.672    26308723.940   103241018.023  
E27  23257150.120   122217125.848    23257155.480    91266029.211  
E30  24114030.220   126720056.164    24114035.820    94628605.227  
> 2021  1  4 21 40 22.0000000  0 13       0.000000000000
G 4  21876565.560   114962106.930    21876568.860    85848334.641  
G 7  21123694.860   111005765.203                                  
G 8  22912328.320   120405023.449    22912330.020    89912836.844  
G 9  20286997.800   106608852.617    20286998.540    79610510.605  
G14  24051880.220   126393452.2152                                 
G16  23736314.020   124735156.9022                                 
G27  23090359.960   121340602.723    23090361.120    90611488.039  
G30  22617730.020   118856916.547    22617731.660    88756787.703  
E 7  24175380.220   127042441.043    24175386.440    94869346.164  
E19  26837102.240   141029888.4732   26837107.820   105314514.0122 
E21  26308254.140   138250769.820    26308260.780   103239200.535  
E27  23257085.280   122216785.117    23257090.640    91265774.770  
E30  24114438.700   126722202.852    24114444.320    94630208.270  
> 2021  1  4 21 40 23.0000000  0 13       0.000000000000
G 4  21876999.560   114964387.563    21877002.840    85850037.711  
G 7  21123552.500   111005017.090                                  
G 8  22911894.340   120402742.855    22911896.020    89911133.801  
G 9  20287043.440   106609092.492    20287044.180    79610689.730  
G14  24051193.200   126389841.9262                                 
G16  23736990.780   124738713.3552                                 
G27  23090266.860   121340113.406    23090268.000    90611122.641  
G30  22617338.400   118854858.555    22617340.040    88755250.891  
E 7  24175672.840   127043978.766    24175679.060    94870494.461  
E19  26836605.080   141027275.8752   26836610.660   105312563.0472 
E21  26307791.040   138248336.180    26307797.680   103237383.207  
E27  23257020.500   122216444.762    23257025.880    91265520.609  
E30  24114847.240   126724349.711    24114852.860    94631811.445  
> 2021  1  4 21 40 24.0000000  0 13       0.000000000000
G 4  21877433.600   114966668.559    21877436.900    85851741.051  
G 7  21123410.180   111004269.148                                  
G 8  22911460.420   120400462.621    22911462.120    89909431.031  
G 9  20287089.180   106609332.867    20287089.920    79610869.234  
G14  24050506.200   126386231.7502                                 
G16  23737667.600   124742270.0272                                 
G27  23090173.860   121339624.719    23090175.020    90610757.711  
G30  22616946.800   118852800.730    22616948.440    88753714.203  
E 7  24175965.520   127045516.813    24175971.740    94871643.004  
E19  26836107.920   141024663.3362   26836113.500   105310612.1252 
E21  26307327.960   138245902.750    26307334.600   103235566.039  
E27  23256955.800   122216104.766    23256961.180    91265266.715  
E30  24115255.800   126726496.730    24115261.420    94633414.738  
> 2021  1  4 21 40 25.0000000  0 13       0.000000000000
G 4  21877867.740   114968949.941    21877871.040    85853444.680  
G 7  21123267.880   111003521.410                                  
G 8  22911026.580   120398182.785    22911028.280    89907728.559  
G 9  20287135.020   106609573.754    20287135.760    79611049.113  
G14  24049819.240   126382621.7582                                 
G16  23738344.460   124745826.9382                                 
G27  23090080.980   121339136.676    23090082.140    90610393.262  
G30  22616555.240   118850743.066    22616556.880    88752177.637  
E 7  24176258.260   127047055.203    24176264.480    94872791.801  
E19  26835610.780   141022050.8712   26835616.360   105308661.2582 
E21  26306864.940   138243469.559    26306871.580   103233749.047  
E27  23256891.180   122215765.145    23256896.540    91265013.102  
E30  24115664.400   126728643.938    24115670.020    94635018.172  
> 2021  1  4 21 40 26.0000000  0 13       0.000000000000
G 4  21878301.940   114971231.680    21878305.240    85855148.574  
G 7  21123125.620   111002773.859                                  
G 8  22910592.820   120395903.336    22910594.500    89906026.375  
G 9  20287180.960   106609815.141    20287181.700    79611229.371  
G14  24049132.300   126379011.9062                                 
G16  23739021.360   124749384.0702                                 
G27  23089988.220   121338649.250    23089989.380    90610029.277  
G30  22616163.700   118848685.570    22616165.340    88750641.195  
E 7  24176551.060   127048593.914    24176557.280    94873940.840  
E19  26835113.660   141019438.4842   26835119.240   105306710.4492 
E21  26306401.960   138241036.566    26306408.600   103231932.199  
E27  23256826.620   122215425.887    23256831.980    91264759.762  
E30  24116073.040   126730791.301    24116078.640    94636621.723  
> 2021  1  4 21 40 27.0000000  0 13       0.000000000000
G 4  21878736.220   114973513.805    21878739.500    85856852.758  
G 7  21122983.400   111002026.500                                  
G 8  22910159.120   120393624.273    22910160.800    89904324.477  
G 9  20287226.980   106610057.039    20287227.720    79611410.012  
G14  24048445.400   126375402.2422                                 
G16  23739698.300   124752941.4452                                 
G27  23089895.600   121338162.473    23089896.740    90609665.777  
G30  22615772.200   118846628.246    22615773.840    88749104.883  
E 7  24176843.940   127050132.973    24176850.160    94875090.137  
E19  26834616.540   141016826.1562   26834622.120   105304759.6882 
E21  26305939.020   138238603.793    26305945.660   103230115.520  
E27  23256762.120   122215087.004    23256767.500    91264506.699  
E30  24116481.700   126732938.848    24116487.300    94638225.410  
> 2021  1  4 21 40 28.0000000  0 13       0.000000000000
G 4  21879170.560   114975796.285    21879173.840    85858557.207  
G 7  21122841.220   111001279.313                                  
G 8  22909725.500   120391345.586    22909727.180    89902622.859  
G 9  20287273.120   106610299.438    20287273.860    79611591.020  
G14  24047758.540   126371792.6992                                 
G16  23740375.280   124756499.0232                                 
G27  23089803.080   121337676.320    23089804.240    90609302.738  
G30  22615380.740   118844571.070    22615382.380    88747568.680  
E 7  24177136.860   127051672.344    24177143.100    94876239.664  
E19  26834119.440   141014213.8912   26834125.020   105302808.9732 
E21  26305476.100   138236171.242    26305482.760   103228299.004  
E27  23256697.700   122214748.473    23256703.080    91264253.902  
E30  24116890.380   126735086.559    24116896.000    94639829.219  
> 2021  1  4 21 40 29.0000000  0 13       0.000000000000
G 4  21879604.960   114978079.156    21879608.260    85860261.945  
G 7  21122699.060   111000532.328                                  
G 8  22909291.960   120389067.320    22909293.640    89900921.559  
G 9  20287319.340   106610542.340    20287320.080    79611772.410  
G14  24047071.700   126368183.3442                                 
G16  23741052.320   124760056.8322                                 
G27  23089710.680   121337190.809    23089711.840    90608940.180  
G30  22614989.300   118842514.066    22614990.940    88746032.609  
E 7  24177429.860   127053212.055    24177436.080    94877389.449  
E19  26833622.360   141011601.7072   26833627.940   105300858.3132 
E21  26305013.240   138233738.891    26305019.880   103226482.641  
E27  23256633.360   122214410.332    23256638.720    91264001.395  
E30  24117299.120   126737234.445    24117304.740    94641433.160  
> 2021  1  4 21 40 31.0000000  0 13       0.000000000000
G 4  21880474.020   114982645.859    21880477.300    85863672.207  
G 7  21122414.820   110999039.219                                  
G 8  22908425.100   120384511.613    22908426.780    89897519.594  
G 9  20287412.080   106611029.539    20287412.800    79612136.297  
G14  24045698.000   126360965.5552                                 
G16  23742406.420   124767173.570                                  
G27  23089526.280   121336221.703    23089527.380    90608216.633  
G30  22614206.520   118838400.527    22614208.140    88742960.938  
E 7  24178016.060   127056292.375    24178022.300    94879689.637  
E19  26832628.160   141006377.902    26832633.680   105296957.652  
E21  26304087.640   138228874.875    26304094.280   103222850.430  
E27  23256504.860   122213735.121    23256510.240    91263497.180  
E30  24118116.660   126741530.711    24118122.280    94644641.406  
> 2021  1  4 21 40 32.0000000  0 13       0.000000000000
G 4  21880908.660   114984929.836    21880911.940    85865377.773  
G 7  21122272.780   110998292.801                                  
G 8  22907991.760   120382234.410    22907993.440    89895819.086  
G 9  20287458.600   106611273.965    20287459.320    79612318.824  
G14  24045011.240   126357356.6522                                 
G16  23743083.580   124770732.066                                  
G27  23089434.240   121335738.082    23089435.360    90607855.488  
G30  22613815.180   118836344.016    22613816.800    88741425.230  
E 7  24178309.240   127057833.090    24178315.480    94880840.172  
E19  26832131.120   141003765.934    26832136.640   105295007.156  
E21  26303624.920   138226443.207    26303631.560   103221034.570  
E27  23256440.720   122213398.086    23256446.100    91263245.496  
E30  24118525.500   126743679.109    24118531.100    94646245.734  
> 2021  1  4 21 40 33.0000000  0 13       0.000000000000
G 4  21881343.360   114987214.176    21881346.640    85867083.609  
G 7  21122130.780   110997546.566                                  
G 8  22907558.500   120379957.578    22907560.180    89894118.855  
G 9  20287505.200   106611518.875    20287505.920    79612501.711  
G14  24044324.520   126353747.8952                                 
G16  23743760.780   124774290.773                                  
G27  23089342.340   121335255.109    23089343.460    90607494.828  
G30  22613423.880   118834287.660    22613425.480    88739889.641  
E 7  24178602.500   127059374.137    24178608.740    94881990.953  
E19  26831634.080   141001154.012    26831639.600   105293056.699  
E21  26303162.220   138224011.727    26303168.860   103219218.855  
E27  23256376.660   122213061.410    23256382.020    91262994.082  
E30  24118934.340   126745827.676    24118939.960    94647850.180  
> 2021  1  4 21 40 34.0000000  0 13       0.000000000000
G 4  21881778.120   114989498.879    21881781.400    85868789.719  
G 7  21121988.820   110996800.527                                  
G 8  22907125.300   120377681.129    22907126.980    89892418.910  
G 9  20287551.900   106611764.289    20287552.620    79612684.973  
G14  24043637.840   126350139.3092                                 
G16  23744438.020   124777849.699                                  
G27  23089250.560   121334772.773    23089251.680    90607134.645  
G30  22613032.600   118832231.469    22613034.200    88738354.172  
E 7  24178895.800   127060915.500    24178902.040    94883141.973  
E19  26831137.060   140998542.176    26831142.580   105291106.301  
E21  26302699.560   138221580.480    26302706.200   103217403.316  
E27  23256312.660   122212725.090    23256318.020    91262742.934  
E30  24119343.240   126747976.414    24119348.860    94649454.758  
> 2021  1  4 21 40 35.0000000  0 13       0.000000000000
G 4  21882212.960   114991783.965    21882216.240    85870496.117  
G 7  21121846.880   110996054.680                                  
G 8  22906692.180   120375405.086    22906693.880    89890719.270  
G 9  20287598.700   106612010.223    20287599.420    79612868.625  
G14  24042951.180   126346530.8792                                 
G16  23745115.320   124781408.871                                  
G27  23089158.880   121334291.070    23089160.000    90606774.930  
G30  22612641.340   118830175.441    22612642.960    88736818.828  
E 7  24179189.180   127062457.211    24179195.420    94884293.246  
E19  26830640.060   140995930.422    26830645.580   105289155.965  
E21  26302236.960   138219149.453    26302243.600   103215587.941  
E27  23256248.720   122212389.160    23256254.100    91262492.078  
E30  24119752.160   126750125.328    24119757.780    94651059.465  
> 2021  1  4 21 40 36.0000000  0 13       0.000000000000
G 4  21882647.860   114994069.410    21882651.140    85872202.777  
G 7  21121705.000   110995309.004                                  
G 8  22906259.140   120373129.410    22906260.820    89889019.902  
G 9  20287645.600   106612256.641    20287646.320    79613052.641  
G14  24042264.540   126342922.5822                                 
G16  23745792.640   124784968.254                                  
G27  23089067.340   121333809.984    23089068.460    90606415.680  
G30  22612250.120   118828119.574    22612251.740    88735283.602  
E 7  24179482.620   127063999.234    24179488.860    94885444.758  
E19  26830143.060   140993318.703    26830148.580   105287205.660  
E21  26301774.380   138216718.637    26301781.020   103213772.723  
E27  23256184.860   122212053.574    23256190.240    91262241.477  
E30  24120161.120   126752274.395    24120166.720    94652664.285  
> 2021  1  4 21 40 37.0000000  0 13       0.000000000000
G 4  21883082.840   114996355.250    21883086.140    85873909.734  
G 7  21121563.140   110994563.547                                  
G 8  22905826.180   120370854.148    22905827.860    89887320.844  
G 9  20287692.600   106612503.582    20287693.320    79613237.043  
G14  24041577.940   126339314.4772                                 
G16  23746470.020   124788527.871                                  
G27  23088975.920   121333329.555    23088977.040    90606056.918  
G30  22611858.940   118826063.887    22611860.560    88733748.512  
E 7  24179776.120   127065541.605    24179782.360    94886596.527  
E19  26829646.080   140990707.074    26829651.600   105285255.418  
E21  26301311.860   138214288.043    26301318.480   103211957.668  
E27  23256121.080   122211718.371    23256126.440    91261991.164  
E30  24120570.100   126754423.641    24120575.720    94654269.242  
> 2021  1  4 21 40 38.0000000  0 13       0.000000000000
G 4  21883517.900   114998641.441    21883521.180    85875616.957  
G 7  21121421.320   110993818.262                                  
G 8  22905393.280   120368579.230    22905394.960    89885622.047  
G 9  20287739.680   106612751.023    20287740.400    79613421.824  
G14  24040891.360   126335706.5002                                 
G16  23747147.440   124792087.711                                  
G27  23088884.620   121332849.754    23088885.740    90605698.625  
G30  22611467.780   118824008.344    22611469.400    88732213.531  
E 7  24180069.680   127067084.297    24180075.920    94887748.539  
E19  26829149.120   140988095.520    26829154.640   105283305.230  
E21  26300849.360   138211857.648    26300856.000   103210142.762  
E27  23256057.360   122211383.535    23256062.740    91261741.121  
E30  24120979.120   126756573.059    24120984.740    94655874.328  
> 2021  1  4 21 40 39.0000000  0 13       0.000000000000
G 4  21883953.020   115000928.016    21883956.300    85877324.461  
G 7  21121279.540   110993073.188                                  
G 8  22904960.460   120366304.730    22904962.140    89883923.555  
G 9  20287786.860   106612998.980    20287787.580    79613606.984  
G14  24040204.820   126332098.7032                                 
G16  23747824.900   124795647.785                                  
G27  23088793.440   121332370.602    23088794.560    90605340.816  
G30  22611076.660   118821952.973    22611078.280    88730678.676  
E 7  24180363.320   127068627.336    24180369.540    94888900.809  
E19  26828652.160   140985484.023    26828657.680   105281355.090  
E21  26300386.920   138209427.484    26300393.560   103208328.031  
E27  23255993.700   122211049.070    23255999.080    91261491.359  
E30  24121388.160   126758722.645    24121393.780    94657479.539  
> 2021  1  4 21 40 40.0000000  0 13       0.000000000000
G 4  21884388.220   115003214.957    21884391.500    85879032.242  
G 7  21121137.780   110992328.289                                  
G 8  22904527.700   120364030.598    22904529.380    89882225.340  
G 9  20287834.160   106613247.434    20287834.880    79613792.520  
G14  24039518.320   126328491.0352                                 
G16  23748502.400   124799208.082                                  
G27  23088702.380   121331892.070    23088703.500    90604983.473  
G30  22610685.580   118819897.777    22610687.180    88729143.953  
E 7  24180657.000   127070170.691    24180663.240    94890053.313  
E19  26828155.220   140982872.598    26828160.740   105279405.000  
E21  26299924.500   138206997.539    26299931.140   103206513.461  
E27  23255930.120   122210714.973    23255935.500    91261241.871  
E30  24121797.260   126760872.410    24121802.880    94659084.879  
> 2021  1  4 21 40 41.0000000  0 13       0.000000000000
G 4  21884823.480   115005502.273    21884826.760    85880740.301  
G 7  21120996.080   110991583.582                                  
G 8  22904095.020   120361756.844    22904096.700    89880527.410  
G 9  20287881.520   106613496.391    20287882.240    79613978.430  
G14  24038831.820   126324883.5392                                 
G16  23749179.960   124802768.594                                  
G27  23088611.440   121331414.188    23088612.560    90604626.613  
G30  22610294.520   118817842.730    22610296.120    88727609.340  
E 7  24180950.760   127071714.383    24180957.000    94891206.066  
E19  26827658.300   140980261.242    26827663.820   105277454.961  
E21  26299462.140   138204567.813    26299468.780   103204699.055  
E27  23255866.620   122210381.238    23255872.000    91260992.652  
E30  24122206.360   126763022.336    24122211.980    94660690.348  
> 2021  1  4 21 40 42.0000000  0 13       0.000000000000
G 4  21885258.820   115007789.961    21885262.100    85882448.641  
G 7  21120854.400   110990839.082                                  
G 8  22903662.420   120359483.477    22903664.100    89878829.766  
G 9  20287929.000   106613745.855    20287929.720    79614164.719  
G14  24038145.380   126321276.2072                                 
G16  23749857.540   124806329.348                                  
G27  23088520.640   121330936.934    23088521.740    90604270.223  
G30  22609903.480   118815787.855    22609905.100    88726074.859  
E 7  24181244.580   127073258.414    24181250.800    94892359.078  
E19  26827161.380   140977649.949    26827166.900   105275504.973  
E21  26298999.820   138202138.297    26299006.460   103202884.809  
E27  23255803.180   122210047.871    23255808.560    91260743.711  
E30  24122615.520   126765172.438    24122621.140    94662295.938  
> 2021  1  4 21 40 43.0000000  0 13       0.000000000000
G 4  21885694.220   115010078.016    21885697.500    85884157.250  
G 7  21120712.760   110990094.762                                  
G 8  22903229.880   120357210.484    22903231.560    89877132.402  
G 9  20287976.580   106613995.828    20287977.300    79614351.383  
G14  24037458.960   126317669.0202                                 
G16  23750535.180   124809890.324                                  
G27  23088429.940   121330460.316    23088431.060    90603914.309  
G30  22609512.500   118813733.152    22609514.100    88724540.500  
E 7  24181538.460   127074802.770    24181544.680    94893512.332  
E19  26826664.480   140975038.738    26826670.000   105273555.043  
E21  26298537.540   138199709.012    26298544.180   103201070.734  
E27  23255739.800   122209714.875    23255745.180    91260495.047  
E30  24123024.700   126767322.703    24123030.320    94663901.656  
> 2021  1  4 21 40 44.0000000  0 13       0.000000000000
G 4  21886129.700   115012366.449    21886132.980    85885866.145  
G 7  21120571.160   110989350.633                                  
G 8  22902797.420   120354937.875    22902799.100    89875435.328  
G 9  20288024.240   106614246.316    20288024.960    79614538.438  
G14  24036772.560   126314062.0082                                 
G16  23751212.860   124813451.516                                  
G27  23088339.360   121329984.332    23088340.480    90603558.863  
G30  22609121.520   118811678.602    22609123.140    88723006.258  
E 7  24181832.400   127076347.461    24181838.640    94894665.832  
E19  26826167.600   140972427.598    26826173.100   105271605.168  
E21  26298075.300   138197279.938    26298081.940   103199256.816  
E27  23255676.520   122209382.254    23255681.880    91260246.660  
E30  24123433.920   126769473.137    24123439.520    94665507.500  
> 2021  1  4 21 40 45.0000000  0 13       0.000000000000
G 4  21886565.240   115014655.242    21886568.520    85887575.309  
G 7  21120429.600   110988606.699                                  
G 8  22902365.040   120352665.656    22902366.720    89873738.539  
G 9  20288072.000   106614497.297    20288072.720    79614725.859  
G14  24036086.200   126310455.1412                                 
G16  23751890.580   124817012.938                                  
G27  23088248.900   121329508.984    23088250.020    90603203.898  
G30  22608730.600   118809624.223    22608732.200    88721472.148  
E 7  24182126.400   127077892.480    24182132.640    94895819.582  
E19  26825670.720   140969816.523    26825676.240   105269655.340  
E21  26297613.100   138194851.086    26297619.740   103197443.063  
E27  23255613.280   122209049.992    23255618.660    91259998.543  
E30  24123843.160   126771623.758    24123848.780    94667113.480  
> 2021  1  4 21 40 46.0000000  0 13       0.000000000000
G 4  21887000.860   115016944.418    21887004.140    85889284.758  
G 7  21120288.080   110987862.961                                  
G 8  22901932.720   120350393.824    22901934.400    89872042.043  
G 9  20288119.860   106614748.785    20288120.580    79614913.656  
G14  24035399.860   126306848.4222                                 
G16  23752568.340   124820574.586                                  
G27  23088158.580   121329034.277    23088159.700    90602849.410  
G30  22608339.700   118807570.016    22608341.300    88719938.160  
E 7  24182420.460   127079437.832    24182426.700    94896973.578  
E19  26825173.860   140967205.520    26825179.380   105267705.566  
E21  26297150.940   138192422.441    26297157.580   103195629.465  
E27  23255550.120   122208718.094    23255555.500    91259750.699  
E30  24124252.440   126773774.535    24124258.060    94668719.582  
> 2021  1  4 21 40 47.0000000  0 13       0.000000000000
G 4  21887436.540   115019233.961    21887439.840    85890994.480  
G 7  21120146.580   110987119.410                                  
G 8  22901500.480   120348122.383    22901502.160    89870345.840  
G 9  20288167.820   106615000.777    20288168.540    79615101.832  
G14  24034713.560   126303241.8792                                 
G16  23753246.140   124824136.461                                  
G27  23088068.360   121328560.203    23088069.480    90602495.391  
G30  22607948.820   118805515.969    22607950.420    88718404.297  
E 7  24182714.600   127080983.516    24182720.840    94898127.824  
E19  26824677.020   140964594.590    26824682.520   105265755.844  
E21  26296688.820   138189994.027    26296695.460   103193816.043  
E27  23255487.040   122208386.578    23255492.400    91259503.137  
E30  24124661.740   126775925.484    24124667.360    94670325.809  
> 2021  1  4 21 40 48.0000000  0 13       0.000000000000
G 4  21887872.300   115021523.883    21887875.600    85892704.484  
G 7  21120005.140   110986376.051                                  
G 8  22901068.320   120345851.344    22901070.000    89868649.934  
G 9  20288215.860   106615253.277    20288216.580    79615290.391  
G14  24034027.300   126299635.4882                                 
G16  23753923.980   124827698.559                                  
G27  23087978.280   121328086.766    23087979.380    90602141.852  
G30  22607557.980   118803462.070    22607559.580    88716870.543  
E 7  24183008.800   127082529.539    24183015.040    94899282.320  
E19  26824180.180   140961983.711    26824185.700   105263806.168  
E21  26296226.760   138187565.816    26296233.380   103192002.766  
E27  23255424.020   122208055.422    23255429.400    91259255.844  
E30  24125071.100   126778076.613    24125076.700    94671932.172  
> 2021  1  4 21 40 49.0000000  0 13       0.000000000000
G 4  21888308.140   115023814.164    21888311.420    85894414.762  
G 7  21119863.720   110985632.879                                  
G 8  22900636.220   120343580.668    22900637.900    89866954.301  
G 9  20288264.020   106615506.281    20288264.740    79615479.320  
G14  24033341.060   126296029.2542                                 
G16  23754601.880   124831260.883                                  
G27  23087888.300   121327613.961    23087889.420    90601788.785  
G30  22607167.160   118801408.348    22607168.780    88715336.918  
E 7  24183303.060   127084075.879    24183309.300    94900437.055  
E19  26823683.360   140959372.922    26823688.880   105261856.551  
E21  26295764.720   138185137.820    26295771.360   103190189.652  
E27  23255361.060   122207724.625    23255366.440    91259008.820  
E30  24125480.460   126780227.895    24125486.080    94673538.648  
> 2021  1  4 21 40 50.0000000  0 13       0.000000000000
G 4  21888744.040   115026104.828    21888747.320    85896125.320  
G 7  21119722.320   110984889.898                                  
G 8  22900204.200   120341310.367    22900205.880    89865258.949  
G 9  20288312.260   106615759.785    20288312.980    79615668.625  
G14  24032654.840   126292423.1762                                 
G16  23755279.820   124834823.430                                  
G27  23087798.460   121327141.801    23087799.580    90601436.195  
G30  22606776.400   118799354.801    22606778.000    88713803.426  
E 7  24183597.380   127085622.559    24183603.620    94901592.043  
E19  26823186.540   140956762.195    26823192.060   105259906.984  
E21  26295302.720   138182710.055    26295309.360   103188376.715  
E27  23255298.180   122207394.207    23255303.560    91258762.078  
E30  24125889.880   126782379.352    24125895.500    94675145.254  
> 2021  1  4 21 40 51.0000000  0 13       0.000000000000
G 4  21889180.000   115028395.852    21889183.300    85897836.148  
G 7  21119580.980   110984147.105                                  
G 8  22899772.240   120339040.445    22899773.920    89863563.879  
G 9  20288360.600   106616013.797    20288361.320    79615858.309  
G14  24031968.660   126288817.2662                                 
G16  23755957.780   124838386.195                                  
G27  23087708.720   121326670.273    23087709.840    90601084.082  
G30  22606385.640   118797301.398    22606387.260    88712270.043  
E 7  24183891.760   127087169.574    24183898.000    94902747.281  
E19  26822689.760   140954151.539    26822695.260   105257957.469  
E21  26294840.780   138180282.504    26294847.420   103186563.930  
E27  23255235.380   122207064.152    23255240.760    91258515.609  
E30  24126299.320   126784530.977    24126304.920    94676751.984  
> 2021  1  4 21 40 52.0000000  0 13       0.000000000000
G 4  21889616.040   115030687.246    21889619.340    85899547.254  
G 7  21119439.680   110983404.508                                  
G 8  22899340.360   120336770.902    22899342.040    89861869.090  
G 9  20288409.040   106616268.328    20288409.760    79616048.383  
G14  24031282.500   126285211.5122                                 
G16  23756635.800   124841949.203                                  
G27  23087619.120   121326199.383    23087620.240    90600732.441  
G30  22605994.940   118795248.180    22605996.540    88710736.793  
E 7  24184186.200   127088716.914    24184192.440    94903902.762  
E19  26822192.980   140951540.953    26822198.480   105256008.008  
E21  26294378.860   138177855.164    26294385.500   103184751.309  
E27  23255172.640   122206734.465    23255178.020    91258269.418  
E30  24126708.780   126786682.777    24126714.400    94678358.852  
> 2021  1  4 21 40 53.0000000  0 13       0.000000000000
G 4  21890052.160   115032979.020    21890055.440    85901258.645  
G 7  21119298.400   110982662.105                                  
G 8  22898908.560   120334501.742    22898910.240    89860174.590  
G 9  20288457.560   106616523.363    20288458.280    79616238.828  
G14  24030596.380   126281605.9022                                 
G16  23757313.860   124845512.426                                  
G27  23087529.640   121325729.117    23087530.760    90600381.273  
G30  22605604.240   118793195.105    22605605.860    88709203.656  
E 7  24184480.720   127090264.594    24184486.960    94905058.496  
E19  26821696.200   140948930.438    26821701.720   105254058.598  
E21  26293917.000   138175428.051    26293923.640   103182938.855  
E27  23255109.960   122206405.148    23255115.340    91258023.496  
E30  24127118.280   126788834.746    24127123.900    94679965.840  
> 2021  1  4 21 40 54.0000000  0 13       0.000000000000
G 4  21890488.340   115035271.168    21890491.620    85902970.309  
G 7  21119157.160   110981919.898                                  
G 8  22898476.840   120332232.988    22898478.500    89858480.391  
G 9  20288506.180   106616778.879    20288506.900    79616429.637  
G14  24029910.300   126278000.4652                                 
G16  23757991.980   124849075.871                                  
G27  23087440.280   121325259.500    23087441.380    90600030.586  
G30  22605213.600   118791142.211    22605215.200    88707670.648  
E 7  24184775.300   127091812.598    24184781.540    94906214.473  
E19  26821199.460   140946319.992    26821204.960   105252109.238  
E21  26293455.180   138173001.160    26293461.820   103181126.566  
E27  23255047.360   122206076.203    23255052.740    91257777.855  
E30  24127527.820   126790986.883    24127533.440    94681572.953  
> 2021  1  4 21 40 55.0000000  0 13       0.000000000000
G 4  21890924.600   115037563.684    21890927.880    85904682.254  
G 7  21119015.960   110981177.875                                  
G 8  22898045.180   120329964.609    22898046.860    89856786.473  
G 9  20288554.920   106617034.934    20288555.640    79616620.848  
G14  24029224.240   126274395.1882                                 
G16  23758670.120   124852639.539                                  
G27  23087351.020   121324790.520    23087352.140    90599680.371  
G30  22604822.980   118789089.477    22604824.580    88706137.766  
E 7  24185069.940   127093360.934    24185076.160    94907370.699  
E19  26820702.720   140943709.617    26820708.220   105250159.938  
E21  26292993.400   138170574.465    26293000.020   103179314.430  
E27  23254984.840   122205747.609    23254990.220    91257532.480  
E30  24127937.400   126793139.180    24127943.020    94683180.191  
> 2021  1  4 21 40 56.0000000  0 13       0.000000000000
G 4  21891360.920   115039856.566    21891364.200    85906394.473  
G 7  21118874.800   110980436.043                                  
G 8  22897613.600   120327696.629    22897615.280    89855092.852  
G 9  20288603.740   106617291.488    20288604.460    79616812.430  
G14  24028538.200   126270790.0592                                 
G16  23759348.320   124856203.445                                  
G27  23087261.900   121324322.164    23087263.020    90599330.625  
G30  22604432.380   118787036.902    22604434.000    88704605.000  
E 7  24185364.640   127094909.598    24185370.860    94908527.176  
E19  26820205.980   140941099.301    26820211.500   105248210.680  
E21  26292531.640   138168147.992    26292538.280   103177502.457  
E27  23254922.380   122205419.387    23254927.760    91257287.387  
E30  24128347.000   126795291.645    24128352.620    94684787.559  
> 2021  1  4 21 40 57.0000000  0 13       0.000000000000
G 4  21891797.320   115042149.828    21891800.600    85908106.973  
G 7  21118733.680   110979694.402                                  
G 8  22897182.080   120325429.043    22897183.760    89853399.527  
G 9  20288652.660   106617548.531    20288653.380    79617004.379  
G14  24027852.200   126267185.0982                                 
G16  23760026.540   124859767.566                                  
G27  23087172.900   121323854.461    23087174.020    90598981.367  
G30  22604041.820   118784984.500    22604043.440    88703072.363  
E 7  24185659.400   127096458.602    24185665.640    94909683.902  
E19  26819709.280   140938489.059    26819714.780   105246261.480  
E21  26292069.940   138165721.754    26292076.580   103175690.664  
E27  23254860.000   122205091.531    23254865.360    91257042.563  
E30  24128756.620   126797444.289    24128762.240    94686395.055  
> 2021  1  4 21 40 58.0000000  0 13       0.000000000000
G 4  21892233.780   115044443.457    21892237.060    85909819.746  
G 7  21118592.580   110978952.949                                  
G 8  22896750.660   120323161.840    22896752.340    89851706.488  
G 9  20288701.660   106617806.090    20288702.380    79617196.711  
G14  24027166.220   126263580.2772                                 
G16  23760704.820   124863331.910                                  
G27  23087084.020   121323387.391    23087085.140    90598632.582  
G30  22603651.300   118782932.258    22603652.900    88701539.844  
E 7  24185954.220   127098007.926    24185960.460    94910840.867  
E19  26819212.580   140935878.895    26819218.080   105244312.336  
E21  26291608.300   138163295.723    26291614.920   103173879.020  
E27  23254797.680   122204764.043    23254803.040    91256798.016  
E30  24129166.300   126799597.090    24129171.900    94688002.668  
> 2021  1  4 21 40 59.0000000  0 13       0.000000000000
G 4  21892670.320   115046737.449    21892673.600    85911532.789  
G 7  21118451.520   110978211.684                                  
G 8  22896319.300   120320895.031    22896320.980    89850013.742  
G 9  20288750.780   106618064.148    20288751.500    79617389.418  
G14  24026480.280   126259975.6372                                 
G16  23761383.140   124866896.484                                  
G27  23086995.260   121322920.953    23086996.380    90598284.266  
G30  22603260.800   118780880.180    22603262.420    88700007.449  
E 7  24186249.120   127099557.590    24186255.360    94911998.090  
E19  26818715.880   140933268.789    26818721.400   105242363.238  
E21  26291146.680   138160869.906    26291153.300   103172067.539  
E27  23254735.420   122204436.922    23254740.800    91256553.738  
E30  24129576.000   126801750.066    24129581.600    94689610.414  
> 2021  1  4 21 41  0.0000000  0 13       0.000000000000
G 4  21893106.920   115049031.828    21893110.200    85913246.125  
G 7  21118310.500   110977470.617                                  
G 8  22895888.000   120318628.590    22895889.680    89848321.270  
G 9  20288799.980   106618322.730    20288800.700    79617582.516  
G14  24025794.380   126256371.1482                                 
G16  23762061.500   124870461.270                                  
G27  23086906.640   121322455.152    23086907.740    90597936.430  
G30  22602870.340   118778828.277    22602871.940    88698475.188  
E 7  24186544.080   127101107.582    24186550.300    94913155.555  
E19  26818219.220   140930658.7732   26818224.720   105240414.2072 
E21  26290685.100   138158444.316    26290691.720   103170256.227  
E27  23254673.240   122204110.180    23254678.620    91256309.746  
E30  24129985.720   126803903.219    24129991.340    94691218.289  
> 2021  1  4 21 41  2.0000000  0 13       0.000000000000
G 4  21893980.340   115053621.688    21893983.640    85916673.613  
G 7  21118028.580   110975989.047                                  
G 8  22895025.640   120314096.824    22895027.320    89844937.164  
G 9  20288898.680   106618841.395    20288899.400    79617969.828  
G14  24024422.640   126249162.6482                                 
G16  23763418.340   124877591.531                                  
G27  23086729.720   121321525.480    23086730.840    90597242.195  
G30  22602089.500   118774724.949    22602091.120    88695411.012  
E 7  24187134.160   127104208.559    24187140.400    94915471.223  
E19  26817225.900   140925438.9222   26817231.420   105236516.2702 
E21  26289762.080   138153593.785    26289768.700   103166634.082  
E27  23254549.100   122203457.773    23254554.460    91255822.566  
E30  24130805.280   126808210.012    24130810.900    94694434.406  
> 2021  1  4 21 41  3.0000000  0 13       0.000000000000
G 4  21894417.160   115055917.176    21894420.460    85918387.777  
G 7  21117887.660   110975248.547                                  
G 8  22894594.560   120311831.508    22894596.240    89843245.531  
G 9  20288948.180   106619101.480    20288948.900    79618164.047  
G14  24023736.820   126245558.6332                                 
G16  23764096.840   124881157.000                                  
G27  23086641.440   121321061.590    23086642.560    90596895.785  
G30  22601699.140   118772673.523    22601700.740    88693879.105  
E 7  24187429.300   127105759.535    24187435.540    94916629.426  
E19  26816729.280   140922829.1092   26816734.780   105234567.3912 
E21  26289300.620   138151168.844    26289307.240   103164823.254  
E27  23254487.120   122203132.121    23254492.500    91255579.387  
E30  24131215.100   126810363.664    24131220.720    94696042.656  
> 2021  1  4 21 41  4.0000000  0 13       0.000000000000
G 4  21894854.060   115058213.031    21894857.340    85920102.215  
G 7  21117746.800   110974508.250                                  
G 8  22894163.580   120309566.590    22894165.240    89841554.203  
G 9  20288997.780   106619362.082    20288998.500    79618358.656  
G14  24023051.040   126241954.7852                                 
G16  23764775.360   124884722.684                                  
G27  23086553.300   121320598.336    23086554.420    90596549.848  
G30  22601308.800   118770622.281    22601310.400    88692347.336  
E 7  24187724.520   127107310.855    24187730.740    94917787.879  
E19  26816232.660   140920219.3632   26816238.160   105232618.5552 
E21  26288839.220   138148744.129    26288845.840   103163012.594  
E27  23254425.240   122202806.852    23254430.600    91255336.496  
E30  24131624.960   126812517.484    24131630.580    94697651.031  
> 2021  1  4 21 41  5.0000000  0 13       0.000000000000
G 4  21895291.020   115060509.266    21895294.300    85921816.941  
G 7  21117605.960   110973768.129                                  
G 8  22893732.640   120307302.051    22893734.320    89839863.152  
G 9  20289047.460   106619623.184    20289048.180    79618553.637  
G14  24022365.280   126238351.1052                                 
G16  23765453.940   124888288.594                                  
G27  23086465.260   121320135.719    23086466.380    90596204.395  
G30  22600918.480   118768571.188    22600920.100    88690815.680  
E 7  24188019.780   127108862.508    24188026.020    94918946.586  
E19  26815736.060   140917609.6912   26815741.560   105230669.7812 
E21  26288377.840   138146319.621    26288384.460   103161202.090  
E27  23254363.400   122202481.938    23254368.760    91255093.867  
E30  24132034.860   126814671.477    24132040.460    94699259.535  
> 2021  1  4 21 41  6.0000000  0 13       0.000000000000
G 4  21895728.060   115062805.863    21895731.340    85923531.938  
G 7  21117465.160   110973028.211                                  
G 8  22893301.800   120305037.906    22893303.460    89838172.402  
G 9  20289097.240   106619884.793    20289097.960    79618749.000  
G14  24021679.560   126234747.5662                                 
G16  23766132.560   124891854.730                                  
G27  23086377.360   121319673.742    23086378.460    90595859.414  
G30  22600528.220   118766520.270    22600529.820    88689284.152  
E 7  24188315.120   127110414.492    24188321.340    94920105.539  
E19  26815239.460   140915000.1022   26815244.960   105228721.0662 
E21  26287916.520   138143895.336    26287923.140   103159391.750  
E27  23254301.640   122202157.391    23254307.000    91254851.516  
E30  24132444.780   126816825.645    24132450.400    94700868.172  
> 2021  1  4 21 41  7.0000000  0 13       0.000000000000
G 4  21896165.160   115065102.836    21896168.440    85925247.211  
G 7  21117324.380   110972288.477                                  
G 8  22892871.020   120302774.133    22892872.680    89836481.926  
G 9  20289147.120   106620146.910    20289147.840    79618944.738  
G14  24020993.860   126231144.1912                                 
G16  23766811.200   124895421.074                                  
G27  23086289.560   121319212.395    23086290.680    90595514.906  
G30  22600137.960   118764469.504    22600139.560    88687752.742  
E 7  24188610.520   127111966.797    24188616.740    94921264.730  
E19  26814742.880   140912390.5662   26814748.380   105226772.3952 
E21  26287455.240   138141471.266    26287461.860   103157581.574  
E27  23254239.960   122201833.211    23254245.320    91254609.438  
E30  24132854.740   126818979.965    24132860.340    94702476.922  
> 2021  1  4 21 41  8.0000000  0 13       0.000000000000
G 4  21896602.320   115067400.172    21896605.600    85926962.758  
G 7  21117183.660   110971548.941                                  
G 8  22892440.300   120300510.746    22892441.980    89834791.742  
G 9  20289197.100   106620409.535    20289197.820    79619140.859  
G14  24020308.180   126227540.9732                                 
G16  23767489.900   124898987.652                                  
G27  23086201.900   121318751.691    23086203.000    90595170.879  
G30  22599747.760   118762418.914    22599749.360    88686221.465  
E 7  24188905.980   127113519.445    24188912.200    94922424.180  
E19  26814246.320   140909781.0982   26814251.820   105224823.7702 
E21  26286993.980   138139047.426    26287000.600   103155771.566  
E27  23254178.340   122201509.402    23254183.700    91254367.637  
E30  24133264.720   126821134.465    24133270.340    94704085.801  
> 2021  1  4 21 41  9.0000000  0 13       0.000000000000
G 4  21897039.560   115069697.879    21897042.840    85928678.578  
G 7  21117042.960   110970809.590                                  
G 8  22892009.680   120298247.754    22892011.340    89833101.852  
G 9  20289247.180   106620672.664    20289247.900    79619337.355  
G14  24019622.560   126223937.9262                                 
G16  23768168.660   124902554.461                                  
G27  23086114.360   121318291.625    23086115.460    90594827.328  
G30  22599357.580   118760368.477    22599359.160    88684690.297  
E 7  24189201.500   127115072.418    24189207.720    94923583.871  
E19  26813749.780   140907171.7192   26813755.260   105222875.2112 
E21  26286532.780   138136623.785    26286539.400   103153961.711  
E27  23254116.780   122201185.961    23254122.140    91254126.109  
E30  24133674.740   126823289.129    24133680.340    94705694.809  
> 2021  1  4 21 41 10.0000000  0 13       0.000000000000
G 4  21897476.880   115071995.973    21897480.160    85930394.691  
G 7  21116902.320   110970070.438                                  
G 8  22891579.120   120295985.145    22891580.780    89831412.246  
G 9  20289297.360   106620936.301    20289298.060    79619534.234  
G14  24018936.940   126220335.0202                                 
G16  23768847.440   124906121.484                                  
G27  23086026.940   121317832.215    23086028.040    90594484.266  
G30  22598967.420   118758318.203    22598969.020    88683159.254  
E 7  24189497.080   127116625.715    24189503.300    94924743.805  
E19  26813253.240   140904562.3912   26813258.720   105220926.6912 
E21  26286071.620   138134200.375    26286078.240   103152152.027  
E27  23254055.300   122200862.887    23254060.660    91253884.855  
E30  24134084.800   126825443.961    24134090.400    94707303.941  
> 2021  1  4 21 41 11.0000000  0 13       0.000000000000
G 4  21897914.260   115074294.426    21897917.540    85932111.070  
G 7  21116761.700   110969331.473                                  
G 8  22891148.640   120293722.934    22891150.300    89829722.938  
G 9  20289347.620   106621200.449    20289348.340    79619731.488  
G14  24018251.360   126216732.2542                                 
G16  23769526.260   124909688.730                                  
G27  23085939.620   121317373.422    23085940.740    90594141.668  
G30  22598577.300   118756268.109    22598578.900    88681628.344  
E 7  24189792.720   127118179.359    24189798.940    94925903.996  
E19  26812756.700   140901953.1522   26812762.200   105218978.2382 
E21  26285610.500   138131777.184    26285617.120   103150342.508  
E27  23253993.900   122200540.176    23253999.260    91253643.875  
E30  24134494.880   126827598.961    24134500.480    94708913.195  
> 2021  1  4 21 41 12.0000000  0 13       0.000000000000
G 4  21898351.720   115076593.250    21898355.000    85933827.730  
G 7  21116621.120   110968592.695                                  
G 8  22890718.220   120291461.098    22890719.880    89828033.910  
G 9  20289397.980   106621465.090    20289398.700    79619929.113  
G14  24017565.820   126213129.6762                                 
G16  23770205.140   124913256.195                                  
G27  23085852.440   121316915.273    23085853.560    90593799.547  
G30  22598187.220   118754218.168    22598188.800    88680097.547  
E 7  24190088.440   127119733.320    24190094.660    94927064.426  
E19  26812260.200   140899343.9652   26812265.700   105217029.8242 
E21  26285149.420   138129354.215    26285156.040   103148533.152  
E27  23253932.560   122200217.832    23253937.920    91253403.168  
E30  24134905.000   126829754.129    24134910.600    94710522.578  
> 2021  1  4 21 41 13.0000000  0 13       0.000000000000
G 4  21898789.240   115078892.453    21898792.520    85935544.668  
G 7  21116480.560   110967854.113                                  
G 8  22890287.880   120289199.664    22890289.540    89826345.180  
G 9  20289448.440   106621730.242    20289449.140    79620127.121  
G14  24016880.300   126209527.2662                                 
G16  23770884.040   124916823.891                                  
G27  23085765.380   121316457.758    23085766.500    90593457.898  
G30  22597797.160   118752168.395    22597798.740    88678566.875  
E 7  24190384.200   127121287.617    24190390.420    94928225.105  
E19  26811763.700   140896734.8672   26811769.200   105215081.4772 
E21  26284688.380   138126931.441    26284695.000   103146723.941  
E27  23253871.280   122199895.852    23253876.640    91253162.734  
E30  24135315.140   126831909.461    24135320.740    94712132.086  
> 2021  1  4 21 41 14.0000000  0 13       0.000000000000
G 4  21899226.840   115081192.020    21899230.120    85937261.883  
G 7  21116340.060   110967115.723                                  
G 8  22889857.620   120286938.625    22889859.280    89824656.746  
G 9  20289499.000   106621995.898    20289499.700    79620325.508  
G14  24016194.820   126205925.0162                                 
G16  23771563.000   124920391.801                                  
G27  23085678.440   121316000.887    23085679.560    90593116.730  
G30  22597407.120   118750118.797    22597408.720    88677036.336  
E 7  24190680.040   127122842.254    24190686.260    94929386.039  
E19  26811267.220   140894125.8362   26811272.700   105213133.1842 
E21  26284227.400   138124508.895    26284234.000   103144914.902  
E27  23253810.080   122199574.250    23253815.440    91252922.578  
E30  24135725.320   126834064.973    24135730.920    94713741.723  
> 2021  1  4 21 41 15.0000000  0 13       0.000000000000
G 4  21899664.500   115083491.961    21899667.780    85938979.375  
G 7  21116199.580   110966377.523                                  
G 8  22889427.440   120284677.949    22889429.080    89822968.586  
G 9  20289549.640   106622262.070    20289550.360    79620524.273  
G14  24015509.360   126202322.9222                                 
G16  23772242.000   124923959.938                                  
G27  23085591.620   121315544.637    23085592.740    90592776.031  
G30  22597017.140   118748069.344    22597018.720    88675505.906  
E 7  24190975.940   127124397.215    24190982.160    94930547.215  
E19  26810770.740   140891516.8712   26810776.240   105211184.9342 
E21  26283766.440   138122086.578    26283773.060   103143106.035  
E27  23253748.960   122199253.008    23253754.320    91252682.695  
E30  24136135.540   126836220.648    24136141.140    94715351.484  
> 2021  1  4 21 41 16.0000000  0 13       0.000000000000
G 4  21900102.240   115085792.258    21900105.520    85940697.133  
G 7  21116059.140   110965639.504                                  
G 8  22888997.320   120282417.672    22888998.980    89821280.723  
G 9  20289600.400   106622528.746    20289601.100    79620723.418  
G14  24014823.940   126198720.9882                                 
G16  23772921.040   124927528.297                                  
G27  23085504.940   121315089.031    23085506.040    90592435.809  
G30  22596627.160   118746020.066    22596628.760    88673975.605  
E 7  24191271.900   127125952.516    24191278.120    94931708.645  
E19  26810274.300   140888907.9842   26810279.780   105209236.7422 
E21  26283305.540   138119664.480    26283312.140   103141297.328  
E27  23253687.900   122198932.137    23253693.260    91252443.086  
E30  24136545.780   126838376.488    24136551.380    94716961.367  
> 2021  1  4 21 41 17.0000000  0 13       0.000000000000
G 4  21900540.040   115088092.945    21900543.320    85942415.180  
G 7  21115918.740   110964901.676                                  
G 8  22888567.280   120280157.777    22888568.920    89819593.145  
G 9  20289651.240   106622795.926    20289651.940    79620922.938  
G14  24014138.540   126195119.2192                                 
G16  23773600.120   124931096.871                                  
G27  23085418.360   121314634.055    23085419.460    90592096.059  
G30  22596237.240   118743970.945    22596238.820    88672445.426  
E 7  24191567.940   127127508.129    24191574.140    94932870.309  
E19  26809777.860   140886299.1642   26809783.340   105207288.6022 
E21  26282844.660   138117242.586    26282851.260   103139488.777  
E27  23253626.900   122198611.625    23253632.260    91252203.750  
E30  24136956.040   126840532.492    24136961.640    94718571.375  
> 2021  1  4 21 41 18.0000000  0 13       0.000000000000
G 4  21900977.920   115090393.996    21900981.200    85944133.500  
G 7  21115778.380   110964164.055                                  
G 8  22888137.300   120277898.285    22888138.960    89817905.867  
G 9  20289702.180   106623063.617    20289702.880    79621122.844  
G14  24013453.180   126191517.5942                                 
G16  23774279.240   124934665.672                                  
G27  23085331.900   121314179.734    23085333.000    90591756.801  
G30  22595847.340   118741922.008    22595848.920    88670915.375  
E 7  24191864.020   127129064.090    24191870.240    94934032.230  
E19  26809281.420   140883690.4182   26809286.900   105205340.5202 
E21  26282383.840   138114820.926    26282390.440   103137680.398  
E27  23253565.980   122198291.488    23253571.340    91251964.691  
E30  24137366.360   126842688.672    24137371.960    94720181.512  
> 2021  1  4 21 41 19.0000000  0 13       0.000000000000
G 4  21901415.880   115092695.410    21901419.140    85945852.094  
G 7  21115638.060   110963426.609                                  
G 8  22887707.420   120275639.188    22887709.060    89816218.883  
G 9  20289753.220   106623331.805    20289753.920    79621323.117  
G14  24012767.860   126187916.1372                                 
G16  23774958.400   124938234.695                                  
G27  23085245.560   121313726.043    23085246.660    90591418.008  
G30  22595457.460   118739873.207    22595459.060    88669385.434  
E 7  24192160.180   127130620.379    24192166.380    94935194.398  
E19  26808785.000   140881081.7382   26808790.480   105203392.4842 
E21  26281923.040   138112399.473    26281929.660   103135872.172  
E27  23253505.140   122197971.711    23253510.480    91251725.898  
E30  24137776.700   126844845.012    24137782.300    94721791.770  
> 2021  1  4 21 41 20.0000000  0 13       0.000000000000
G 4  21901853.900   115094997.207    21901857.160    85947570.973  
G 7  21115497.760   110962689.375                                  
G 8  22887277.600   120273380.449    22887279.240    89814532.168  
G 9  20289804.360   106623600.504    20289805.060    79621523.773  
G14  24012082.540   126184314.8402                                 
G16  23775637.620   124941803.941                                  
G27  23085159.360   121313272.996    23085160.460    90591079.695  
G30  22595067.620   118737824.586    22595069.220    88667855.621  
E 7  24192456.380   127132177.000    24192462.600    94936356.813  
E19  26808288.600   140878473.1412   26808294.080   105201444.5122 
E21  26281462.300   138109978.258    26281468.900   103134064.129  
E27  23253444.360   122197652.313    23253449.700    91251487.391  
