     3.03           OBSERVATION DATA    M: Mixed            RINEX VERSION / TYPE
sbp2rinex v2.2 (RTKL                    20210504 171530 UTC PGM / RUN BY / DATE 
log: 202103102340-202103110020.sbp                          COMMENT             
format: Swift Navigation SBP, option: CONVBASE,EPHALL,OBSALLCOMMENT             
                                                            MARKER NAME         
                                                            MARKER NUMBER       
                                                            MARKER TYPE         
                                                            OBSERVER / AGENCY   
                                                            REC # / TYPE / VERS 
                                                            ANT # / TYPE        
 -2711592.6468 -4352792.6432  3779529.8514                  APPROX POSITION XYZ 
        0.0000        0.0000        0.0000                  ANTENNA: DELTA H/E/N
G    4 C1C L1C C5I L5I                                      SYS / # / OBS TYPES 
E    4 C1B L1B C5I L5I                                      SYS / # / OBS TYPES 
  2021     3    10    23    40   18.0000000     GPS         TIME OF FIRST OBS   
  2021     3    11     0    30   16.0000000     GPS         TIME OF LAST OBS    
G                                                           SYS / PHASE SHIFT   
E                                                           SYS / PHASE SHIFT   
  0                                                         GLONASS SLOT / FRQ #
 C1C    0.000 C1P    0.000 C2C    0.000 C2P    0.000        GLONASS COD/PHS/BIS 
                                                            END OF HEADER       
> 2021  3 10 23 40 18.0000000  0 11       0.000000000000
G 2  21839756.320   114768698.492                                  
G 6  20810154.960   109358051.336    20810157.400    81663480.547  
G12  22286960.100   117118766.402                                  
G14  24211565.080   127232600.750    24211570.140    95011352.973  
G17  22775804.640   119687652.750                                  
G19  20834297.320   109484981.422                                  
G24  20915400.600   109911125.184    20915402.320    82076490.836  
G28  23605074.020   124045486.863                                  
E 2  23368889.840   122804335.145    23368892.020    91704531.652  
E25  25216746.380   132514853.320    25216750.480    98955886.063  
E30  25061557.460   131699338.133    25061561.080    98346898.348  
> 2021  3 10 23 40 19.0000000  0 11       0.000000000000
G 2  21839293.720   114766267.582                                  
G 6  20810009.600   109357287.484    20810012.040    81662910.137  
G12  22286490.760   117116300.094                                  
G14  24212070.020   127235254.191    24212075.060    95013334.434  
G17  22776291.120   119690209.164                                  
G19  20834651.180   109486840.965                                  
G24  20915388.240   109911060.141    20915389.940    82076442.258  
G28  23605464.040   124047536.395                                  
E 2  23368788.320   122803801.672    23368790.520    91704133.277  
E25  25217044.820   132516421.617    25217048.920    98957057.188  
E30  25061138.240   131697135.109    25061141.860    98345253.230  
> 2021  3 10 23 40 20.0000000  0 11       0.000000000000
G 2  21838831.220   114763837.109                                  
G 6  20809864.380   109356524.313    20809866.820    81662340.230  
G12  22286021.460   117113833.906                                  
G14  24212574.980   127237907.777    24212580.040    95015316.000  
G17  22776777.600   119692765.645                                  
G19  20835005.100   109488700.832                                  
G24  20915375.980   109910995.746    20915377.700    82076394.168  
G28  23605854.080   124049586.082                                  
E 2  23368686.840   122803268.418    23368689.040    91703735.063  
E25  25217343.300   132517990.141    25217347.400    98958228.484  
E30  25060719.020   131694932.102    25060722.640    98343608.121  
> 2021  3 10 23 40 21.0000000  0 11       0.000000000000
G 2  21838368.800   114761407.074                                  
G 6  20809719.280   109355761.801    20809721.720    81661770.820  
G12  22285552.200   117111367.863                                  
G14  24213079.960   127240561.508    24213085.020    95017297.676  
G17  22777264.080   119695322.184                                  
G19  20835359.080   109490561.031                                  
G24  20915363.840   109910931.980    20915365.560    82076346.547  
G28  23606244.140   124051635.918                                  
E 2  23368585.420   122802735.387    23368587.600    91703337.016  
E25  25217641.820   132519558.875    25217645.920    98959399.938  
E30  25060299.800   131692729.121    25060303.420    98341963.035  
> 2021  3 10 23 40 22.0000000  0 11       0.000000000000
G 2  21837906.460   114758977.484                                  
G 6  20809574.300   109354999.953    20809576.740    81661201.902  
G12  22285082.940   117108901.945                                  
G14  24213584.980   127243215.387    24213590.040    95019279.465  
G17  22777750.600   119697878.797                                  
G19  20835713.140   109492421.555                                  
G24  20915351.840   109910868.863    20915353.540    82076299.410  
G28  23606634.260   124053685.918                                  
E 2  23368484.020   122802202.566    23368486.220    91702939.129  
E25  25217940.380   132521127.840    25217944.480    98960571.563  
E30  25059880.580   131690526.152    25059884.220    98340317.957  
> 2021  3 10 23 40 23.0000000  0 11       0.000000000000
G 2  21837444.220   114756548.320                                  
G 6  20809429.460   109354238.785    20809431.900    81660633.496  
G12  22284613.720   117106436.160                                  
G14  24214090.040   127245869.406    24214095.080    95021261.359  
G17  22778237.120   119700435.465                                  
G19  20836067.240   109494282.402                                  
G24  20915339.940   109910806.395    20915341.660    82076252.758  
G28  23607024.380   124055736.066                                  
E 2  23368382.660   122801669.969    23368384.860    91702541.402  
E25  25218238.980   132522697.020    25218243.080    98961743.348  
E30  25059461.380   131688323.211    25059465.000    98338672.902  
> 2021  3 10 23 40 24.0000000  0 11       0.000000000000
G 2  21836982.040   114754119.594                                  
G 6  20809284.740   109353478.277    20809287.180    81660065.578  
G12  22284144.520   117103970.492                                  
G14  24214595.100   127248523.582    24214600.160    95023243.371  
G17  22778723.640   119702992.199                                  
G19  20836421.420   109496143.570                                  
G24  20915328.180   109910744.547    20915329.900    82076206.570  
G28  23607414.540   124057786.363                                  
E 2  23368281.360   122801137.602    23368283.560    91702143.855  
E25  25218537.620   132524266.414    25218541.720    98962915.297  
E30  25059042.180   131686120.289    25059045.800    98337027.859  
> 2021  3 10 23 40 25.0000000  0 11       0.000000000000
G 2  21836519.960   114751691.301                                  
G 6  20809140.140   109352718.434    20809142.600    81659498.160  
G12  22283675.340   117101504.934                                  
G14  24215100.200   127251177.910    24215105.260    95025225.492  
G17  22779210.180   119705548.992                                  
G19  20836775.640   109498005.070                                  
G24  20915316.520   109910683.344    20915318.240    82076160.859  
G28  23607804.740   124059836.824                                  
E 2  23368180.100   122800605.422    23368182.280    91701746.441  
E25  25218836.320   132525836.039    25218840.420    98964087.410  
E30  25058622.980   131683917.387    25058626.600    98335382.832  
> 2021  3 10 23 40 26.0000000  0 11       0.000000000000
G 2  21836057.940   114749263.449                                  
G 6  20808995.680   109351959.254    20808998.120    81658931.238  
G12  22283206.180   117099039.500                                  
G14  24215605.340   127253832.375    24215610.400    95027207.719  
G17  22779696.740   119708105.863                                  
G19  20837129.940   109499866.906                                  
G24  20915305.000   109910622.770    20915306.720    82076115.621  
G28  23608194.940   124061887.418                                  
E 2  23368078.860   122800073.504    23368081.060    91701349.227  
E25  25219135.040   132527405.879    25219139.140    98965259.691  
E30  25058203.780   131681714.508    25058207.420    98333737.820  
> 2021  3 10 23 40 27.0000000  0 11       0.000000000000
G 2  21835596.020   114746836.027                                  
G 6  20808851.340   109351200.742    20808853.780    81658364.813  
G12  22282737.040   117096574.176                                  
G14  24216110.500   127256486.984    24216115.540    95029190.051  
G17  22780183.320   119710662.797                                  
G19  20837484.300   109501729.059                                  
G24  20915293.600   109910562.840    20915295.320    82076070.863  
G28  23608585.200   124063938.180                                  
E 2  23367977.680   122799541.770    23367979.880    91700952.148  
E25  25219433.820   132528975.938    25219437.920    98966432.133  
E30  25057784.600   131679511.656    25057788.220    98332092.832  
> 2021  3 10 23 40 28.0000000  0 11       0.000000000000
G 2  21835134.180   114744409.051                                  
G 6  20808707.120   109350442.902    20808709.580    81657798.891  
G12  22282267.940   117094108.973                                  
G14  24216615.680   127259141.750    24216620.740    95031172.500  
G17  22780669.900   119713219.781                                  
G19  20837838.720   109503591.539                                  
G24  20915282.320   109910503.555    20915284.040    82076026.590  
G28  23608975.480   124065989.105                                  
E 2  23367876.540   122799010.258    23367878.740    91700555.238  
E25  25219732.640   132530546.219    25219736.740    98967604.742  
E30  25057365.400   131677308.820    25057369.040    98330447.852  
> 2021  3 10 23 40 29.0000000  0 11       0.000000000000
G 2  21834672.420   114741982.508                                  
G 6  20808563.040   109349685.723    20808565.480    81657233.461  
G12  22281798.840   117091643.887                                  
G14  24217120.880   127261796.648    24217125.940    95033155.047  
G17  22781156.480   119715776.836                                  
G19  20838193.200   109505454.352                                  
G24  20915271.160   109910444.918    20915272.880    82075982.797  
G28  23609365.780   124068040.180                                  
E 2  23367775.440   122798478.953    23367777.640    91700158.480  
E25  25220031.480   132532116.723    25220035.600    98968777.516  
E30  25056946.220   131675106.004    25056949.860    98328802.891  
> 2021  3 10 23 40 30.0000000  0 11       0.000000000000
G 2  21834210.760   114739556.410                                  
G 6  20808419.080   109348929.219    20808421.540    81656668.535  
G12  22281329.780   117089178.910                                  
G14  24217626.120   127264451.695    24217631.180    95035137.711  
G17  22781643.080   119718333.957                                  
G19  20838547.740   109507317.484                                  
G24  20915260.120   109910386.938    20915261.840    82075939.496  
G28  23609756.120   124070091.395                                  
E 2  23367674.380   122797947.891    23367676.580    91699761.902  
E25  25220330.380   132533687.449    25220334.500    98969950.457  
E30  25056527.040   131672903.215    25056530.680    98327157.945  
> 2021  3 10 23 40 31.0000000  0 11       0.000000000000
G 2  21833749.160   114737130.742                                  
G 6  20808275.240   109348173.383    20808277.700    81656104.105  
G12  22280860.720   117086714.059                                  
G14  24218131.400   127267106.887    24218136.460    95037120.477  
G17  22782129.700   119720891.133                                  
G19  20838902.340   109509180.949                                  
G24  20915249.220   109910329.594    20915250.940    82075896.672  
G28  23610146.480   124072142.785                                  
E 2  23367573.360   122797417.031    23367575.560    91699365.480  
E25  25220629.320   132535258.395    25220633.440    98971123.559  
E30  25056107.860   131670700.453    25056111.500    98325513.023  
> 2021  3 10 23 40 32.0000000  0 11       0.000000000000
G 2  21833287.660   114734705.512                                  
G 6  20808131.540   109347418.211    20808134.000    81655540.176  
G12  22280391.700   117084249.320                                  
G14  24218636.680   127269762.223    24218641.760    95039103.352  
G17  22782616.340   119723448.379                                  
G19  20839257.020   109511044.746                                  
G24  20915238.440   109910272.930    20915240.160    82075854.355  
G28  23610536.880   124074194.309                                  
E 2  23367472.380   122796886.414    23367474.580    91698969.234  
E25  25220928.300   132536829.555    25220932.420    98972296.824  
E30  25055688.700   131668497.711    25055692.340    98323868.117  
> 2021  3 10 23 40 33.0000000  0 11       0.000000000000
G 2  21832826.240   114732280.723                                  
G 6  20807987.960   109346663.707    20807990.420    81654976.746  
G12  22279922.700   117081784.703                                  
G14  24219142.020   127272417.715    24219147.080    95041086.348  
G17  22783102.980   119726005.680                                  
G19  20839611.740   109512908.867                                  
G24  20915227.760   109910216.883    20915229.500    82075812.496  
G28  23610927.300   124076246.008                                  
E 2  23367371.440   122796355.980    23367373.640    91698573.125  
E25  25221227.340   132538400.938    25221231.440    98973470.254  
E30  25055269.540   131666294.984    25055273.160    98322223.223  
> 2021  3 10 23 40 34.0000000  0 11       0.000000000000
G 2  21832364.900   114729856.371                                  
G 6  20807844.520   109345909.883    20807846.980    81654413.820  
G12  22279453.720   117079320.207                                  
G14  24219647.360   127275073.352    24219652.420    95043069.445  
G17  22783589.620   119728563.051                                  
G19  20839966.540   109514773.316                                  
G24  20915217.220   109910161.488    20915218.960    82075771.125  
G28  23611317.760   124078297.844                                  
E 2  23367270.540   122795825.801    23367272.760    91698177.211  
E25  25221526.400   132539972.547    25221530.520    98974643.855  
E30  25054850.380   131664092.289    25054854.000    98320578.348  
> 2021  3 10 23 40 35.0000000  0 11       0.000000000000
G 2  21831903.640   114727432.453                                  
G 6  20807701.200   109345156.715    20807703.660    81653851.387  
G12  22278984.760   117076855.828                                  
G14  24220152.740   127277729.133    24220157.820    95045052.656  
G17  22784076.280   119731120.488                                  
G19  20840321.400   109516638.094                                  
G24  20915206.800   109910106.727    20915208.540    82075730.230  
G28  23611708.240   124080349.844                                  
E 2  23367169.700   122795295.824    23367171.900    91697781.445  
E25  25221825.500   132541544.375    25221829.620    98975817.617  
E30  25054431.220   131661889.617    25054434.860    98318933.492  
> 2021  3 10 23 40 36.0000000  0 11       0.000000000000
G 2  21831442.460   114725008.977                                  
G 6  20807558.000   109344404.219    20807560.460    81653289.453  
G12  22278515.840   117074391.582                                  
G14  24220658.140   127280385.063    24220663.220    95047035.973  
G17  22784562.960   119733677.992                                  
G19  20840676.300   109518503.184                                  
G24  20915196.500   109910052.609    20915198.240    82075689.813  
G28  23612098.740   124082401.996                                  
E 2  23367068.880   122794766.055    23367071.100    91697385.832  
E25  25222124.660   132543116.422    25222128.780    98976991.547  
E30  25054012.060   131659686.965    25054015.700    98317288.652  
> 2021  3 10 23 40 37.0000000  0 11       0.000000000000
G 2  21830981.380   114722585.934                                  
G 6  20807414.920   109343652.391    20807417.400    81652728.020  
G12  22278046.920   117071927.441                                  
G14  24221163.580   127283041.137    24221168.660    95049019.402  
G17  22785049.660   119736235.551                                  
G19  20841031.280   109520368.613                                  
G24  20915186.320   109909999.129    20915188.060    82075649.871  
G28  23612489.280   124084454.297                                  
E 2  23366968.120   122794236.520    23366970.320    91696990.398  
E25  25222423.840   132544688.680    25222427.960    98978165.629  
E30  25053592.920   131657484.340    25053596.560    98315643.832  
> 2021  3 10 23 40 38.0000000  0 11       0.000000000000
G 2  21830520.380   114720163.340                                  
G 6  20807271.980   109342901.223    20807274.440    81652167.078  
G12  22277578.040   117069463.438                                  
G14  24221669.040   127285697.355    24221674.120    95051002.934  
G17  22785536.360   119738793.176                                  
G19  20841386.320   109522234.375                                  
G24  20915176.280   109909946.277    20915178.000    82075610.402  
G28  23612879.860   124086506.754                                  
E 2  23366867.380   122793707.203    23366869.600    91696595.125  
E25  25222723.080   132546261.172    25222727.200    98979339.887  
E30  25053173.780   131655281.723    25053177.420    98313999.016  
> 2021  3 10 23 40 39.0000000  0 11       0.000000000000
G 2  21830059.460   114717741.176                                  
G 6  20807129.180   109342150.727    20807131.640    81651606.641  
G12  22277109.180   117066999.543                                  
G14  24222174.540   127288353.719    24222179.600    95052986.578  
G17  22786023.060   119741350.871                                  
G19  20841741.440   109524100.457                                  
G24  20915166.340   109909894.047    20915168.060    82075571.395  
G28  23613270.460   124088559.363                                  
E 2  23366766.700   122793178.105    23366768.920    91696200.016  
E25  25223022.360   132547833.887    25223026.480    98980514.313  
E30  25052754.640   131653079.137    25052758.280    98312354.223  
> 2021  3 10 23 40 40.0000000  0 11       0.000000000000
G 2  21829598.620   114715319.449                                  
G 6  20806986.480   109341400.898    20806988.940    81651046.699  
G12  22276640.340   117064535.762                                  
G14  24222680.060   127291010.230    24222685.120    95054970.332  
G17  22786509.780   119743908.617                                  
G19  20842096.600   109525966.863                                  
G24  20915156.520   109909842.477    20915158.260    82075532.879  
G28  23613661.080   124090612.133                                  
E 2  23366666.060   122792649.215    23366668.260    91695805.063  
E25  25223321.680   132549406.816    25223325.800    98981688.902  
E30  25052335.500   131650876.566    25052339.140    98310709.441  
> 2021  3 10 23 40 41.0000000  0 11       0.000000000000
G 2  21829137.860   114712898.168                                  
G 6  20806843.920   109340651.734    20806846.380    81650487.254  
G12  22276171.520   117062072.102                                  
G14  24223185.600   127293666.891    24223190.680    95056954.199  
G17  22786996.520   119746466.441                                  
G19  20842451.820   109527833.605                                  
G24  20915146.840   109909791.586    20915148.560    82075494.871  
G28  23614051.740   124092665.043                                  
E 2  23366565.460   122792120.555    23366567.660    91695410.277  
E25  25223621.040   132550979.961    25223625.160    98982863.645  
E30  25051916.360   131648674.027    25051920.000    98309064.688  
> 2021  3 10 23 40 42.0000000  0 11       0.000000000000
G 2  21828677.180   114710477.316                                  
G 6  20806701.480   109339903.238    20806703.960    81649928.313  
G12  22275702.720   117059608.551                                  
G14  24223691.180   127296323.691    24223696.260    95058938.168  
G17  22787483.280   119749024.313                                  
G19  20842807.120   109529700.656                                  
G24  20915137.260   109909741.316    20915139.000    82075457.328  
G28  23614442.420   124094718.113                                  
E 2  23366464.900   122791592.098    23366467.100    91695015.648  
E25  25223920.440   132552553.336    25223924.560    98984038.563  
E30  25051497.240   131646471.500    25051500.880    98307419.941  
> 2021  3 10 23 40 43.0000000  0 11       0.000000000000
G 2  21828216.600   114708056.902                                  
G 6  20806559.180   109339155.414    20806561.640    81649369.867  
G12  22275233.940   117057145.137                                  
G14  24224196.780   127298980.645    24224201.860    95060922.254  
G17  22787970.040   119751582.266                                  
G19  20843162.460   109531568.051                                  
G24  20915127.820   109909691.688    20915129.560    82075420.266  
G28  23614833.140   124096771.336                                  
E 2  23366364.380   122791063.875    23366366.580    91694621.191  
E25  25224219.880   132554126.926    25224224.000    98985213.645  
E30  25051078.120   131644269.008    25051081.760    98305775.219  
> 2021  3 10 23 40 44.0000000  0 11       0.000000000000
G 2  21827756.080   114705636.934                                  
G 6  20806417.000   109338408.254    20806419.460    81648811.918  
G12  22274765.200   117054681.828                                  
G14  24224702.400   127301637.734    24224707.480    95062906.438  
G17  22788456.820   119754140.277                                  
G19  20843517.880   109533435.766                                  
G24  20915118.500   109909642.719    20915120.240    82075383.691  
G28  23615223.900   124098824.723                                  
E 2  23366263.900   122790535.867    23366266.120    91694226.895  
E25  25224519.360   132555700.742    25224523.500    98986388.891  
E30  25050659.000   131642066.531    25050662.640    98304130.508  
> 2021  3 10 23 40 45.0000000  0 11       0.000000000000
G 2  21827295.660   114703217.402                                  
G 6  20806274.940   109337661.762    20806277.420    81648254.473  
G12  22274296.460   117052218.641                                  
G14  24225208.060   127304294.984    24225213.140    95064890.742  
G17  22788943.600   119756698.348                                  
G19  20843873.360   109535303.813                                  
G24  20915109.300   109909594.383    20915111.040    82075347.598  
G28  23615614.660   124100878.266                                  
E 2  23366163.460   122790008.082    23366165.680    91693832.770  
E25  25224818.900   132557274.766    25224823.020    98987564.297  
E30  25050239.880   131639864.086    25050243.520    98302485.824  
> 2021  3 10 23 40 46.0000000  0 11       0.000000000000
G 2  21826835.320   114700798.301                                  
G 6  20806133.020   109336915.941    20806135.500    81647697.523  
G12  22273827.760   117049755.578                                  
G14  24225713.740   127306952.363    24225718.820    95066875.145  
G17  22789430.400   119759256.488                                  
G19  20844228.900   109537172.184                                  
G24  20915100.240   109909546.703    20915101.980    82075311.984  
G28  23616005.480   124102931.938                                  
E 2  23366063.060   122789480.508    23366065.280    91693438.801  
E25  25225118.460   132558849.027    25225122.580    98988739.883  
E30  25049820.780   131637661.648    25049824.420    98300841.148  
> 2021  3 10 23 40 47.0000000  0 11       0.000000000000
G 2  21826375.080   114698379.648                                  
G 6  20805991.220   109336170.785    20805993.700    81647141.070  
G12  22273359.080   117047292.621                                  
G14  24226219.460   127309609.906    24226224.540    95068859.668  
G17  22789917.200   119761814.688                                  
G19  20844584.500   109539040.879                                  
G24  20915091.280   109909499.668    20915093.020    82075276.855  
G28  23616396.300   124104985.777                                  
E 2  23365962.720   122788953.160    23365964.940    91693045.004  
E25  25225418.080   132560423.500    25225422.200    98989915.625  
E30  25049401.660   131635459.242    25049405.300    98299196.496  
> 2021  3 10 23 40 48.0000000  0 11       0.000000000000
G 2  21825914.900   114695961.430                                  
G 6  20805849.560   109335426.301    20805852.020    81646585.121  
G12  22272890.400   117044829.793                                  
G14  24226725.200   127312267.590    24226730.280    95070844.297  
G17  22790404.020   119764372.941                                  
G19  20844940.160   109540909.895                                  
G24  20915082.460   109909453.246    20915084.200    82075242.191  
G28  23616787.160   124107039.766                                  
E 2  23365862.400   122788426.016    23365864.620    91692651.359  
E25  25225717.740   132561998.195    25225721.860    98991091.535  
E30  25048982.560   131633256.863    25048986.200    98297551.863  
> 2021  3 10 23 40 49.0000000  0 11       0.000000000000
G 2  21825454.820   114693543.652                                  
G 6  20805708.020   109334682.480    20805710.480    81646029.668  
G12  22272421.780   117042367.090                                  
G14  24227230.960   127314925.422    24227236.060    95072829.035  
G17  22790890.860   119766931.262                                  
G19  20845295.880   109542779.238                                  
G24  20915073.740   109909407.496    20915075.480    82075208.020  
G28  23617178.060   124109093.918                                  
E 2  23365762.140   122787899.109    23365764.340    91692257.891  
E25  25226017.420   132563573.117    25226021.560    98992267.609  
E30  25048563.460   131631054.504    25048567.120    98295907.246  
> 2021  3 10 23 40 50.0000000  0 11       0.000000000000
G 2  21824994.800   114691126.316                                  
G 6  20805566.600   109333939.332    20805569.060    81645474.715  
G12  22271953.160   117039904.504                                  
G14  24227736.760   127317583.398    24227741.860    95074813.883  
G17  22791377.700   119769489.652                                  
G19  20845651.680   109544648.918                                  
G24  20915065.160   109909362.367    20915066.900    82075174.316  
G28  23617568.980   124111148.215                                  
E 2  23365661.900   122787372.418    23365664.120    91691864.582  
E25  25226317.160   132565148.258    25226321.300    98993443.852  
E30  25048144.380   131628852.168    25048148.020    98294262.645  
> 2021  3 10 23 40 51.0000000  0 11       0.000000000000
G 2  21824534.880   114688709.422                                  
G 6  20805425.300   109333196.844    20805427.780    81644920.258  
G12  22271484.560   117037442.039                                  
G14  24228242.600   127320241.520    24228247.680    95076798.840  
G17  22791864.560   119772048.102                                  
G19  20846007.520   109546518.918                                  
G24  20915056.700   109909317.883    20915058.440    82075141.094  
G28  23617959.920   124113202.672                                  
E 2  23365561.720   122786845.941    23365563.940    91691471.430  
E25  25226616.940   132566723.613    25226621.060    98994620.254  
E30  25047725.280   131626649.848    25047728.940    98292618.055  
> 2021  3 10 23 40 52.0000000  0 11       0.000000000000
G 2  21824075.040   114686292.953                                  
G 6  20805284.140   109332455.039    20805286.620    81644366.309  
G12  22271016.000   117034979.691                                  
G14  24228748.440   127322899.789    24228753.540    95078783.906  
G17  22792351.420   119774606.605                                  
G19  20846363.440   109548389.242                                  
G24  20915048.340   109909274.020    20915050.100    82075108.336  
G28  23618350.900   124115257.285                                  
E 2  23365461.580   122786319.684    23365463.800    91691078.445  
E25  25226916.760   132568299.191    25226920.900    98995796.820  
E30  25047306.200   131624447.551    25047309.840    98290973.484  
> 2021  3 10 23 40 53.0000000  0 11       0.000000000000
G 2  21823615.300   114683876.934                                  
G 6  20805143.100   109331713.891    20805145.580    81643812.848  
G12  22270547.440   117032517.469                                  
G14  24229254.320   127325558.199    24229259.420    95080769.078  
G17  22792838.300   119777165.168                                  
G19  20846719.420   109550259.895                                  
G24  20915040.120   109909230.813    20915041.880    82075076.066  
G28  23618741.920   124117312.047                                  
E 2  23365361.480   122785793.648    23365363.680    91690685.629  
E25  25227216.640   132569874.992    25227220.760    98996973.555  
E30  25046887.120   131622245.281    25046890.760    98289328.934  
> 2021  3 10 23 40 54.0000000  0 11       0.000000000000
G 2  21823155.620   114681461.355                                  
G 6  20805002.200   109330973.414    20805004.680    81643259.891  
G12  22270078.920   117030055.352                                  
G14  24229760.220   127328216.758    24229765.320    95082754.359  
G17  22793325.200   119779723.805                                  
G19  20847075.440   109552130.867                                  
G24  20915032.020   109909188.262    20915033.780    82075044.285  
G28  23619132.960   124119366.957                                  
E 2  23365261.420   122785267.828    23365263.620    91690292.969  
E25  25227516.540   132571451.012    25227520.660    98998150.449  
E30  25046468.040   131620043.035    25046471.700    98287684.398  
> 2021  3 10 23 40 55.0000000  0 11       0.000000000000
G 2  21822696.040   114679046.211                                  
G 6  20804861.420   109330233.605    20804863.900    81642707.434  
G12  22269610.420   117027593.363                                  
G14  24230266.160   127330875.461    24230271.260    95084739.750  
G17  22793812.100   119782282.512                                  
G19  20847431.540   109554002.176                                  
G24  20915024.060   109909146.359    20915025.800    82075012.992  
G28  23619524.020   124121422.023                                  
E 2  23365161.400   122784742.230    23365163.600    91689900.477  
E25  25227816.480   132573027.254    25227820.620    98999327.516  
E30  25046048.980   131617840.813    25046052.620    98286039.883  
> 2021  3 10 23 40 56.0000000  0 11       0.000000000000
G 2  21822236.540   114676631.508                                  
G 6  20804720.760   109329494.461    20804723.240    81642155.473  
G12  22269141.940   117025131.492                                  
G14  24230772.120   127333534.309    24230777.220    95086725.250  
G17  22794299.020   119784841.301                                  
G19  20847787.700   109555873.813                                  
G24  20915016.200   109909105.070    20915017.940    82074982.156  
G28  23619915.120   124123477.238                                  
E 2  23365061.420   122784216.855    23365063.640    91689508.152  
E25  25228116.480   132574603.715    25228120.600    99000504.742  
E30  25045629.920   131615638.605    25045633.560    98284395.379  
> 2021  3 10 23 40 57.0000000  0 11       0.000000000000
G 2  21821777.120   114674217.246                                  
G 6  20804580.240   109328755.988    20804582.720    81641604.012  
G12  22268673.480   117022669.746                                  
G14  24231278.120   127336193.309    24231283.220    95088710.859  
G17  22794785.960   119787400.145                                  
G19  20848143.920   109557745.773                                  
G24  20915008.460   109909064.445    20915010.220    82074951.816  
G28  23620306.240   124125532.617                                  
E 2  23364961.480   122783691.695    23364963.700    91689115.988  
E25  25228416.520   132576180.402    25228420.640    99001682.137  
E30  25045210.840   131613436.430    25045214.500    98282750.895  
> 2021  3 10 23 40 58.0000000  0 11       0.000000000000
G 2  21821317.780   114671803.422                                  
G 6  20804439.840   109328018.184    20804442.320    81641053.051  
G12  22268205.060   117020208.121                                  
G14  24231784.140   127338852.453    24231789.240    95090696.582  
G17  22795272.900   119789959.047                                  
G19  20848500.220   109559618.059                                  
G24  20915000.860   109909024.441    20915002.600    82074921.938  
G28  23620697.400   124127588.145                                  
E 2  23364861.580   122783166.758    23364863.800    91688723.988  
E25  25228716.580   132577757.305    25228720.700    99002859.691  
E30  25044791.800   131611234.270    25044795.440    98281106.426  
> 2021  3 10 23 40 59.0000000  0 11       0.000000000000
G 2  21820858.520   114669390.039                                  
G 6  20804299.560   109327281.043    20804302.040    81640502.582  
G12  22267736.640   117017746.613                                  
G14  24232290.180   127341511.746    24232295.280    95092682.410  
G17  22795759.860   119792518.004                                  
G19  20848856.560   109561490.664                                  
G24  20914993.360   109908985.105    20914995.120    82074892.559  
G28  23621088.580   124129643.828                                  
E 2  23364761.740   122782642.035    23364763.960    91688332.152  
E25  25229016.700   132579334.426    25229020.820    99004037.414  
E30  25044372.740   131609032.137    25044376.380    98279461.980  
> 2021  3 10 23 41  0.0000000  0 11       0.000000000000
G 2  21820399.360   114666977.094                                  
G 6  20804159.420   109326544.582    20804161.900    81639952.625  
G12  22267268.260   117015285.230                                  
G14  24232796.260   127344171.184    24232801.360    95094668.352  
G17  22796246.820   119795077.031                                  
G19  20849212.960   109563363.586                                  
G24  20914986.000   109908946.398    20914987.760    82074863.652  
G28  23621479.800   124131699.664                                  
E 2  23364661.920   122782117.539    23364664.140    91687940.480  
E25  25229316.860   132580911.762    25229320.980    99005215.297  
E30  25043953.680   131606830.027    25043957.320    98277817.547  
> 2021  3 10 23 41  1.0000000  0 11       0.000000000000
G 2  21819940.280   114664564.590                                  
G 6  20804019.400   109325808.770    20804021.880    81639403.152  
G12  22266799.900   117012823.961                                  
G14  24233302.360   127346830.762    24233307.460    95096654.395  
G17  22796733.800   119797636.109                                  
G19  20849569.440   109565236.836                                  
G24  20914978.760   109908908.340    20914980.520    82074835.227  
G28  23621871.040   124133755.656                                  
E 2  23364562.160   122781593.262    23364564.380    91687548.977  
E25  25229617.060   132582489.328    25229621.180    99006393.348  
E30  25043534.640   131604627.945    25043538.280    98276173.137  
> 2021  3 10 23 41  2.0000000  0 11       0.000000000000
G 2  21819481.260   114662152.520                                  
G 6  20803879.500   109325073.637    20803881.980    81638854.184  
G12  22266331.560   117010362.824                                  
G14  24233808.500   127349490.492    24233813.600    95098640.551  
G17  22797220.800   119800195.258                                  
G19  20849925.960   109567110.426                                  
G24  20914971.640   109908870.926    20914973.400    82074807.285  
G28  23622262.300   124135811.793                                  
E 2  23364462.440   122781069.195    23364464.640    91687157.629  
E25  25229917.300   132584067.117    25229921.420    99007571.566  
E30  25043115.600   131602425.883    25043119.240    98274528.738  
> 2021  3 10 23 41  3.0000000  0 11       0.000000000000
G 2  21819022.360   114659740.902                                  
G 6  20803739.740   109324339.172    20803742.220    81638305.719  
G12  22265863.240   117007901.797                                  
G14  24234314.640   127352150.359    24234319.760    95100626.813  
G17  22797707.800   119802754.461                                  
G19  20850282.560   109568984.324                                  
G24  20914964.640   109908834.148    20914966.400    82074779.813  
G28  23622653.620   124137868.094                                  
E 2  23364362.740   122780545.359    23364364.960    91686766.453  
E25  25230217.580   132585645.125    25230221.700    99008749.945  
E30  25042696.560   131600223.840    25042700.200    98272884.359  
> 2021  3 10 23 41  4.0000000  0 11       0.000000000000
G 2  21818563.520   114657329.730                                  
G 6  20803600.100   109323605.387    20803602.600    81637757.758  
G12  22265394.940   117005440.898                                  
G14  24234820.840   127354810.379    24234825.940    95102613.184  
G17  22798194.800   119805313.727                                  
G19  20850639.200   109570858.547                                  
G24  20914957.760   109908798.035    20914959.520    82074752.844  
G28  23623044.940   124139924.563                                  
E 2  23364263.100   122780021.742    23364265.320    91686375.441  
E25  25230517.900   132587223.348    25230522.040    99009928.492  
E30  25042277.540   131598021.824    25042281.180    98271239.996  
> 2021  3 10 23 41  5.0000000  0 11       0.000000000000
G 2  21818104.780   114654918.984                                  
G 6  20803460.600   109322872.262    20803463.080    81637210.289  
G12  22264926.680   117002980.117                                  
G14  24235327.040   127357470.551    24235332.160    95104599.672  
G17  22798681.820   119807873.047                                  
G19  20850995.920   109572733.102                                  
G24  20914951.020   109908762.559    20914952.780    82074726.348  
G28  23623436.300   124141981.164                                  
E 2  23364163.500   122779498.336    23364165.720    91685984.586  
E25  25230818.280   132588801.801    25230822.400    99011107.203  
E30  25041858.500   131595819.828    25041862.140    98269595.648  
> 2021  3 10 23 41  6.0000000  0 11       0.000000000000
G 2  21817646.100   114652508.676                                  
G 6  20803321.220   109322139.797    20803323.700    81636663.316  
G12  22264458.420   117000519.465                                  
G14  24235833.300   127360130.871    24235838.400    95106586.270  
G17  22799168.860   119810432.441                                  
G19  20851352.700   109574607.965                                  
G24  20914944.380   109908727.703    20914946.140    82074700.313  
G28  23623827.700   124144037.941                                  
E 2  23364063.940   122778975.133    23364066.160    91685593.879  
E25  25231118.680   132590380.477    25231122.820    99012286.086  
E30  25041439.480   131593617.863    25041443.120    98267951.324  
> 2021  3 10 23 41  7.0000000  0 11       0.000000000000
G 2  21817187.520   114650098.816                                  
G 6  20803181.960   109321408.000    20803184.440    81636116.840  
G12  22263990.200   116998058.926                                  
G14  24236339.560   127362791.336    24236344.660    95108572.977  
G17  22799655.920   119812991.906                                  
G19  20851709.540   109576483.176                                  
G24  20914937.880   109908693.516    20914939.640    82074674.785  
G28  23624219.120   124146094.863                                  
E 2  23363964.420   122778452.152    23363966.640    91685203.344  
E25  25231419.140   132591959.383    25231423.260    99013465.141  
E30  25041020.480   131591415.926    25041024.120    98266307.023  
> 2021  3 10 23 41  8.0000000  0 11       0.000000000000
G 2  21816729.020   114647689.418                                  
G 6  20803042.840   109320676.895    20803045.320    81635570.883  
G12  22263522.000   116995598.512                                  
G14  24236845.860   127365451.922    24236850.960    95110559.770  
G17  22800142.960   119815551.398                                  
G19  20852066.440   109578358.707                                  
G24  20914931.480   109908659.906    20914933.240    82074649.684  
G28  23624610.560   124148151.934                                  
E 2  23363864.960   122777929.465    23363867.160    91684813.023  
E25  25231719.640   132593538.461    25231723.760    99014644.320  
E30  25040601.460   131589213.973    25040605.100    98264662.707  
> 2021  3 10 23 41  9.0000000  0 11       0.000000000000
G 2  21816270.620   114645280.434                                  
G 6  20802903.840   109319946.441    20802906.320    81635025.410  
G12  22263053.820   116993138.219                                  
G14  24237352.180   127368112.680    24237357.280    95112546.695  
G17  22800630.040   119818110.973                                  
G19  20852423.400   109580234.563                                  
G24  20914925.220   109908626.988    20914926.980    82074625.098  
G28  23625002.040   124150209.168                                  
E 2  23363765.520   122777406.926    23363767.740    91684422.816  
E25  25232020.160   132595117.805    25232024.300    99015823.699  
E30  25040182.440   131587012.074    25040186.080    98263018.434  
> 2021  3 10 23 41 10.0000000  0 11       0.000000000000
G 2  21815812.280   114642871.895                                  
G 6  20802764.960   109319216.656    20802767.440    81634480.441  
G12  22262585.660   116990678.043                                  
G14  24237858.540   127370773.574    24237863.640    95114533.727  
G17  22801117.120   119820670.605                                  
G19  20852780.420   109582110.746                                  
G24  20914919.080   109908594.711    20914920.840    82074600.996  
G28  23625393.540   124152266.543                                  
E 2  23363666.120   122776884.621    23363668.340    91684032.785  
E25  25232320.740   132596697.348    25232324.880    99017003.227  
E30  25039763.440   131584810.195    25039767.080    98261374.172  
> 2021  3 10 23 41 11.0000000  0 11       0.000000000000
G 2  21815354.040   114640463.801                                  
G 6  20802626.200   109318487.539    20802628.700    81633935.969  
G12  22262117.540   116988217.992                                  
G14  24238364.920   127373434.617    24238370.020    95116520.867  
G17  22801604.220   119823230.285                                  
G19  20853137.520   109583987.254                                  
G24  20914913.060   109908563.098    20914914.820    82074577.387  
G28  23625785.080   124154324.090                                  
E 2  23363566.780   122776362.539    23363569.000    91683642.918  
E25  25232621.360   132598277.121    25232625.500    99018182.926  
E30  25039344.440   131582608.344    25039348.080    98259729.934  
> 2021  3 10 23 41 12.0000000  0 11       0.000000000000
G 2  21814895.880   114638056.148                                  
G 6  20802487.600   109317759.090    20802490.080    81633391.996  
G12  22261649.420   116985758.094                                  
G14  24238871.340   127376095.723    24238876.460    95118508.012  
G17  22802091.320   119825790.043                                  
G19  20853494.660   109585864.078                                  
G24  20914907.160   109908532.129    20914908.940    82074554.262  
G28  23626176.660   124156381.727                                  
E 2  23363467.460   122775840.680    23363469.680    91683253.219  
E25  25232922.020   132599857.113    25232926.160    99019362.789  
E30  25038925.440   131580406.535    25038929.080    98258085.738  
> 2021  3 10 23 41 13.0000000  0 11       0.000000000000
G 2  21814437.800   114635648.926                                  
G 6  20802349.100   109317031.309    20802351.580    81632848.527  
G12  22261181.340   116983298.281                                  
G14  24239377.780   127378757.066    24239382.900    95120495.379  
G17  22802578.440   119828349.859                                  
G19  20853851.880   109587741.238                                  
G24  20914901.400   109908501.813    20914903.160    82074531.621  
G28  23626568.260   124158439.586                                  
E 2  23363368.200   122775319.035    23363370.420    91682863.680  
E25  25233222.740   132601437.332    25233226.860    99020542.824  
E30  25038506.440   131578204.730    25038510.080    98256441.535  
> 2021  3 10 23 41 14.0000000  0 11       0.000000000000
G 2  21813979.800   114633242.141                                  
G 6  20802210.740   109316304.195    20802213.220    81632305.551  
G12  22260713.260   116980838.590                                  
G14  24239884.240   127381418.535    24239889.360    95122482.836  
G17  22803065.560   119830909.730                                  
G19  20854209.160   109589618.715                                  
G24  20914895.740   109908472.129    20914897.520    82074509.453  
G28  23626959.880   124160497.586                                  
E 2  23363268.980   122774797.617    23363271.200    91682474.309  
E25  25233523.480   132603017.758    25233527.600    99021723.008  
E30  25038087.460   131576002.938    25038091.100    98254797.340  
> 2021  3 10 23 41 15.0000000  0 11       0.000000000000
G 2  21813521.880   114630835.801                                  
G 6  20802072.500   109315577.758    20802074.980    81631763.082  
G12  22260245.220   116978379.020                                  
G14  24240390.720   127384080.164    24240395.840    95124470.418  
G17  22803552.700   119833469.660                                  
G19  20854566.480   109591496.516                                  
G24  20914890.220   109908443.094    20914891.980    82074487.773  
G28  23627351.540   124162555.734                                  
E 2  23363169.800   122774276.414    23363172.000    91682085.098  
E25  25233824.260   132604598.422    25233828.400    99022903.375  
E30  25037668.480   131573801.176    25037672.120    98253153.168  
> 2021  3 10 23 41 16.0000000  0 11       0.000000000000
G 2  21813064.060   114628429.898                                  
G 6  20801934.380   109314851.988    20801936.880    81631221.109  
G12  22259777.200   116975919.566                                  
G14  24240897.240   127386741.930    24240902.360    95126458.098  
G17  22804039.860   119836029.656                                  
G19  20854923.880   109593374.641                                  
G24  20914884.820   109908414.691    20914886.580    82074466.563  
G28  23627743.220   124164614.043                                  
E 2  23363070.660   122773755.434    23363072.860    91681696.051  
E25  25234125.100   132606179.297    25234129.220    99024083.898  
E30  25037249.500   131571599.434    25037253.140    98251509.012  
> 2021  3 10 23 41 17.0000000  0 11       0.000000000000
G 2  21812606.300   114626024.434                                  
G 6  20801796.400   109314126.875    20801798.900    81630679.633  
G12  22259309.220   116973460.238                                  
G14  24241403.780   127389403.848    24241408.920    95128445.891  
G17  22804527.020   119838589.715                                  
G19  20855281.340   109595253.086                                  
G24  20914879.540   109908386.922    20914881.300    82074445.824  
G28  23628134.920   124166672.500                                  
E 2  23362971.560   122773234.668    23362973.760    91681307.168  
E25  25234425.960   132607760.391    25234430.100    99025264.586  
E30  25036830.520   131569397.719    25036834.160    98249864.875  
> 2021  3 10 23 41 18.0000000  0 11       0.000000000000
G 2  21812148.660   114623619.422                                  
G 6  20801658.540   109313402.438    20801661.040    81630138.656  
G12  22258841.240   116971001.039                                  
G14  24241910.360   127392065.918    24241915.480    95130433.801  
G17  22805014.200   119841149.824                                  
G19  20855638.860   109597131.855                                  
G24  20914874.380   109908359.824    20914876.140    82074425.590  
G28  23628526.660   124168731.109                                  
E 2  23362872.500   122772714.125    23362874.720    91680918.453  
E25  25234726.880   132609341.711    25234731.020    99026445.441  
E30  25036411.560   131567196.023    25036415.180    98248220.754  
> 2021  3 10 23 41 19.0000000  0 11       0.000000000000
G 2  21811691.080   114621214.852                                  
G 6  20801520.820   109312678.672    20801523.300    81629598.180  
G12  22258373.300   116968541.965                                  
G14  24242416.960   127394728.133    24242422.100    95132421.816  
G17  22805501.380   119843710.004                                  
G19  20855996.440   109599010.957                                  
G24  20914869.340   109908333.352    20914871.100    82074405.820  
G28  23628918.440   124170789.879                                  
E 2  23362773.480   122772193.793    23362775.700    91680529.895  
E25  25235027.840   132610923.188    25235031.960    99027626.398  
E30  25035992.600   131564994.680    25035996.220    98246576.977  
> 2021  3 10 23 41 20.0000000  0 11       0.000000000000
G 2  21811233.580   114618810.719                                  
G 6  20801383.220   109311955.582    20801385.700    81629058.211  
G12  22257905.380   116966083.035                                  
G14  24242923.600   127397390.484    24242928.720    95134409.934  
G17  22805988.580   119846270.242                                  
G19  20856354.080   109600890.375                                  
G24  20914864.420   109908307.508    20914866.180    82074386.523  
G28  23629310.240   124172848.797                                  
E 2  23362674.520   122771673.684    23362676.720    91680141.500  
E25  25235328.840   132612504.930    25235332.960    99028807.566  
E30  25035573.620   131562793.020    25035577.260    98244932.879  
> 2021  3 10 23 41 21.0000000  0 11       0.000000000000
G 2  21810776.180   114616407.027                                  
G 6  20801245.740   109311233.148    20801248.240    81628518.734  
G12  22257437.480   116963624.219                                  
G14  24243430.260   127400052.980    24243435.380    95136398.164  
G17  22806475.780   119848830.539                                  
G19  20856711.780   109602770.121                                  
G24  20914859.620   109908282.297    20914861.380    82074367.699  
G28  23629702.060   124174907.871                                  
E 2  23362575.580   122771153.793    23362577.800    91679753.270  
E25  25235629.880   132614086.898    25235634.000    99029988.906  
E30  25035154.680   131560591.398    25035158.300    98243288.809  
> 2021  3 10 23 41 22.0000000  0 11       0.000000000000
G 2  21810318.860   114614003.777                                  
G 6  20801108.400   109310511.387    20801110.880    81627979.758  
G12  22256969.600   116961165.527                                  
G14  24243936.940   127402715.625    24243942.060    95138386.500  
G17  22806963.000   119851390.902                                  
G19  20857069.540   109604650.191                                  
G24  20914854.960   109908257.734    20914856.720    82074349.355  
G28  23630093.920   124176967.102                                  
E 2  23362476.700   122770634.129    23362478.900    91679365.207  
E25  25235930.960   132615669.094    25235935.080    99031170.418  
E30  25034735.720   131558389.793    25034739.360    98241644.758  
> 2021  3 10 23 41 23.0000000  0 11       0.000000000000
G 2  21809861.620   114611600.969                                  
G 6  20800971.180   109309790.297    20800973.660    81627441.281  
G12  22256501.760   116958706.945                                  
G14  24244443.640   127405378.414    24244448.780    95140374.945  
G17  22807450.240   119853951.320                                  
G19  20857427.380   109606530.578                                  
G24  20914850.400   109908233.816    20914852.160    82074331.492  
G28  23630485.820   124179026.484                                  
E 2  23362377.840   122770114.672    23362380.060    91678977.305  
E25  25236232.080   132617251.508    25236236.220    99032352.090  
E30  25034316.780   131556188.207    25034320.400    98240000.715  
> 2021  3 10 23 41 24.0000000  0 11       0.000000000000
G 2  21809404.460   114609198.602                                  
G 6  20800834.080   109309069.875    20800836.580    81626903.301  
G12  22256033.920   116956248.480                                  
G14  24244950.400   127408041.359    24244955.520    95142363.508  
G17  22807937.480   119856511.805                                  
G19  20857785.260   109608411.281                                  
G24  20914845.980   109908210.547    20914847.740    82074314.117  
G28  23630877.740   124181086.008                                  
E 2  23362279.040   122769595.445    23362281.260    91678589.570  
E25  25236533.260   132618834.141    25236537.380    99033533.926  
E30  25033897.840   131553986.637    25033901.460    98238356.688  
> 2021  3 10 23 41 25.0000000  0 11       0.000000000000
G 2  21808947.380   114606796.676                                  
G 6  20800697.120   109308350.109    20800699.600    81626365.816  
G12  22255566.120   116953790.141                                  
G14  24245457.160   127410704.453    24245462.280    95144352.180  
G17  22808424.740   119859072.352                                  
G19  20858143.200   109610292.320                                  
G24  20914841.660   109908187.922    20914843.440    82074297.223  
G28  23631269.680   124183145.703                                  
E 2  23362180.280   122769076.430    23362182.480    91678201.992  
E25  25236834.460   132620416.996    25236838.580    99034715.926  
E30  25033478.900   131551785.105    25033482.520    98236712.688  
> 2021  3 10 23 41 26.0000000  0 11       0.000000000000
G 2  21808490.400   114604395.195                                  
G 6  20800560.280   109307631.023    20800562.780    81625828.836  
G12  22255098.340   116951331.930                                  
G14  24245963.960   127413367.676    24245969.080    95146340.949  
G17  22808912.000   119861632.957                                  
G19  20858501.220   109612173.684                                  
G24  20914837.480   109908165.945    20914839.240    82074280.813  
G28  23631661.660   124185205.547                                  
E 2  23362081.560   122768557.637    23362083.760    91677814.582  
E25  25237135.720   132622000.070    25237139.840    99035898.094  
E30  25033059.960   131549583.598    25033063.600    98235068.707  
> 2021  3 10 23 41 27.0000000  0 11       0.000000000000
G 2  21808033.500   114601994.148                                  
G 6  20800423.580   109306912.609    20800426.060    81625292.359  
G12  22254630.560   116948873.828                                  
G14  24246470.780   127416031.051    24246475.900    95148329.836  
G17  22809399.280   119864193.625                                  
G19  20858859.300   109614055.363                                  
G24  20914833.420   109908144.613    20914835.180    82074264.879  
G28  23632053.660   124187265.547                                  
E 2  23361982.880   122768039.070    23361985.080    91677427.340  
E25  25237437.000   132623583.367    25237441.140    99037080.426  
E30  25032641.040   131547382.109    25032644.660    98233424.734  
> 2021  3 10 23 41 28.0000000  0 11       0.000000000000
G 2  21807576.680   114599593.547                                  
G 6  20800286.980   109306194.859    20800289.480    81624756.379  
G12  22254162.840   116946415.852                                  
G14  24246977.640   127418694.563    24246982.760    95150318.820  
G17  22809886.580   119866754.359                                  
G19  20859217.420   109615937.367                                  
G24  20914829.480   109908123.914    20914831.240    82074249.422  
G28  23632445.700   124189325.699                                  
E 2  23361884.240   122767520.715    23361886.440    91677040.258  
E25  25237738.340   132625166.879    25237742.460    99038262.914  
E30  25032222.100   131545180.645    25032225.740    98231780.785  
> 2021  3 10 23 41 29.0000000  0 11       0.000000000000
G 2  21807119.940   114597193.391                                  
G 6  20800150.540   109305477.789    20800153.020    81624220.902  
G12  22253695.120   116943957.996                                  
G14  24247484.520   127421358.234    24247489.640    95152307.922  
G17  22810373.880   119869315.160                                  
G19  20859575.620   109617819.703                                  
G24  20914825.660   109908103.840    20914827.440    82074234.434  
G28  23632837.760   124191386.016                                  
E 2  23361785.640   122767002.594    23361787.860    91676653.348  
E25  25238039.720   132626750.621    25238043.840    99039445.582  
E30  25031803.180   131542979.203    25031806.820    98230136.855  
> 2021  3 10 23 41 30.0000000  0 11       0.000000000000
G 2  21806663.280   114594793.676                                  
G 6  20800014.200   109304761.383    20800016.700    81623685.922  
G12  22253227.420   116941500.266                                  
G14  24247991.420   127424022.043    24247996.540    95154297.133  
