     3.03           OBSERVATION DATA    M: Mixed            RINEX VERSION / TYPE
sbp2rinex v2.2 (RTKL                    20210504 171529 UTC PGM / RUN BY / DATE 
log: 202101042230-202101042310.sbp                          COMMENT             
format: Swift Navigation SBP, option: CONVBASE,EPHALL,OBSALLCOMMENT             
                                                            MARKER NAME         
                                                            MARKER NUMBER       
                                                            MARKER TYPE         
                                                            OBSERVER / AGENCY   
                                                            REC # / TYPE / VERS 
                                                            ANT # / TYPE        
 -2711592.8247 -4352796.9593  3779529.5308                  APPROX POSITION XYZ 
        0.0000        0.0000        0.0000                  ANTENNA: DELTA H/E/N
G    4 C1C L1C C5I L5I                                      SYS / # / OBS TYPES 
E    4 C1B L1B C5I L5I                                      SYS / # / OBS TYPES 
  2021     1     4    22    30   18.0000000     GPS         TIME OF FIRST OBS   
  2021     1     4    23    20   16.0000000     GPS         TIME OF LAST OBS    
G                                                           SYS / PHASE SHIFT   
E                                                           SYS / PHASE SHIFT   
  0                                                         GLONASS SLOT / FRQ #
 C1C    0.000 C1P    0.000 C2C    0.000 C2P    0.000        GLONASS COD/PHS/BIS 
                                                            END OF HEADER       
> 2021  1  4 22 30 18.0000000  0 15       0.000000000000
G 4  23467233.240   123321106.949    23467237.580    92090440.910  
G 5  23811574.980   125130651.316                                  
G 7  20857108.340   109604846.043                                  
G 8  22024820.500   115741147.891    22024821.400    86430075.773  
G 9  20869119.900   109667920.602    20869120.880    81894878.613  
G14  22188754.100   116602662.047                                  
G27  23373830.840   122830255.215    23373831.700    91723892.074  
G28  22443303.400   117940335.668                                  
G30  21585920.360   113434724.828    21585921.580    84707750.117  
E 7  25320687.860   133061066.652    25320694.500    99363772.727  
E18  28641203.220   150510511.8012                                 
E19  25452790.100   133755291.750    25452794.640    99882189.344  
E21  25122722.440   132020764.656    25122728.540    98586926.063  
E27  23352749.740   122719505.371    23352755.040    91641183.086  
E30  25439165.840   133683686.008    25439171.720    99828717.297  
> 2021  1  4 22 30 19.0000000  0 15       0.000000000000
G 4  23467849.480   123324345.309    23467853.820    92092859.164  
G 5  23811383.120   125129643.078                                  
G 7  20857072.860   109604659.590                                  
G 8  22024687.240   115740447.570    22024688.140    86429552.816  
G 9  20869463.480   109669726.109    20869464.460    81896226.883  
G14  22188216.520   116599837.117                                  
G27  23374112.860   122831737.133    23374113.720    91724998.707  
G28  22442766.260   117937513.031                                  
G30  21585624.140   113433168.133    21585625.360    84706587.652  
E 7  25321152.700   133063509.434    25321159.340    99365596.883  
E18  28640308.080   150505807.7932                                 
E19  25452379.560   133753134.285    25452384.100    99880578.250  
E21  25122397.900   132019059.254    25122404.000    98585652.547  
E27  23352868.580   122720129.863    23352873.880    91641649.426  
E30  25439627.700   133686113.113    25439633.600    99830529.746  
> 2021  1  4 22 30 20.0000000  0 15       0.000000000000
G 4  23468465.760   123327583.910    23468470.120    92095277.605  
G 5  23811191.380   125128635.445                                  
G 7  20857037.420   109604473.324                                  
G 8  22024554.100   115739747.895    22024555.000    86429030.332  
G 9  20869807.160   109671532.133    20869808.140    81897575.539  
G14  22187679.020   116597012.547                                  
G27  23374394.980   122833219.688    23374395.840    91726105.813  
G28  22442229.200   117934690.738                                  
G30  21585327.940   113431611.605    21585329.160    84705425.316  
E 7  25321617.600   133065952.484    25321624.240    99367421.234  
E18  28639412.880   150501103.4652                                 
E19  25451969.040   133750977.055    25451973.580    99878967.332  
E21  25122073.420   132017354.098    25122079.520    98584379.219  
E27  23352987.480   122720754.617    23352992.760    91642115.965  
E30  25440089.560   133688540.242    25440095.460    99832342.211  
> 2021  1  4 22 30 21.0000000  0 15       0.000000000000
G 4  23469082.100   123330822.773    23469086.460    92097696.238  
G 5  23810999.740   125127628.414                                  
G 7  20857002.020   109604287.246                                  
G 8  22024421.080   115739048.875    22024421.980    86428508.344  
G 9  20870150.920   109673338.652    20870151.920    81898924.570  
G14  22187141.600   116594188.320                                  
G27  23374677.220   122834702.875    23374678.080    91727213.391  
G28  22441692.200   117931868.785                                  
G30  21585031.780   113430055.258    21585033.000    84704263.113  
E 7  25322082.540   133068395.781    25322089.180    99369245.773  
E18  28638517.620   150496398.7852                                 
E19  25451558.580   133748820.066    25451563.120    99877356.594  
E21  25121749.000   132015649.191    25121755.100    98583106.074  
E27  23353106.420   122721379.645    23353111.700    91642582.703  
E30  25440551.440   133690967.406    25440557.340    99834154.703  
> 2021  1  4 22 30 22.0000000  0 15       0.000000000000
G 4  23469698.480   123334061.875    23469702.840    92100115.051  
G 5  23810808.240   125126622.000                                  
G 7  20856966.660   109604101.379                                  
G 8  22024288.180   115738350.504    22024289.080    86427986.836  
G 9  20870494.800   109675145.680    20870495.780    81900273.977  
G14  22186604.240   116591364.449                                  
G27  23374959.580   122836186.688    23374960.440    91728321.434  
G28  22441155.280   117929047.203                                  
G30  21584735.660   113428499.082    21584736.880    84703101.039  
E 7  25322547.540   133070839.340    25322554.180    99371070.508  
E18  28637622.280   150491693.7732                                 
E19  25451148.160   133746663.316    25451152.720    99875746.035  
E21  25121424.600   132013944.559    25121430.720    98581833.137  
E27  23353225.400   122722004.938    23353230.680    91643049.641  
E30  25441013.320   133693394.586    25441019.220    99835967.207  
> 2021  1  4 22 30 23.0000000  0 15       0.000000000000
G 4  23470314.920   123337301.234    23470319.260    92102534.055  
G 5  23810616.840   125125616.180                                  
G 7  20856931.320   109603915.719                                  
G 8  22024155.420   115737652.785    22024156.320    86427465.816  
G 9  20870838.760   109676953.215    20870839.740    81901623.762  
G14  22186066.940   116588540.938                                  
G27  23375242.060   122837671.133    23375242.920    91729429.953  
G28  22440618.420   117926225.965                                  
G30  21584439.560   113426943.086    21584440.780    84701939.098  
E 7  25323012.580   133073283.148    25323019.220    99372895.430  
E18  28636726.880   150486988.4302                                 
E19  25450737.800   133744506.816    25450742.340    99874135.660  
E21  25121100.280   132012240.168    25121106.380    98580560.375  
E27  23353344.440   122722630.488    23353349.720    91643516.773  
E30  25441475.200   133695821.793    25441481.100    99837779.727  
> 2021  1  4 22 30 24.0000000  0 15       0.000000000000
G 4  23470931.400   123340540.832    23470935.740    92104953.234  
G 5  23810425.540   125124610.957                                  
G 7  20856896.040   109603730.254                                  
G 8  22024022.760   115736955.691    22024023.660    86426945.258  
G 9  20871182.820   109678761.270    20871183.800    81902973.938  
G14  22185529.720   116585717.777                                  
G27  23375524.660   122839156.203    23375525.520    91730538.934  
G28  22440081.620   117923405.113                                  
G30  21584143.500   113425387.262    21584144.720    84700777.285  
E 7  25323477.680   133075727.223    25323484.320    99374720.551  
E18  28635831.420   150482282.7462                                 
E19  25450327.480   133742350.535    25450332.020    99872525.453  
E21  25120775.980   132010536.043    25120782.100    98579287.816  
E27  23353463.520   122723256.309    23353468.820    91643984.109  
E30  25441937.080   133698249.023    25441942.980    99839592.273  
> 2021  1  4 22 30 25.0000000  0 15       0.000000000000
G 4  23471547.920   123343780.695    23471552.280    92107372.613  
G 5  23810234.380   125123606.336                                  
G 7  20856860.780   109603544.977                                  
G 8  22023890.220   115736259.242    22023891.120    86426425.188  
G 9  20871526.980   109680569.836    20871527.960    81904324.488  
G14  22184992.560   116582894.980                                  
G27  23375807.380   122840641.906    23375808.240    91731648.391  
G28  22439544.900   117920584.590                                  
G30  21583847.460   113423831.617    21583848.680    84699615.602  
E 7  25323942.820   133078171.543    25323949.460    99376545.852  
E18  28634935.880   150477576.7032                                 
E19  25449917.200   133740194.516    25449921.740    99870915.438  
E21  25120451.760   132008832.160    25120457.860    98578015.434  
E27  23353582.660   122723882.398    23353587.960    91644451.641  
E30  25442398.980   133700676.281    25442404.880    99841404.832  
> 2021  1  4 22 30 26.0000000  0 15       0.000000000000
G 4  23472164.500   123347020.797    23472168.840    92109792.168  
G 5  23810043.320   125122602.316                                  
G 7  20856825.560   109603359.895                                  
G 8  22023757.820   115735563.434    22023758.720    86425905.590  
G 9  20871871.240   109682378.906    20871872.220    81905675.418  
G14  22184455.460   116580072.539                                  
G27  23376090.220   122842128.238    23376091.080    91732758.313  
G28  22439008.240   117917764.418                                  
G30  21583551.480   113422276.145    21583552.680    84698454.047  
E 7  25324408.000   133080616.121    25324414.640    99378371.348  
E18  28634040.300   150472870.3362                                 
E19  25449506.960   133738038.727    25449511.500    99869305.594  
E21  25120127.560   132007128.543    25120133.660    98576743.254  
E27  23353701.860   122724508.750    23353707.140    91644919.371  
E30  25442860.880   133703103.559    25442866.780    99843217.410  
> 2021  1  4 22 30 27.0000000  0 15       0.000000000000
G 4  23472781.120   123350261.160    23472785.460    92112211.918  
G 5  23809852.380   125121598.898                                  
G 7  20856790.380   109603175.008                                  
G 8  22023625.540   115734868.270    22023626.440    86425386.469  
G 9  20872215.600   109684188.500    20872216.580    81907026.734  
G14  22183918.440   116577250.461                                  
G27  23376373.180   122843615.203    23376374.040    91733868.707  
G28  22438471.640   117914944.605                                  
G30  21583255.520   113420720.859    21583256.720    84697292.633  
E 7  25324873.240   133083060.961    25324879.880    99380197.039  
E18  28633144.640   150468163.6292                                 
E19  25449096.780   133735883.188    25449101.320    99867695.941  
E21  25119803.420   132005425.195    25119809.520    98575471.273  
E27  23353821.100   122725135.371    23353826.380    91645387.301  
E30  25443322.780   133705530.875    25443328.680    99845030.012  
> 2021  1  4 22 30 28.0000000  0 15       0.000000000000
G 4  23473397.780   123353501.773    23473402.140    92114631.855  
G 5  23809661.540   125120596.074                                  
G 7  20856755.220   109602990.301                                  
G 8  22023493.380   115734173.750    22023494.280    86424867.836  
G 9  20872560.040   109685998.586    20872561.020    81908378.422  
G14  22183381.480   116574428.730                                  
G27  23376656.260   122845102.801    23376657.120    91734979.574  
G28  22437935.120   117912125.137                                  
G30  21582959.580   113419165.734    21582960.800    84696131.336  
E 7  25325338.520   133085506.059    25325345.160    99382022.922  
E18  28632248.920   150463456.5782                                 
E19  25448686.640   133733727.875    25448691.180    99866086.453  
E21  25119479.340   132003722.074    25119485.440    98574199.461  
E27  23353940.400   122725762.254    23353945.680    91645855.430  
E30  25443784.680   133707958.195    25443790.580    99846842.621  
> 2021  1  4 22 30 29.0000000  0 15       0.000000000000
G 4  23474014.500   123356742.629    23474018.860    92117051.973  
G 5  23809470.820   125119593.855                                  
G 7  20856720.120   109602805.801                                  
G 8  22023361.320   115733479.855    22023362.220    86424349.668  
G 9  20872904.580   109687809.191    20872905.580    81909730.500  
G14  22182844.580   116571607.363                                  
G27  23376939.460   122846591.031    23376940.320    91736090.914  
G28  22437398.660   117909306.027                                  
G30  21582663.680   113417610.797    21582664.900    84694970.184  
E 7  25325803.860   133087951.406    25325810.500    99383848.996  
E18  28631353.120   150458749.1952                                 
E19  25448276.540   133731572.805    25448281.080    99864477.148  
E21  25119155.300   132002019.230    25119161.400    98572927.859  
E27  23354059.740   122726389.402    23354065.020    91646323.754  
E30  25444246.600   133710385.547    25444252.500    99848655.254  
> 2021  1  4 22 30 30.0000000  0 15       0.000000000000
G 4  23474631.260   123359983.730    23474635.620    92119472.273  
G 5  23809280.220   125118592.242                                  
G 7  20856685.040   109602621.480                                  
G 8  22023229.400   115732786.605    22023230.300    86423831.980  
G 9  20873249.240   109689620.313    20873250.220    81911082.957  
G14  22182307.760   116568786.348                                  
G27  23377222.780   122848079.887    23377223.640    91737202.723  
G28  22436862.260   117906487.270                                  
G30  21582367.820   113416056.023    21582369.040    84693809.152  
E 7  25326269.240   133090397.016    25326275.880    99385675.262  
E18  28630457.280   150454041.4772                                 
E19  25447866.500   133729417.984    25447871.040    99862868.031  
E21  25118831.300   132000316.613    25118837.400    98571656.426  
E27  23354179.140   122727016.816    23354184.420    91646792.277  
E30  25444708.500   133712812.922    25444714.400    99850467.902  
> 2021  1  4 22 30 31.0000000  0 15       0.000000000000
G 4  23475248.080   123363225.086    23475252.420    92121892.766  
G 5  23809089.740   125117591.230                                  
G 7  20856650.000   109602437.363                                  
G 8  22023097.600   115732093.992    22023098.500    86423314.770  
G 9  20873593.980   109691431.938    20873594.960    81912435.793  
G14  22181771.020   116565965.691                                  
G27  23377506.220   122849569.375    23377507.080    91738315.000  
G28  22436325.940   117903668.891                                  
G30  21582072.000   113414501.426    21582073.200    84692648.250  
E 7  25326734.680   133092842.879    25326741.320    99387501.715  
E18  28629561.360   150449333.4142                                 
E19  25447456.480   133727263.398    25447461.020    99861259.086  
E21  25118507.360   131998614.293    25118513.460    98570385.211  
E27  23354298.580   122727644.496    23354303.860    91647261.000  
E30  25445170.440   133715240.328    25445176.320    99852280.574  
> 2021  1  4 22 30 32.0000000  0 15       0.000000000000
G 4  23475864.940   123366466.691    23475869.280    92124313.441  
G 5  23808899.360   125116590.816                                  
G 7  20856615.000   109602253.438                                  
G 8  22022965.940   115731402.023    22022966.840    86422798.039  
G 9  20873938.820   109693244.070    20873939.800    81913789.012  
G14  22181234.320   116563145.402                                  
G27  23377789.780   122851059.492    23377790.640    91739427.750  
G28  22435789.680   117900850.824                                  
G30  21581776.200   113412947.008    21581777.400    84691487.484  
E 7  25327200.160   133095289.008    25327206.800    99389328.371  
E18  28628665.380   150444625.0082                                 
E19  25447046.520   133725109.063    25447051.080    99859650.328  
E21  25118183.460   131996912.219    25118189.560    98569114.184  
E27  23354418.060   122728272.441    23354423.360    91647729.918  
E30  25445632.360   133717667.754    25445638.260    99854093.262  
> 2021  1  4 22 30 33.0000000  0 15       0.000000000000
G 4  23476481.840   123369708.547    23476486.180    92126734.305  
G 5  23808709.100   125115591.012                                  
G 7  20856580.040   109602069.691                                  
G 8  22022834.380   115730710.684    22022835.280    86422281.781  
G 9  20874283.740   109695056.719    20874284.740    81915142.609  
G14  22180697.700   116560325.453                                  
G27  23378073.460   122852550.238    23378074.320    91740540.969  
G28  22435253.480   117898033.121                                  
G30  21581480.440   113411392.758    21581481.640    84690326.844  
E 7  25327665.700   133097735.395    25327672.340    99391155.215  
E18  28627769.340   150439916.2732                                 
E19  25446636.620   133722954.977    25446641.160    99858041.758  
E21  25117859.620   131995210.391    25117865.720    98567843.340  
E27  23354537.620   122728900.652    23354542.900    91648199.035  
E30  25446094.280   133720095.207    25446100.180    99855905.969  
> 2021  1  4 22 30 34.0000000  0 15       0.000000000000
G 4  23477098.780   123372950.641    23477103.140    92129155.352  
G 5  23808518.960   125114591.801                                  
G 7  20856545.120   109601886.145                                  
G 8  22022702.940   115730019.977    22022703.840    86421765.992  
G 9  20874628.780   109696869.863    20874629.760    81916496.578  
G14  22180161.160   116557505.867                                  
G27  23378357.260   122854041.621    23378358.120    91741654.664  
G28  22434717.360   117895215.770                                  
G30  21581184.700   113409838.695    21581185.920    84689166.344  
E 7  25328131.280   133100182.023    25328137.920    99392982.242  
E18  28626873.240   150435207.2112                                 
E19  25446226.760   133720801.105    25446231.300    99856433.352  
E21  25117535.820   131993508.816    25117541.920    98566572.684  
E27  23354657.200   122729529.125    23354662.500    91648668.352  
E30  25446556.220   133722522.688    25446562.120    99857718.695  
> 2021  1  4 22 30 35.0000000  0 15       0.000000000000
G 4  23477715.780   123376192.988    23477720.140    92131576.582  
G 5  23808328.940   125113593.199                                  
G 7  20856510.220   109601702.789                                  
G 8  22022571.620   115729329.914    22022572.520    86421250.688  
G 9  20874973.900   109698683.520    20874974.900    81917850.934  
G14  22179624.680   116554686.633                                  
G27  23378641.180   122855533.625    23378642.040    91742768.820  
G28  22434181.300   117892398.789                                  
G30  21580889.000   113408284.801    21580890.220    84688005.965  
E 7  25328596.900   133102628.914    25328603.540    99394809.465  
E18  28625977.060   150430497.7852                                 
E19  25445816.940   133718647.484    25445821.480    99854825.125  
E21  25117212.060   131991807.531    25117218.180    98565302.242  
E27  23354776.860   122730157.867    23354782.140    91649137.867  
E30  25447018.160   133724950.188    25447024.060    99859531.441  
> 2021  1  4 22 30 36.0000000  0 15       0.000000000000
G 4  23478332.840   123379435.598    23478337.180    92133998.008  
G 5  23808139.020   125112595.188                                  
G 7  20856475.360   109601519.633                                  
G 8  22022440.420   115728640.488    22022441.320    86420735.855  
G 9  20875319.140   109700497.703    20875320.120    81919205.680  
G14  22179088.260   116551867.766                                  
G27  23378925.240   122857026.270    23378926.080    91743883.457  
G28  22433645.320   117889582.164                                  
G30  21580593.340   113406731.098    21580594.560    84686845.734  
E 7  25329062.580   133105076.070    25329069.220    99396636.887  
E18  28625080.820   150425788.0352                                 
E19  25445407.160   133716494.109    25445411.700    99853217.086  
E21  25116888.360   131990106.469    25116894.460    98564031.969  
E27  23354896.560   122730786.879    23354901.840    91649607.582  
E30  25447480.100   133727377.711    25447486.000    99861344.199  
> 2021  1  4 22 30 38.0000000  0 15       0.000000000000
G 4  23479567.080   123385921.547    23479571.420    92138841.406  
G 5  23807759.540   125110600.977                                  
G 7  20856405.760   109601153.879                                  
G 8  22022178.400   115727263.574    22022179.300    86419707.641  
G 9  20876009.880   109704127.570    20876010.860    81921916.297  
G14  22178015.640   116546231.090                                  
G27  23379493.660   122860013.426    23379494.520    91746114.121  
G28  22432573.540   117883949.961                                  
G30  21580002.120   113403624.180    21580003.340    84684525.633  
E 7  25329994.080   133109971.137    25330000.720    99400292.289  
E18  28623288.160   150416367.5232                                 
E19  25444587.740   133712188.070    25444592.280    99850001.539  
E21  25116241.120   131986705.121    25116247.220    98561492.000  
E27  23355136.100   122732045.691    23355141.380    91650547.605  
E30  25448404.000   133732232.828    25448409.900    99864969.773  
> 2021  1  4 22 30 39.0000000  0 15       0.000000000000
G 4  23480184.260   123389164.891    23480188.620    92141263.387  
G 5  23807569.960   125109604.773                                  
G 7  20856371.020   109600971.289                                  
G 8  22022047.580   115726576.094    22022048.480    86419194.262  
G 9  20876355.400   109705943.270    20876356.380    81923272.172  
G14  22177479.420   116543413.285                                  
G27  23379778.060   122861507.953    23379778.920    91747230.168  
G28  22432037.760   117881134.387                                  
G30  21579706.560   113402070.980    21579707.760    84683365.777  
E 7  25330459.900   133112419.051    25330466.560    99402120.277  
E18  28622391.740   150411656.7582                                 
E19  25444178.100   133710035.414    25444182.640    99848394.035  
E21  25115917.560   131985004.840    25115923.660    98560222.313  
E27  23355255.940   122732675.488    23355261.220    91651017.906  
E30  25448865.960   133734660.422    25448871.860    99866782.586  
> 2021  1  4 22 30 40.0000000  0 15       0.000000000000
G 4  23480801.500   123392408.488    23480805.860    92143685.551  
G 5  23807380.500   125108609.164                                  
G 7  20856336.320   109600788.891                                  
G 8  22021916.880   115725889.273    22021917.780    86418681.379  
G 9  20876701.000   109707759.484    20876702.000    81924628.438  
G14  22176943.280   116540595.840                                  
G27  23380062.580   122863003.117    23380063.440    91748346.684  
G28  22431502.040   117878319.168                                  
G30  21579411.020   113400517.961    21579412.240    84682206.055  
E 7  25330925.780   133114867.227    25330932.420    99403948.461  
E18  28621495.240   150406945.6682                                 
E19  25443768.520   133707883.012    25443773.060    99846786.723  
E21  25115594.060   131983304.820    25115600.160    98558952.816  
E27  23355375.840   122733305.563    23355381.120    91651488.418  
E30  25449327.920   133737088.055    25449333.820    99868595.426  
> 2021  1  4 22 30 41.0000000  0 15       0.000000000000
G 4  23481418.780   123395652.332    23481423.140    92146107.902  
G 5  23807191.160   125107614.160                                  
G 7  20856301.640   109600606.695                                  
G 8  22021786.320   115725203.098    22021787.220    86418168.977  
G 9  20877046.720   109709576.188    20877047.700    81925985.066  
G14  22176407.200   116537778.746                                  
G27  23380347.220   122864498.902    23380348.080    91749463.664  
G28  22430966.400   117875504.320                                  
G30  21579115.520   113398965.113    21579116.740    84681046.461  
E 7  25331391.700   133117315.660    25331398.340    99405776.836  
E18  28620598.680   150402234.2462                                 
E19  25443358.980   133705730.832    25443363.520    99845179.574  
E21  25115270.600   131981605.043    25115276.700    98557683.504  
E27  23355495.780   122733935.883    23355501.080    91651959.113  
E30  25449789.880   133739515.695    25449795.780    99870408.273  
> 2021  1  4 22 30 42.0000000  0 15       0.000000000000
G 4  23482036.120   123398896.418    23482040.460    92148530.434  
G 5  23807001.940   125106619.758                                  
G 7  20856267.000   109600424.695                                  
G 8  22021655.860   115724517.547    22021656.760    86417657.039  
G 9  20877392.520   109711393.430    20877393.500    81927342.098  
G14  22175871.200   116534962.023                                  
G27  23380631.980   122865995.316    23380632.840    91750581.117  
G28  22430430.820   117872689.828                                  
G30  21578820.060   113397412.445    21578821.280    84679887.000  
E 7  25331857.680   133119764.348    25331864.320    99407605.398  
E18  28619702.060   150397522.4572                                 
E19  25442949.480   133703578.914    25442954.020    99843572.625  
E21  25114947.200   131979905.527    25114953.300    98556414.383  
E27  23355615.780   122734566.488    23355621.080    91652430.016  
E30  25450251.860   133741943.363    25450257.760    99872221.141  
> 2021  1  4 22 30 43.0000000  0 15       0.000000000000
G 4  23482653.500   123402140.766    23482657.840    92150953.156  
G 5  23806812.820   125105625.938                                  
G 7  20856232.400   109600242.879                                  
G 8  22021525.520   115723832.645    22021526.420    86417145.586  
G 9  20877738.420   109713211.168    20877739.420    81928699.496  
G14  22175335.260   116532145.648                                  
G27  23380916.860   122867492.363    23380917.720    91751699.043  
G28  22429895.300   117869875.664                                  
G30  21578524.640   113395859.957    21578525.860    84678727.676  
E 7  25332323.700   133122213.293    25332330.340    99409434.156  
E18  28618805.380   150392810.3592                                 
E19  25442540.020   133701427.219    25442544.560    99841965.840  
E21  25114623.840   131978206.270    25114629.940    98555145.457  
E27  23355735.840   122735197.352    23355741.120    91652901.113  
E30  25450713.840   133744371.055    25450719.740    99874034.027  
> 2021  1  4 22 30 44.0000000  0 15       0.000000000000
G 4  23483270.920   123405385.363    23483275.280    92153376.066  
G 5  23806623.820   125104632.727                                  
G 7  20856197.840   109600061.254                                  
G 8  22021395.320   115723148.402    22021396.220    86416634.625  
G 9  20878084.420   109715029.414    20878085.420    81930057.281  
G14  22174799.400   116529329.625                                  
G27  23381201.860   122868990.035    23381202.720    91752817.434  
G28  22429359.840   117867061.859                                  
G30  21578229.240   113394307.633    21578230.460    84677568.473  
E 7  25332789.760   133124662.488    25332796.400    99411263.098  
E18  28617908.620   150388097.9022                                 
E19  25442130.620   133699275.773    25442135.160    99840359.242  
E21  25114300.520   131976507.270    25114306.620    98553876.723  
E27  23355855.940   122735828.477    23355861.220    91653372.410  
E30  25451175.820   133746798.773    25451181.720    99875846.934  
> 2021  1  4 22 30 45.0000000  0 15       0.000000000000
G 4  23483888.400   123408630.191    23483892.740    92155799.152  
G 5  23806434.920   125103640.121                                  
G 7  20856163.320   109599879.820                                  
G 8  22021265.220   115722464.777    22021266.120    86416124.125  
G 9  20878430.520   109716848.176    20878431.520    81931415.445  
G14  22174263.600   116526513.973                                  
G27  23381486.980   122870488.344    23381487.840    91753936.297  
G28  22428824.460   117864248.406                                  
G30  21577933.880   113392755.496    21577935.100    84676409.410  
E 7  25333255.880   133127111.941    25333262.520    99413092.234  
E18  28617011.820   150383385.1212                                 
E19  25441721.260   133697124.570    25441725.800    99838752.824  
E21  25113977.260   131974808.520    25113983.360    98552608.180  
E27  23355976.080   122736459.867    23355981.380    91653843.902  
E30  25451637.800   133749226.520    25451643.700    99877659.859  
> 2021  1  4 22 30 46.0000000  0 15       0.000000000000
G 4  23484505.920   123411875.277    23484510.260    92158222.430  
G 5  23806246.160   125102648.109                                  
G 7  20856128.840   109599698.574                                  
G 8  22021135.260   115721781.820    22021136.160    86415614.125  
G 9  20878776.720   109718667.457    20878777.720    81932773.996  
G14  22173727.860   116523698.660                                  
G27  23381772.220   122871987.273    23381773.080    91755055.625  
G28  22428289.140   117861435.305                                  
G30  21577638.540   113391203.531    21577639.760    84675250.477  
E 7  25333722.040   133129561.660    25333728.680    99414921.570  
E18  28616114.940   150378671.9842                                 
E19  25441311.940   133694973.609    25441316.480    99837146.586  
E21  25113654.060   131973110.031    25113660.160    98551339.828  
E27  23356096.280   122737091.531    23356101.580    91654315.598  
E30  25452099.780   133751654.293    25452105.680    99879472.809  
> 2021  1  4 22 30 47.0000000  0 15       0.000000000000
G 4  23485123.480   123415120.613    23485127.840    92160645.895  
G 5  23806057.500   125101656.703                                  
G 7  20856094.380   109599517.535                                  
G 8  22021005.420   115721099.504    22021006.320    86415104.602  
G 9  20879123.020   109720487.242    20879124.000    81934132.930  
G14  22173192.180   116520883.723                                  
G27  23382057.580   122873486.840    23382058.440    91756175.434  
G28  22427753.900   117858622.578                                  
G30  21577343.260   113389651.738    21577344.460    84674091.668  
E 7  25334188.260   133132011.625    25334194.900    99416751.090  
E18  28615218.000   150373958.5312                                 
E19  25440902.680   133692822.887    25440907.220    99835540.527  
E21  25113330.880   131971411.793    25113336.980    98550071.664  
E27  23356216.540   122737723.453    23356221.820    91654787.492  
E30  25452561.780   133754082.082    25452567.680    99881285.766  
> 2021  1  4 22 30 48.0000000  0 15       0.000000000000
G 4  23485741.100   123418366.195    23485745.460    92163069.543  
G 5  23805868.960   125100665.898                                  
G 7  20856059.960   109599336.672                                  
G 8  22020875.700   115720417.813    22020876.600    86414595.551  
G 9  20879469.400   109722307.523    20879470.400    81935492.230  
G14  22172656.580   116518069.129                                  
G27  23382343.060   122874987.027    23382343.920    91757295.703  
G28  22427218.720   117855810.191                                  
G30  21577047.980   113388100.113    21577049.200    84672932.988  
E 7  25334654.520   133134461.855    25334661.160    99418580.805  
E18  28614320.980   150369244.7342                                 
E19  25440493.460   133690672.418    25440498.000    99833934.656  
E21  25113007.780   131969713.820    25113013.880    98548803.695  
E27  23356336.840   122738355.641    23356342.120    91655259.578  
E30  25453023.780   133756509.898    25453029.680    99883098.746  
> 2021  1  4 22 30 49.0000000  0 15       0.000000000000
G 4  23486358.760   123421612.031    23486363.120    92165493.379  
G 5  23805680.520   125099675.691                                  
G 7  20856025.580   109599156.012                                  
G 8  22020746.100   115719736.770    22020747.000    86414086.977  
G 9  20879815.900   109724128.305    20879816.880    81936851.902  
G14  22172121.060   116515254.902                                  
G27  23382628.660   122876487.855    23382629.520    91758416.449  
G28  22426683.600   117852998.160                                  
G30  21576752.760   113386548.672    21576753.980    84671774.445  
E 7  25335120.840   133136912.332    25335127.480    99420410.707  
E18  28613423.920   150364530.5942                                 
E19  25440084.280   133688522.172    25440088.820    99832328.953  
E21  25112684.720   131968016.113    25112690.800    98547535.930  
E27  23356457.200   122738988.094    23356462.480    91655731.863  
E30  25453485.780   133758937.738    25453491.680    99884911.742  
> 2021  1  4 22 30 50.0000000  0 15       0.000000000000
G 4  23486976.460   123424858.109    23486980.820    92167917.395  
G 5  23805492.200   125098686.086                                  
G 7  20855991.240   109598975.543                                  
G 8  22020616.620   115719056.371    22020617.520    86413578.887  
G 9  20880162.480   109725949.613    20880163.460    81938211.969  
G14  22171585.600   116512441.027                                  
G27  23382914.360   122877989.301    23382915.240    91759537.656  
G28  22426148.560   117850186.492                                  
G30  21576457.560   113384997.414    21576458.780    84670616.035  
E 7  25335587.200   133139363.066    25335593.840    99422240.801  
E18  28612526.780   150359816.1172                                 
E19  25439675.140   133686372.168    25439679.680    99830723.434  
E21  25112361.700   131966318.641    25112367.800    98546268.336  
E27  23356577.600   122739620.809    23356582.880    91656204.348  
E30  25453947.800   133761365.602    25453953.700    99886724.754  
> 2021  1  4 22 30 51.0000000  0 15       0.000000000000
G 4  23487594.220   123428104.438    23487598.580    92170341.602  
G 5  23805304.000   125097697.078                                  
G 7  20855956.940   109598795.258                                  
G 8  22020487.280   115718376.621    22020488.180    86413071.281  
G 9  20880509.160   109727771.422    20880510.140    81939572.410  
G14  22171050.200   116509627.504                                  
G27  23383200.200   122879491.383    23383201.060    91760659.340  
G28  22425613.580   117847375.180                                  
G30  21576162.400   113383446.324    21576163.620    84669457.754  
E 7  25336053.600   133141814.055    25336060.240    99424071.082  
E18  28611629.580   150355101.3092                                 
E19  25439266.060   133684222.422    25439270.600    99829118.105  
E21  25112038.720   131964621.434    25112044.820    98545000.941  
E27  23356698.040   122740253.793    23356703.340    91656677.027  
E30  25454409.800   133763793.488    25454415.700    99888537.785  
> 2021  1  4 22 30 52.0000000  0 15       0.000000000000
G 4  23488212.020   123431351.004    23488216.380    92172765.984  
G 5  23805115.920   125096708.676                                  
G 7  20855922.660   109598615.172                                  
G 8  22020358.040   115717697.500    22020358.940    86412564.148  
G 9  20880855.940   109729593.750    20880856.920    81940933.238  
G14  22170514.880   116506814.352                                  
G27  23383486.160   122880994.086    23383487.020    91761781.492  
G28  22425078.680   117844564.199                                  
G30  21575867.280   113381895.410    21575868.480    84668299.605  
E 7  25336520.060   133144265.309    25336526.700    99425901.563  
E18  28610732.320   150350386.1722                                 
E19  25438857.020   133682072.914    25438861.560    99827512.949  
E21  25111715.800   131962924.480    25111721.900    98543733.734  
E27  23356818.540   122740887.031    23356823.840    91657149.898  
E30  25454871.820   133766221.391    25454877.720    99890350.828  
> 2021  1  4 22 30 53.0000000  0 15       0.000000000000
G 4  23488829.880   123434597.828    23488834.240    92175190.559  
G 5  23804927.940   125095720.871                                  
G 7  20855888.440   109598435.277                                  
G 8  22020228.940   115717019.047    22020229.840    86412057.508  
G 9  20881202.800   109731416.570    20881203.800    81942294.434  
G14  22169979.620   116504001.551                                  
G27  23383772.240   122882497.426    23383773.100    91762904.113  
G28  22424543.840   117841753.598                                  
G30  21575572.180   113380344.668    21575573.380    84667141.582  
E 7  25336986.560   133146716.820    25336993.220    99427732.234  
E18  28609835.000   150345670.6842                                 
E19  25438448.020   133679923.641    25438452.560    99825907.973  
E21  25111392.940   131961227.781    25111399.040    98542466.719  
E27  23356939.100   122741520.543    23356944.380    91657622.977  
E30  25455333.840   133768649.320    25455339.740    99892163.891  
> 2021  1  4 22 30 54.0000000  0 15       0.000000000000
G 4  23489447.780   123437844.891    23489452.140    92177615.313  
G 5  23804740.080   125094733.680                                  
G 7  20855854.240   109598255.578                                  
G 8  22020099.960   115716341.234    22020100.860    86411551.352  
G 9  20881549.780   109733239.918    20881550.760    81943656.027  
G14  22169444.420   116501189.109                                  
G27  23384058.440   122884001.395    23384059.300    91764027.203  
G28  22424009.060   117838943.355                                  
G30  21575277.120   113378794.105    21575278.320    84665983.695  
E 7  25337453.120   133149168.574    25337459.760    99429563.090  
E18  28608937.600   150340954.8712                                 
E19  25438039.080   133677774.625    25438043.620    99824303.191  
E21  25111070.120   131959531.352    25111076.220    98541199.906  
E27  23357059.700   122742154.324    23357065.000    91658096.258  
E30  25455795.860   133771077.273    25455801.760    99893976.973  
> 2021  1  4 22 30 55.0000000  0 15       0.000000000000
G 4  23490065.720   123441092.211    23490070.080    92180040.258  
G 5  23804552.340   125093747.074                                  
G 7  20855820.080   109598076.066                                  
G 8  22019971.100   115715664.055    22019972.000    86411045.664  
G 9  20881896.840   109735063.766    20881897.840    81945017.988  
G14  22168909.300   116498377.023                                  
G27  23384344.740   122885505.984    23384345.620    91765150.762  
G28  22423474.360   117836133.441                                  
G30  21574982.080   113377243.703    21574983.300    84664825.930  
E 7  25337919.720   133151620.586    25337926.360    99431394.137  
E18  28608040.140   150336238.7152                                 
E19  25437630.180   133675625.820    25437634.720    99822698.566  
E21  25110747.340   131957835.168    25110753.440    98539933.277  
E27  23357180.360   122742788.359    23357185.640    91658569.723  
E30  25456257.900   133773505.250    25456263.800    99895790.070  
> 2021  1  4 22 30 56.0000000  0 15       0.000000000000
G 4  23490683.720   123444339.781    23490688.080    92182465.387  
G 5  23804364.720   125092761.074                                  
G 7  20855785.960   109597896.750                                  
G 8  22019842.360   115714987.516    22019843.260    86410540.457  
G 9  20882244.000   109736888.113    20882245.000    81946380.328  
G14  22168374.240   116495565.301                                  
G27  23384631.180   122887011.215    23384632.040    91766274.797  
G28  22422939.720   117833323.898                                  
G30  21574687.080   113375693.488    21574688.300    84663668.301  
E 7  25338386.380   133154072.855    25338393.020    99433225.375  
E18  28607142.620   150331522.2152                                 
E19  25437221.320   133673477.289    25437225.860    99821094.145  
E21  25110424.620   131956139.242    25110430.720    98538666.840  
E27  23357301.060   122743422.664    23357306.360    91659043.391  
E30  25456719.920   133775933.254    25456725.840    99897603.188  
> 2021  1  4 22 30 57.0000000  0 15       0.000000000000
G 4  23491301.760   123447587.602    23491306.120    92184890.707  
G 5  23804177.200   125091775.676                                  
G 7  20855751.860   109597717.617                                  
G 8  22019713.740   115714311.613    22019714.640    86410035.727  
G 9  20882591.260   109738712.977    20882592.260    81947743.051  
G14  22167839.260   116492753.930                                  
G27  23384917.740   122888517.066    23384918.600    91767399.297  
G28  22422405.140   117830514.711                                  
G30  21574392.120   113374143.457    21574393.340    84662510.809  
E 7  25338853.080   133156525.379    25338859.720    99435056.805  
E18  28606245.040   150326805.3872                                 
E19  25436812.520   133671328.996    25436817.060    99819489.898  
E21  25110101.940   131954443.566    25110108.040    98537400.586  
E27  23357421.820   122744057.234    23357427.100    91659517.258  
E30  25457181.960   133778361.285    25457187.880    99899416.328  
> 2021  1  4 22 30 58.0000000  0 15       0.000000000000
G 4  23491919.880   123450835.406    23491924.280    92187315.914  
G 5  23803989.660   125090791.656                                  
G 7  20855717.680   109597539.477                                  
G 8  22019585.240   115713636.324    22019586.140    86409531.480  
G 9  20882938.640   109740538.305    20882939.620    81949106.141  
G14  22167304.200   116489943.672                                  
G27  23385204.420   122890023.559    23385205.260    91768524.328  
G28  22421870.500   117827706.641                                  
G30  21574097.200   113372593.574    21574098.400    84661353.477  
E 7  25339319.840   133158978.055    25339326.520    99436888.277  
E18  28605347.380   150322088.3052                                 
E19  25436403.760   133669180.938    25436408.300    99817885.832  
E21  25109779.320   131952748.156    25109785.420    98536134.527  
E27  23357542.620   122744692.086    23357547.900    91659991.344  
E30  25457644.000   133780789.344    25457649.920    99901229.488  
> 2021  1  4 22 30 59.0000000  0 15       0.000000000000
G 4  23492538.020   123454083.723    23492542.400    92189741.602  
G 5  23803802.360   125089807.465                                  
G 7  20855683.660   109597360.742                                  
G 8  22019456.860   115712961.715    22019457.760    86409027.715  
G 9  20883286.080   109742364.195    20883287.080    81950469.629  
G14  22166769.340   116487133.023                                  
G27  23385491.200   122891530.672    23385492.060    91769649.770  
G28  22421336.060   117824898.168                                  
G30  21573802.300   113371043.887    21573803.500    84660196.242  
E 7  25339786.640   133161431.098    25339793.300    99438720.094  
E18  28604449.680   150317370.8132                                 
E19  25435995.040   133667033.125    25435999.580    99816281.945  
E21  25109456.740   131951053.004    25109462.840    98534868.668  
E27  23357663.480   122745327.188    23357668.760    91660465.605  
E30  25458106.060   133783217.414    25458111.960    99903042.660  
> 2021  1  4 22 31  0.0000000  0 15       0.000000000000
G 4  23493156.200   123457332.281    23493160.580    92192167.477  
G 5  23803615.200   125088823.887                                  
G 7  20855649.680   109597182.188                                  
G 8  22019328.620   115712287.742    22019329.500    86408524.422  
G 9  20883633.640   109744190.605    20883634.620    81951833.504  
G14  22166234.560   116484322.730                                  
G27  23385778.120   122893038.414    23385778.960    91770775.680  
G28  22420801.700   117822090.051                                  
G30  21573507.440   113369494.395    21573508.640    84659039.152  
E 7  25340253.500   133163884.406    25340260.160    99440552.109  
E18  28603551.900   150312652.9882                                 
E19  25435586.360   133664885.574    25435590.900    99814678.258  
E21  25109134.200   131949358.109    25109140.300    98533603.004  
E27  23357784.380   122745962.563    23357789.660    91660940.074  
E30  25458568.100   133785645.523    25458574.020    99904855.855  
> 2021  1  4 22 31  1.0000000  0 15       0.000000000000
G 4  23493774.420   123460581.086    23493778.820    92194593.531  
G 5  23803428.140   125087840.895                                  
G 7  20855615.740   109597003.813                                  
G 8  22019200.480   115711614.406    22019201.360    86408021.609  
G 9  20883981.280   109746017.508    20883982.260    81953197.750  
G14  22165699.840   116481512.793                                  
G27  23386065.140   122894546.785    23386066.000    91771902.063  
G28  22420267.400   117819282.293                                  
G30  21573212.600   113367945.047    21573213.800    84657882.172  
E 7  25340720.380   133166337.957    25340727.060    99442384.305  
E18  28602654.060   150307934.8132                                 
E19  25435177.740   133662738.238    25435182.280    99813074.727  
E21  25108811.720   131947663.457    25108817.820    98532337.516  
E27  23357905.340   122746598.188    23357910.620    91661414.730  
E30  25459030.160   133788073.641    25459036.060    99906669.059  
> 2021  1  4 22 31  3.0000000  0 15       0.000000000000
G 4  23495011.020   123467079.449    23495015.420    92199446.199  
G 5  23803054.360   125085876.734                                  
G 7  20855547.960   109596647.641                                  
G 8  22018944.580   115710269.695    22018945.480    86407017.441  
G 9  20884676.880   109749672.840    20884677.860    81955927.383  
G14  22164630.620   116475893.988                                  
G27  23386639.580   122897565.414    23386640.420    91774156.230  
G28  22419198.980   117813667.801                                  
G30  21572623.040   113364846.898    21572624.240    84655568.621  
E 7  25341654.320   133171245.828    25341660.980    99446049.273  
E18  28600858.180   150298497.4572                                 
E19  25434360.620   133658444.301    25434365.160    99809868.215  
E21  25108166.900   131944274.938    25108173.000    98529807.129  
E27  23358147.400   122747870.242    23358152.680    91662364.641  
E30  25459954.280   133792929.957    25459960.180    99910295.527  
> 2021  1  4 22 31  4.0000000  0 15       0.000000000000
G 4  23495629.380   123470328.992    23495633.780    92201872.809  
G 5  23802867.660   125084895.559                                  
G 7  20855514.120   109596469.844                                  
G 8  22018816.820   115709598.309    22018817.720    86406516.082  
G 9  20885024.800   109751501.273    20885025.800    81957292.770  
G14  22164096.120   116473085.141                                  
G27  23386926.960   122899075.672    23386927.820    91775284.023  
G28  22418664.900   117810861.109                                  
G30  21572328.320   113363298.094    21572329.520    84654412.047  
E 7  25342121.360   133173700.148    25342128.020    99447882.043  
E18  28599960.160   150293778.2732                                 
E19  25433952.140   133656297.703    25433956.680    99808265.238  
E21  25107844.580   131942581.070    25107850.660    98528542.227  
E27  23358268.500   122748506.668    23358273.780    91662839.895  
E30  25460416.360   133795358.152    25460422.260    99912108.789  
> 2021  1  4 22 31  5.0000000  0 15       0.000000000000
G 4  23496247.800   123473578.793    23496252.200    92204299.602  
G 5  23802681.060   125083914.984                                  
G 7  20855480.320   109596292.242                                  
G 8  22018689.180   115708927.566    22018690.080    86406015.199  
G 9  20885372.840   109753330.211    20885373.820    81958658.531  
G14  22163561.680   116470276.633                                  
G27  23387214.480   122900586.551    23387215.320    91776412.273  
G28  22418130.860   117808054.773                                  
G30  21572033.620   113361749.461    21572034.820    84653255.598  
E 7  25342588.440   133176154.715    25342595.120    99449715.000  
E18  28599062.060   150289058.7582                                 
E19  25433543.700   133654151.344    25433548.240    99806662.438  
E21  25107522.280   131940887.453    25107528.380    98527277.512  
E27  23358389.660   122749143.348    23358394.940    91663315.336  
E30  25460878.420   133797786.363    25460884.340    99913922.063  
> 2021  1  4 22 31  6.0000000  0 15       0.000000000000
G 4  23496866.260   123476828.836    23496870.660    92206726.582  
G 5  23802494.560   125082935.016                                  
G 7  20855446.560   109596114.840                                  
G 8  22018561.660   115708257.469    22018562.560    86405514.805  
G 9  20885720.980   109755159.656    20885721.960    81960024.676  
G14  22163027.300   116467468.488                                  
G27  23387502.100   122902098.074    23387502.960    91777541.008  
G28  22417596.900   117805248.793                                  
G30  21571738.940   113360200.992    21571740.160    84652099.277  
E 7  25343055.580   133178609.547    25343062.260    99451548.152  
E18  28598163.900   150284338.9062                                 
E19  25433135.300   133652005.234    25433139.840    99805059.824  
E21  25107200.040   131939194.090    25107206.140    98526012.992  
E27  23358510.860   122749780.297    23358516.140    91663790.980  
E30  25461340.500   133800214.602    25461346.400    99915735.355  
> 2021  1  4 22 31  7.0000000  0 15       0.000000000000
G 4  23497484.780   123480079.129    23497489.160    92209153.750  
G 5  23802308.200   125081955.641                                  
G 7  20855412.840   109595937.633                                  
G 8  22018434.260   115707588.000    22018435.160    86405014.875  
G 9  20886069.200   109756989.609    20886070.180    81961391.199  
G14  22162493.000   116464660.703                                  
G27  23387789.860   122903610.211    23387790.700    91778670.199  
G28  22417063.000   117802443.160                                  
G30  21571444.320   113358652.715    21571445.520    84650943.094  
E 7  25343522.780   133181064.629    25343529.440    99453381.492  
E18  28597265.680   150279618.7272                                 
E19  25432726.960   133649859.359    25432731.500    99803457.383  
E21  25106877.860   131937500.988    25106883.960    98524748.660  
E27  23358632.120   122750417.508    23358637.400    91664266.820  
E30  25461802.580   133802642.863    25461808.480    99917548.668  
> 2021  1  4 22 31  9.0000000  0 15       0.000000000000
G 4  23498721.940   123486580.441    23498726.320    92214008.621  
G 5  23801935.800   125079998.707                                  
G 7  20855345.500   109595583.789                                  
G 8  22018179.840   115706251.012    22018180.740    86404016.477  
G 9  20886765.940   109760651.051    20886766.940    81964125.391  
G14  22161424.580   116459046.195                                  
G27  23388365.720   122906636.367    23388366.560    91780929.992  
G28  22415995.420   117796832.969                                  
G30  21570855.160   113355556.664    21570856.360    84648631.109  
E 7  25344457.280   133185975.563    25344463.960    99457048.746  
E18  28595469.020   150270177.3162                                 
E19  25431910.400   133645568.344    25431914.940    99800253.055  
E21  25106233.620   131934115.551    25106239.720    98522220.574  
E27  23358874.780   122751692.727    23358880.060    91665219.094  
E30  25462726.760   133807499.449    25462732.660    99921175.336  
> 2021  1  4 22 31 10.0000000  0 15       0.000000000000
G 4  23499340.580   123489831.484    23499344.980    92216436.344  
G 5  23801749.780   125079021.152                                  
G 7  20855311.880   109595407.168                                  
G 8  22018052.820   115705583.504    22018053.720    86403518.012  
G 9  20887114.460   109762482.539    20887115.460    81965493.063  
G14  22160890.480   116456239.488                                  
G27  23388653.820   122908150.406    23388654.680    91782060.605  
G28  22415461.720   117794028.410                                  
G30  21570560.620   113354008.914    21570561.820    84647475.324  
E 7  25344924.620   133188431.418    25344931.280    99458882.660  
E18  28594570.620   150265456.1252                                 
E19  25431502.200   133643423.199    25431506.740    99798651.160  
E21  25105911.580   131932423.199    25105917.680    98520956.809  
E27  23358996.180   122752330.727    23359001.480    91665695.523  
E30  25463188.860   133809927.781    25463194.760    99922988.703  
> 2021  1  4 22 31 11.0000000  0 15       0.000000000000
G 4  23499959.280   123493082.766    23499963.680    92218864.250  
G 5  23801563.860   125078044.195                                  
G 7  20855278.300   109595230.746                                  
G 8  22017925.920   115704916.633    22017926.800    86403020.027  
G 9  20887463.080   109764314.535    20887464.060    81966861.109  
G14  22160356.440   116453433.145                                  
G27  23388942.040   122909665.070    23388942.900    91783191.684  
G28  22414928.100   117791224.215                                  
G30  21570266.140   113352461.336    21570267.340    84646319.664  
E 7  25345392.000   133190887.520    25345398.660    99460716.766  
E18  28593672.140   150260734.6132                                 
E19  25431094.040   133641278.313    25431098.580    99797049.461  
E21  25105589.580   131930731.133    25105595.680    98519693.250  
E27  23359117.640   122752969.000    23359122.920    91666172.152  
E30  25463650.960   133812356.137    25463656.860    99924802.082  
> 2021  1  4 22 31 12.0000000  0 15       0.000000000000
G 4  23500578.020   123496334.289    23500582.420    92221292.336  
G 5  23801378.060   125077067.828                                  
G 7  20855244.780   109595054.512                                  
G 8  22017799.140   115704250.402    22017800.020    86402522.520  
G 9  20887811.780   109766147.027    20887812.780    81968229.531  
G14  22159822.480   116450627.152                                  
G27  23389230.400   122911180.348    23389231.240    91784323.227  
G28  22414394.540   117788420.359                                  
G30  21569971.660   113350913.922    21569972.860    84645164.133  
E 7  25345859.420   133193343.875    25345866.100    99462551.055  
E18  28592773.600   150256012.7462                                 
E19  25430685.920   133639133.641    25430690.460    99795447.918  
E21  25105267.640   131929039.305    25105273.740    98518429.871  
E27  23359239.140   122753607.523    23359244.440    91666648.973  
E30  25464113.060   133814784.508    25464118.960    99926615.477  
> 2021  1  4 22 31 13.0000000  0 15       0.000000000000
G 4  23501196.820   123499586.063    23501201.200    92223720.609  
G 5  23801192.380   125076092.070                                  
G 7  20855211.280   109594878.477                                  
G 8  22017672.480   115703584.813    22017673.360    86402025.488  
G 9  20888160.600   109767980.039    20888161.580    81969598.336  
G14  22159288.580   116447821.516                                  
G27  23389518.860   122912696.258    23389519.720    91785455.234  
G28  22413861.040   117785616.867                                  
G30  21569677.240   113349366.699    21569678.440    84644008.738  
E 7  25346326.900   133195800.488    25346333.580    99464385.539  
E18  28591874.980   150251290.5472                                 
E19  25430277.840   133636989.227    25430282.380    99793846.570  
E21  25104945.740   131927347.730    25104951.840    98517166.688  
E27  23359360.700   122754246.320    23359366.000    91667125.996  
E30  25464575.160   133817212.906    25464581.080    99928428.891  
> 2021  1  4 22 31 14.0000000  0 15       0.000000000000
G 4  23501815.640   123502838.078    23501820.040    92226149.059  
G 5  23801006.820   125075116.914                                  
G 7  20855177.800   109594702.629                                  
G 8  22017545.940   115702919.883    22017546.840    86401528.949  
G 9  20888509.500   109769813.555    20888510.480    81970967.523  
G14  22158754.760   116445016.242                                  
G27  23389807.440   122914212.793    23389808.300    91786587.711  
G28  22413327.620   117782813.723                                  
G30  21569382.840   113347819.645    21569384.040    84642853.469  
E 7  25346794.440   133198257.359    25346801.100    99466220.215  
E18  28590976.320   150246568.0042                                 
E19  25429869.820   133634845.055    25429874.360    99792245.406  
E21  25104623.900   131925656.422    25104630.000    98515903.695  
E27  23359482.320   122754885.375    23359487.600    91667603.215  
E30  25465037.280   133819641.328    25465043.180    99930242.320  
> 2021  1  4 22 31 15.0000000  0 15       0.000000000000
G 4  23502434.540   123506090.336    23502438.920    92228577.695  
